{
"type": "FeatureCollection",
"name": "Category_5",
"crs": { "type": "name", "properties": { "name": "urn:ogc:def:crs:OGC:1.3:CRS84" } },
"features": [
{ "type": "Feature", "properties": { "Name_CH": "波德申叶氏宗祠", "Name_ML": "Persatuan Suku Kaum Yap Port Dickson Negeri Sembilan", "Name_EN": null, "Location": "6, Tingkat 1,Taman Samudera, Per. Kurau 1, Batu 11\/2,Jalan Seremban,71000 Port Dickson, Negeri Sembilan.", "Region": "Negeri Sembilan", "Category": "血缘", "PageNumber": 229, "Country": "Malaysia", "latitude": 2.5417663, "longitude": 101.7993719 }, "geometry": { "type": "Point", "coordinates": [ 101.7993719, 2.5417663 ] } },
{ "type": "Feature", "properties": { "Name_CH": "马来西亚邱肇基公会", "Name_ML": "Persatuan Khoo Tiow Kee Malaysia", "Name_EN": null, "Location": "395,Jalan Seng Meng Lee,70200 Seremban, Negeri Sembilan.", "Region": "Negeri Sembilan", "Category": "血缘", "PageNumber": 229, "Country": "Malaysia", "latitude": 2.7344252, "longitude": 101.940294 }, "geometry": { "type": "Point", "coordinates": [ 101.940294, 2.7344252 ] } },
{ "type": "Feature", "properties": { "Name_CH": "马来西亚福建永春埔头霞陵林氏家族会", "Name_ML": "Persatuan Hokkien Eng Choon Por Tau Har Leng (Lim) Malaysia", "Name_EN": null, "Location": "25, Tingkat 2, Taman Sornam, 72100 Bahau, Negeri Sembilan.", "Region": "Negeri Sembilan", "Category": "血缘", "PageNumber": 229, "Country": "Malaysia", "latitude": 2.8075036, "longitude": 102.3898729 }, "geometry": { "type": "Point", "coordinates": [ 102.3898729, 2.8075036 ] } },
{ "type": "Feature", "properties": { "Name_CH": "森美兰林氏联宗会", "Name_ML": "Persatuan Keturunan Lim Negeri Sembilan", "Name_EN": null, "Location": "158, Bukit Pelandok, 71960 Seremban, Negeri Sembilan.", "Region": "Negeri Sembilan", "Category": "血缘", "PageNumber": 230, "Country": "Malaysia", "latitude": 2.646842, "longitude": 101.7468202 }, "geometry": { "type": "Point", "coordinates": [ 101.7468202, 2.646842 ] } },
{ "type": "Feature", "properties": { "Name_CH": "森美兰梁氏公会", "Name_ML": "Persatuan Persaudaraan Klan Neo Negeri Sembilan", "Name_EN": null, "Location": "45,Persiaran Kurau 2,Taman Samudra, 71000 Port Dickson, Negeri Sembilan.", "Region": "Negeri Sembilan", "Category": "血缘", "PageNumber": 230, "Country": "Malaysia", "latitude": 2.5424325, "longitude": 101.8000517 }, "geometry": { "type": "Point", "coordinates": [ 101.8000517, 2.5424325 ] } },
{ "type": "Feature", "properties": { "Name_CH": "森美兰苏氏联宗会", "Name_ML": "Persatuan Saw Negeri Sembilan", "Name_EN": null, "Location": "17(atas) Jalan Bypass, Taman Sri Mawar, 71000 Port Dickson, Negeri Sembilan.", "Region": "Negeri Sembilan", "Category": "血缘", "PageNumber": 230, "Country": "Malaysia", "latitude": 2.536107, "longitude": 101.801187 }, "geometry": { "type": "Point", "coordinates": [ 101.801187, 2.536107 ] } },
{ "type": "Feature", "properties": { "Name_CH": "森美兰石氏联宗会", "Name_ML": null, "Name_EN": "The Negeri Sembilan Cheok Clansmen Association", "Location": "26A,Main Road, Lukut Port Dickson, Negeri Sembilan.", "Region": "Negeri Sembilan", "Category": "血缘", "PageNumber": 230, "Country": "Malaysia", "latitude": 2.570311, "longitude": 101.830477 }, "geometry": { "type": "Point", "coordinates": [ 101.830477, 2.570311 ] } },
{ "type": "Feature", "properties": { "Name_CH": "森美兰彭亨雪兰莪庄氏联宗会", "Name_ML": "Persatuan Chong Negeri Sembilan Pahang Dan Selangor", "Name_EN": null, "Location": "532,Taman Sg Ujong, Jalan Rasah, 70300 Seremban, Negeri Sembilan.", "Region": "Negeri Sembilan", "Category": "血缘", "PageNumber": 230, "Country": "Malaysia", "latitude": 2.6942419, "longitude": 101.9359109 }, "geometry": { "type": "Point", "coordinates": [ 101.9359109, 2.6942419 ] } },
{ "type": "Feature", "properties": { "Name_CH": "森美兰龙冈亲义会", "Name_ML": "Persatuan Lung Kong Negeri Sembilan", "Name_EN": null, "Location": "227(Upstairs)Taman A.S.T., Jalan Sg Ujong(Jalan Labu), 70200 Seremban, Negeri Sembilan.", "Region": "Negeri Sembilan", "Category": "血缘", "PageNumber": 230, "Country": "Malaysia", "latitude": 2.7133351, "longitude": 101.9133964 }, "geometry": { "type": "Point", "coordinates": [ 101.9133964, 2.7133351 ] } },
{ "type": "Feature", "properties": { "Name_CH": "森美兰赖氏宗祠", "Name_ML": "Persatuan Keturunan Lai Negeri Sembilan", "Name_EN": null, "Location": "36, Jalan Singapura, Seremban 70000, Negeri Sembilan.", "Region": "Negeri Sembilan", "Category": "血缘", "PageNumber": 230, "Country": "Malaysia", "latitude": 2.7240694, "longitude": 101.9390862 }, "geometry": { "type": "Point", "coordinates": [ 101.9390862, 2.7240694 ] } },
{ "type": "Feature", "properties": { "Name_CH": "森美兰州李氏联宗会", "Name_ML": "Persatuan Lee's Negeri Sembilan", "Name_EN": "The Negeri Sembilan United Lee' s Association", "Location": "83, Jalan Tuanku Munawir, 70000 Seremban, Negeri Sembilan.", "Region": "Negeri Sembilan", "Category": "血缘", "PageNumber": 230, "Country": "Malaysia", "latitude": 2.7275869, "longitude": 101.9364838 }, "geometry": { "type": "Point", "coordinates": [ 101.9364838, 2.7275869 ] } },
{ "type": "Feature", "properties": { "Name_CH": "森美兰谭氏联宗会", "Name_ML": "Persatuan Negeri Sembilan Tham Clansmen", "Name_EN": "The Negeri Sembilan Tham Clansmen Association", "Location": "11 (atas) Jalan Dato' Lee Fong Yee, 70000 Seremban, Negeri Sembilan.", "Region": "Negeri Sembilan", "Category": "血缘", "PageNumber": 230, "Country": "Malaysia", "latitude": 2.7252174, "longitude": 101.9398088 }, "geometry": { "type": "Point", "coordinates": [ 101.9398088, 2.7252174 ] } },
{ "type": "Feature", "properties": { "Name_CH": "森美兰黄氏联宗会", "Name_ML": "Persatuan Wong Seturunan, Negeri Sembilan", "Name_EN": "Negeri Sembilan Wong' s Clan Asociation", "Location": "62- B, Jalan Yam Tuan, 70000 Seremban, Negeri Sembilan.", "Region": "Negeri Sembilan", "Category": "血缘", "PageNumber": 230, "Country": "Malaysia", "latitude": 2.72663, "longitude": 101.94 }, "geometry": { "type": "Point", "coordinates": [ 101.94, 2.72663 ] } },
{ "type": "Feature", "properties": { "Name_CH": "马来西亚肇永公李氏家族会", "Name_ML": "Persatuan Kaum Lee Tiow Eng Malaysia", "Name_EN": "Malaysia Lee Tiow Eng Malaysia", "Location": "48C-Jalan Dato' Sheik Ahmad 70000, Seremban, Negeri Sembilan.", "Region": "Negeri Sembilan", "Category": "血缘", "PageNumber": 230, "Country": "Malaysia", "latitude": 2.7237688, "longitude": 101.9378358 }, "geometry": { "type": "Point", "coordinates": [ 101.9378358, 2.7237688 ] } },
{ "type": "Feature", "properties": { "Name_CH": "日拉务县黄氏联宗会", "Name_ML": "Persatuan Suku Kaum Wong Daerah Jelebu Negeri Sembilan", "Name_EN": null, "Location": "110, Jalan Besar Titi, 71650 Jelebu, Negeri Sembilan.", "Region": "Negeri Sembilan", "Category": "血缘", "PageNumber": 230, "Country": "Malaysia", "latitude": 3.0884539, "longitude": 102.0489791 }, "geometry": { "type": "Point", "coordinates": [ 102.0489791, 3.0884539 ] } },
{ "type": "Feature", "properties": { "Name_CH": "森美兰卓氏联宗会", "Name_ML": "Persatuan Keturunan Toh Port Dickson Negeri Sembilan", "Name_EN": null, "Location": "12, Tingkat 1, Jalan Pasar Baru, 71000 Port Dickson, Negeri Sembilan.", "Region": "Negeri Sembilan", "Category": "血缘", "PageNumber": 231, "Country": "Malaysia", "latitude": 2.5263354, "longitude": 101.7975449 }, "geometry": { "type": "Point", "coordinates": [ 101.7975449, 2.5263354 ] } },
{ "type": "Feature", "properties": { "Name_CH": "森美兰叶氏联宗会", "Name_ML": "Persatuan Yap Seremban Negeri Sembilan", "Name_EN": null, "Location": "190 E, Kg Baru Rasah,70300 Seremban, Negeri Sembilan.", "Region": "Negeri Sembilan", "Category": "血缘", "PageNumber": 231, "Country": "Malaysia", "latitude": 2.700384, "longitude": 101.930431 }, "geometry": { "type": "Point", "coordinates": [ 101.930431, 2.700384 ] } },
{ "type": "Feature", "properties": { "Name_CH": "森美兰谢氏联宗会", "Name_ML": "Persatuan Kaum Kerabat Chia Negeri Sembilan", "Name_EN": null, "Location": "156, Jalan Birchs, 70000 Seremban, Negeri Sembilan.", "Region": "Negeri Sembilan", "Category": "血缘", "PageNumber": 231, "Country": "Malaysia", "latitude": 2.7240694, "longitude": 101.9390862 }, "geometry": { "type": "Point", "coordinates": [ 101.9390862, 2.7240694 ] } },
{ "type": "Feature", "properties": { "Name_CH": "森雪隆甲石庭江夏堂联宗会", "Name_ML": "Pertubuhan See Teng Kang Ha Tong Negeri Sembilan, Selangor, Kuala Lumpur Dan Melaka", "Name_EN": null, "Location": "308-2,Jalan Temiang,70200 Seremban, Negeri Sembilan.", "Region": "Negeri Sembilan", "Category": "血缘", "PageNumber": 231, "Country": "Malaysia", "latitude": 2.7406664, "longitude": 101.9390972 }, "geometry": { "type": "Point", "coordinates": [ 101.9390972, 2.7406664 ] } },
{ "type": "Feature", "properties": { "Name_CH": "森美兰王氏公会", "Name_ML": "Persatuan Ong Negeri Sembilan", "Name_EN": "Ong Association Negeri Seremban", "Location": "398, Jalan Seng Meng Lee, 70200 Seremban, Negeri Sembilan.", "Region": "Negeri Sembilan", "Category": "血缘", "PageNumber": 231, "Country": "Malaysia", "latitude": 2.7344252, "longitude": 101.940294 }, "geometry": { "type": "Point", "coordinates": [ 101.940294, 2.7344252 ] } },
{ "type": "Feature", "properties": { "Name_CH": "森美兰钟氏公会", "Name_ML": "Persatuan Kuam Choong Negeri Sembilan", "Name_EN": "Negeri Sembilan Choong Association", "Location": "211, Taman Chong Loong, 70100 Seremban, Negeri Sembilan.", "Region": "Negeri Sembilan", "Category": "血缘", "PageNumber": 231, "Country": "Malaysia", "latitude": 2.703241, "longitude": 101.9580322 }, "geometry": { "type": "Point", "coordinates": [ 101.9580322, 2.703241 ] } },
{ "type": "Feature", "properties": { "Name_CH": "森美兰萧氏联宗会", "Name_ML": "Persatuan Negeri Sembilan Siow Clanmen Association", "Name_EN": null, "Location": "6, Cross Road,Titi Jelebu, Negeri Sembilan.", "Region": "Negeri Sembilan", "Category": "血缘", "PageNumber": 231, "Country": "Malaysia", "latitude": 2.999808, "longitude": 102.0782002 }, "geometry": { "type": "Point", "coordinates": [ 102.0782002, 2.999808 ] } },
{ "type": "Feature", "properties": { "Name_CH": "森美兰颜氏公会", "Name_ML": "Persatuan Klan Gan Negeri Sembilan", "Name_EN": null, "Location": "7,Tingkat 3,Jalan Angkasa Jaya, Taman Bukit Pilah Perdana, 72000 Kuala Pilah, Negeri Sembilan.", "Region": "Negeri Sembilan", "Category": "血缘", "PageNumber": 231, "Country": "Malaysia", "latitude": 2.742741, "longitude": 102.2478329 }, "geometry": { "type": "Point", "coordinates": [ 102.2478329, 2.742741 ] } }
]
}
