{
"type": "FeatureCollection",
"name": "Category_1",
"crs": { "type": "name", "properties": { "name": "urn:ogc:def:crs:OGC:1.3:CRS84" } },
"features": [
{ "type": "Feature", "properties": { "Name_CH": "伴督华人信托委员会", "Name_ML": null, "Name_EN": "Pantu Chinese Charitable Trust Board Pantu Benevolent Society Cemetery, Sri Aman", "Location": "No. 10, Pasar Pantu, 95000 Sri Aman, Sarawak.", "Region": "Sarawak", "Category": "慈善福利", "PageNumber": 377, "Country": "Malaysia", "latitude": 1.2383523, "longitude": 111.4614047 }, "geometry": { "type": "Point", "coordinates": [ 111.4614047, 1.2383523 ] } },
{ "type": "Feature", "properties": { "Name_CH": "巴甘公义山管理委员会", "Name_ML": null, "Name_EN": "Bakam Fah Ngui Ngee San Centenary Charitable Trust Board", "Location": "Lot 596, Sg. Rait Bakam, 98000 Miri, Sarawak. P.O.Box 2363, 98008 Miri, Sarawak.", "Region": "Sarawak", "Category": "慈善福利", "PageNumber": 377, "Country": "Malaysia", "latitude": 4.3351415, "longitude": 113.9702517 }, "geometry": { "type": "Point", "coordinates": [ 113.9702517, 4.3351415 ] } },
{ "type": "Feature", "properties": { "Name_CH": "巴南马鲁帝华人慈善社义山", "Name_ML": null, "Name_EN": null, "Location": "P.O.Box No.15", "Region": "Sarawak", "Category": "慈善福利", "PageNumber": 377, "Country": "Malaysia", "latitude": 0.0, "longitude": 0.0 }, "geometry": { "type": "Point", "coordinates": [ 0.0, 0.0 ] } },
{ "type": "Feature", "properties": { "Name_CH": "巴南蒲悦华人义山", "Name_ML": null, "Name_EN": null, "Location": "P.O.Box No.102", "Region": "Sarawak", "Category": "慈善福利", "PageNumber": 377, "Country": "Malaysia", "latitude": 0.0, "longitude": 0.0 }, "geometry": { "type": "Point", "coordinates": [ 0.0, 0.0 ] } },
{ "type": "Feature", "properties": { "Name_CH": "潮州墓山", "Name_ML": null, "Name_EN": null, "Location": "Lot 59, Blk 45, 9th mile, Jalan Batu Kitang", "Region": "Sarawak", "Category": "慈善福利", "PageNumber": 378, "Country": "Malaysia", "latitude": 1.4664363, "longitude": 110.3172897 }, "geometry": { "type": "Point", "coordinates": [ 110.3172897, 1.4664363 ] } },
{ "type": "Feature", "properties": { "Name_CH": "尖山义文宫三保庙理事会义山管理小组", "Name_ML": null, "Name_EN": "Management Committee of Ngee Boon Kiung San Poh Temple Stapok Committee of Cemetery", "Location": "265, Jalan Stapok, Batu Kawa, 93250 Kuching, Sarawak.", "Region": "Sarawak", "Category": "慈善福利", "PageNumber": 378, "Country": "Malaysia", "latitude": 1.5349263, "longitude": 110.3268502 }, "geometry": { "type": "Point", "coordinates": [ 110.3268502, 1.5349263 ] } },
{ "type": "Feature", "properties": { "Name_CH": "华人慈善信托委员会", "Name_ML": null, "Name_EN": "Chinises Charitable Trust Board Bintulu, Sarawak", "Location": "Lot 2149, Jalan Main Bazzar, 97000 Bintulu Sarawak.", "Region": "Sarawak", "Category": "慈善福利", "PageNumber": 378, "Country": "Malaysia", "latitude": 1.558784, "longitude": 110.3471104 }, "geometry": { "type": "Point", "coordinates": [ 110.3471104, 1.558784 ] } },
{ "type": "Feature", "properties": { "Name_CH": "蔡氏公会墓园", "Name_ML": null, "Name_EN": "Cemetery of Chai Clan Association", "Location": "Lot 230, Jalan Abell Utara, 93100 Kuching, Sarawak.", "Region": "Sarawak", "Category": "慈善福利", "PageNumber": 378, "Country": "Malaysia", "latitude": 1.5563347, "longitude": 110.3573732 }, "geometry": { "type": "Point", "coordinates": [ 110.3573732, 1.5563347 ] } },
{ "type": "Feature", "properties": { "Name_CH": "古晋福建公会 都吉当义山 峇", "Name_ML": null, "Name_EN": "Kuching Hockien Association Batu Kttang Road Cemetery", "Location": "Lot 306-307, Jalan Batu Kitang, Kuching, Srawak.", "Region": "Sarawak", "Category": "慈善福利", "PageNumber": 378, "Country": "Malaysia", "latitude": 1.4664363, "longitude": 110.3172897 }, "geometry": { "type": "Point", "coordinates": [ 110.3172897, 1.4664363 ] } },
{ "type": "Feature", "properties": { "Name_CH": "古晋成邦江路慈善社寒鸟义山", "Name_ML": null, "Name_EN": "Kuching Simanggang Road Benevolent Society", "Location": "Lot 80, Siburan Bazar, 17 miles Kuching\/ Serian Road, Kuching, Sarawak. c\/o 31, Siburan Bazaar, Kuching Serian Road, 94200 Saeawak, Sarawak.", "Region": "Sarawak", "Category": "慈善福利", "PageNumber": 378, "Country": "Malaysia", "latitude": 1.361876, "longitude": 110.403451 }, "geometry": { "type": "Point", "coordinates": [ 110.403451, 1.361876 ] } },
{ "type": "Feature", "properties": { "Name_CH": "广福墓园信托委员会", "Name_ML": "Jawawankuasa Tanah Perkuburan Kong Fock Sarikei", "Name_EN": "Sarikei Kong Fock Cemetery Trust Committee", "Location": "1st Floor, No. 3, Merdeka Road, P.O.Box 406, 96108 Sarikei, Srawak", "Region": "Sarawak", "Category": "慈善福利", "PageNumber": 378, "Country": "Malaysia", "latitude": 2.131703, "longitude": 111.5237279 }, "geometry": { "type": "Point", "coordinates": [ 111.5237279, 2.131703 ] } },
{ "type": "Feature", "properties": { "Name_CH": "古晋新安同人互助社", "Name_ML": "Pertubuhan Faedah Bersama Syn Onn Kuching", "Name_EN": "Syn Onn Mutual Aid Society, Kuching", "Location": "Lot 1914, Batu 5 1\/2, Jalan Penrissen, 93250 Kuching, Sarawak.", "Region": "Sarawak", "Category": "慈善福利", "PageNumber": 378, "Country": "Malaysia", "latitude": 1.491008, "longitude": 110.3311642 }, "geometry": { "type": "Point", "coordinates": [ 110.3311642, 1.491008 ] } },
{ "type": "Feature", "properties": { "Name_CH": "达岛华人义山", "Name_ML": null, "Name_EN": "Tatau Chinese Cemetery Bintulu", "Location": "No. 26, Main Bazaar, 77200 Tatau, Bintulu, Sarawak.", "Region": "Sarawak", "Category": "慈善福利", "PageNumber": 378, "Country": "Malaysia", "latitude": 1.5590098, "longitude": 110.3466434 }, "geometry": { "type": "Point", "coordinates": [ 110.3466434, 1.5590098 ] } },
{ "type": "Feature", "properties": { "Name_CH": "加帛泰山亭公会", "Name_ML": "Tai SanTen Assn, Kapit", "Name_EN": null, "Location": "Lot 93 & Lot 201, Block 13, Menuan L.D.", "Region": "Sarawak", "Category": "慈善福利", "PageNumber": 378, "Country": "Malaysia", "latitude": 1.553278, "longitude": 110.359213 }, "geometry": { "type": "Point", "coordinates": [ 110.359213, 1.553278 ] } },
{ "type": "Feature", "properties": { "Name_CH": "古晋成邦江路廿四哩慈善新属下廿六哩华人义山", "Name_ML": null, "Name_EN": "The Charitable Society 24th Mile, Kuching Simanggand Road, Kuching Sarawak 26th Mile Chinese Cemetery", "Location": null, "Region": "Sarawak", "Category": "慈善福利", "PageNumber": 378, "Country": "Malaysia", "latitude": 0.0, "longitude": 0.0 }, "geometry": { "type": "Point", "coordinates": [ 0.0, 0.0 ] } },
{ "type": "Feature", "properties": { "Name_CH": "古晋福州公会义山委员会", "Name_ML": null, "Name_EN": "Cemetery Committee Foochow Association Kuching", "Location": null, "Region": "Sarawak", "Category": "慈善福利", "PageNumber": 378, "Country": "Malaysia", "latitude": 0.0, "longitude": 0.0 }, "geometry": { "type": "Point", "coordinates": [ 0.0, 0.0 ] } },
{ "type": "Feature", "properties": { "Name_CH": "马当慈善社", "Name_ML": "Persatuan Faedah Bersama Matang", "Name_EN": "Matang Road Mutual Benefit Society", "Location": "No. 279, 8th Mile, Matang Road, 93050 Kuching, Sarawak.", "Region": "Sarawak", "Category": "慈善福利", "PageNumber": 379, "Country": "Malaysia", "latitude": 1.573864, "longitude": 110.277608 }, "geometry": { "type": "Point", "coordinates": [ 110.277608, 1.573864 ] } },
{ "type": "Feature", "properties": { "Name_CH": "马当华人义山公会", "Name_ML": "Persatuan Matang Area Burial Ground", "Name_EN": null, "Location": "Lot 544, 8th Mile, Matang Road, 93050 Kuching, Sarawak.", "Region": "Sarawak", "Category": "慈善福利", "PageNumber": 379, "Country": "Malaysia", "latitude": 1.573864, "longitude": 110.277608 }, "geometry": { "type": "Point", "coordinates": [ 110.277608, 1.573864 ] } },
{ "type": "Feature", "properties": { "Name_CH": "雷州公会义山", "Name_ML": "Persatuan Lui Chui Sarawak Cemetery Land", "Name_EN": null, "Location": "Lot 1450, Block 226, KNLD, 4 1\/2 Mile, Penrissen Road, Kuching, Sarawak.", "Region": "Sarawak", "Category": "慈善福利", "PageNumber": 379, "Country": "Malaysia", "latitude": 1.5051999, "longitude": 110.333811 }, "geometry": { "type": "Point", "coordinates": [ 110.333811, 1.5051999 ] } },
{ "type": "Feature", "properties": { "Name_CH": "民丹莪福德墓园", "Name_ML": "Persatuan Pengurusan Tanah Perkuburan Hock Teck Bintangor", "Name_EN": "Bintangor Hock Teck Cemetery Management Association", "Location": "No. 17, Kelupu Road, Bintangor, Sarawak.", "Region": "Sarawak", "Category": "慈善福利", "PageNumber": 379, "Country": "Malaysia", "latitude": 2.1695116, "longitude": 111.6354225 }, "geometry": { "type": "Point", "coordinates": [ 111.6354225, 2.1695116 ] } },
{ "type": "Feature", "properties": { "Name_CH": "三、六、七省高阳许氏公会义山", "Name_ML": "Persatuan Klan Koh Yang Hii KOh, Bahagian Ketiga, Keenam Dan Ketujuh Cemetery, Sibu", "Name_EN": null, "Location": "No. 30, Lane 1, Brooke Drive, 96000 Sibu, Sarawak.", "Region": "Sarawak", "Category": "慈善福利", "PageNumber": 379, "Country": "Malaysia", "latitude": 2.2918519, "longitude": 111.8280902 }, "geometry": { "type": "Point", "coordinates": [ 111.8280902, 2.2918519 ] } },
{ "type": "Feature", "properties": { "Name_CH": "美里廉律义山公会", "Name_ML": "Persatuan Ghee San Riam Road, Miri", "Name_EN": "The Miri Riam Ghee San Association", "Location": "Lot 3920, Jalan Riam, Riam, 98000 Miri, Sarawak. P.O.Box 1894, 98007 Miri, Sarawak.", "Region": "Sarawak", "Category": "慈善福利", "PageNumber": 379, "Country": "Malaysia", "latitude": 4.3473941, "longitude": 114.0027526 }, "geometry": { "type": "Point", "coordinates": [ 114.0027526, 4.3473941 ] } },
{ "type": "Feature", "properties": { "Name_CH": "美里长生会", "Name_ML": null, "Name_EN": "Miri Village Funeral Association", "Location": "No. 9, Jalan Krokopi, 98000 Miri, Sarawak.", "Region": "Sarawak", "Category": "慈善福利", "PageNumber": 379, "Country": "Malaysia", "latitude": 4.3584652, "longitude": 114.001226 }, "geometry": { "type": "Point", "coordinates": [ 114.001226, 4.3584652 ] } },
{ "type": "Feature", "properties": { "Name_CH": "美里华人慈善信托委员会义山小组", "Name_ML": null, "Name_EN": "Miri Chinese Charitable Trust Board Cemetery Committee", "Location": "Lot 2373, Boulevard Commerical, Center, 98000 Miri, Sarawak.", "Region": "Sarawak", "Category": "慈善福利", "PageNumber": 379, "Country": "Malaysia", "latitude": 4.4125964, "longitude": 114.0107311 }, "geometry": { "type": "Point", "coordinates": [ 114.0107311, 4.4125964 ] } },
{ "type": "Feature", "properties": { "Name_CH": "林梦华人慈善信托会", "Name_ML": null, "Name_EN": "Limbang Chineses Charitable Trust Board", "Location": "Lot 904, Jalan Buangsiol, 98700 Limbang, Sarawak.", "Region": "Sarawak", "Category": "慈善福利", "PageNumber": 379, "Country": "Malaysia", "latitude": 4.757684, "longitude": 115.0069695 }, "geometry": { "type": "Point", "coordinates": [ 115.0069695, 4.757684 ] } },
{ "type": "Feature", "properties": { "Name_CH": "老越华人慈善信托委员会", "Name_ML": "Lembaga Amanah Khairat Tiong Hua Lawas", "Name_EN": null, "Location": "P O Box 45, 98857 Lawas, Sarawak.", "Region": "Sarawak", "Category": "慈善福利", "PageNumber": 379, "Country": "Malaysia", "latitude": 4.82114, "longitude": 115.4273951 }, "geometry": { "type": "Point", "coordinates": [ 115.4273951, 4.82114 ] } },
{ "type": "Feature", "properties": { "Name_CH": "老越华人义山委员会", "Name_ML": null, "Name_EN": "Management Committee of The Lawas Chinese Cemetery", "Location": "P O Box 38, 98857 Lawas, Sarawak.", "Region": "Sarawak", "Category": "慈善福利", "PageNumber": 379, "Country": "Malaysia", "latitude": 4.8612565, "longitude": 115.406759 }, "geometry": { "type": "Point", "coordinates": [ 115.406759, 4.8612565 ] } },
{ "type": "Feature", "properties": { "Name_CH": "联合慈善社", "Name_ML": null, "Name_EN": "Krokong, Bidi, Boring& Taiton Provinces Union", "Location": null, "Region": "Sarawak", "Category": "慈善福利", "PageNumber": 379, "Country": "Malaysia", "latitude": 0.0, "longitude": 0.0 }, "geometry": { "type": "Point", "coordinates": [ 0.0, 0.0 ] } },
{ "type": "Feature", "properties": { "Name_CH": "砂拉越客属公会义山管理委员会", "Name_ML": null, "Name_EN": "Sarawak Hakka Community Association Cemetery Management Committee", "Location": "No. 34-36, 1st Floor, Jalan Gold Jade, 93150 Kuching, Sarawak.", "Region": "Sarawak", "Category": "慈善福利", "PageNumber": 380, "Country": "Malaysia", "latitude": 1.544954, "longitude": 110.331891 }, "geometry": { "type": "Point", "coordinates": [ 110.331891, 1.544954 ] } },
{ "type": "Feature", "properties": { "Name_CH": "砂罗越中区江夏黄氏公会墓园", "Name_ML": null, "Name_EN": "Sarawak Central Chiang Hsia Huang Clan Association Cemetery", "Location": "171, Kampong Nynbor Road, P.O.Box 569, 96007 Sibu, Sarawak.", "Region": "Sarawak", "Category": "慈善福利", "PageNumber": 380, "Country": "Malaysia", "latitude": 2.287284, "longitude": 111.830535 }, "geometry": { "type": "Point", "coordinates": [ 111.830535, 2.287284 ] } },
{ "type": "Feature", "properties": { "Name_CH": "砂拉越云南善堂", "Name_ML": "Sarawak Hun Nam Siang Tang", "Name_EN": null, "Location": "Lot 136-138, Section 60, Jalan Sekama, 93300 Kuching Sarawak.", "Region": "Sarawak", "Category": "慈善福利", "PageNumber": 380, "Country": "Malaysia", "latitude": 1.547637, "longitude": 110.3653874 }, "geometry": { "type": "Point", "coordinates": [ 110.3653874, 1.547637 ] } },
{ "type": "Feature", "properties": { "Name_CH": "砂拉越古晋西连路廿九哩华人慈善信托会义山", "Name_ML": null, "Name_EN": "Chinese Charitable Trust Board Cemetery, 29th Mile, Kuching Serian Road, Sarawak", "Location": "c\/o No.1, 29th Mile Bazaaiz, Kuching Serian Road, 94700 Serian, Sarawak.", "Region": "Sarawak", "Category": "慈善福利", "PageNumber": 380, "Country": "Malaysia", "latitude": 1.280641, "longitude": 110.441115 }, "geometry": { "type": "Point", "coordinates": [ 110.441115, 1.280641 ] } },
{ "type": "Feature", "properties": { "Name_CH": "砂罗越彭城刘氏公会墓园", "Name_ML": null, "Name_EN": "Sarawak Pan Chen Lau' s Clan Association Cemetery ", "Location": "No.8, Jalan Tapang Timur, 96000 Sibu, Sarawak.", "Region": "Sarawak", "Category": "慈善福利", "PageNumber": 380, "Country": "Malaysia", "latitude": 2.3190917, "longitude": 111.8322863 }, "geometry": { "type": "Point", "coordinates": [ 111.8322863, 2.3190917 ] } },
{ "type": "Feature", "properties": { "Name_CH": "砂罗越屏南公会义山", "Name_ML": null, "Name_EN": "Sarawak Pinang Association Cemetery Seduan Land District Block 006", "Location": "Lot 047838, Bukit Temedak, Aup, Sibu, Sarawak.", "Region": "Sarawak", "Category": "慈善福利", "PageNumber": 380, "Country": "Malaysia", "latitude": 2.2535222, "longitude": 111.8495418 }, "geometry": { "type": "Point", "coordinates": [ 111.8495418, 2.2535222 ] } },
{ "type": "Feature", "properties": { "Name_CH": "诗巫潮州公会厚德山", "Name_ML": null, "Name_EN": "The Sibu Teochew Association Cemetery", "Location": "No.12, Causeway, 96000 Sibu, Sarawak.", "Region": "Sarawak", "Category": "慈善福利", "PageNumber": 380, "Country": "Malaysia", "latitude": 2.3556865, "longitude": 111.9522491 }, "geometry": { "type": "Point", "coordinates": [ 111.9522491, 2.3556865 ] } },
{ "type": "Feature", "properties": { "Name_CH": "诗巫光远慈善社", "Name_ML": null, "Name_EN": "Sibu Kwong Yuen Benevolent Association Cemetery", "Location": "10, Central Road, 96000 Sibu, Sarawak.", "Region": "Sarawak", "Category": "慈善福利", "PageNumber": 380, "Country": "Malaysia", "latitude": 2.289127, "longitude": 111.8280289 }, "geometry": { "type": "Point", "coordinates": [ 111.8280289, 2.289127 ] } },
{ "type": "Feature", "properties": { "Name_CH": "诗巫广东慈善社", "Name_ML": "Persatuan Kebajikan Amal Kantonis Sibu", "Name_EN": "Sibu Kwang Tung Benevolent Society", "Location": "22, kg. Nyabor Road, 96000 Sibu, Sarawak.", "Region": "Sarawak", "Category": "慈善福利", "PageNumber": 380, "Country": "Malaysia", "latitude": 2.2911844, "longitude": 111.8274008 }, "geometry": { "type": "Point", "coordinates": [ 111.8274008, 2.2911844 ] } },
{ "type": "Feature", "properties": { "Name_CH": "烧炭岗长生社", "Name_ML": null, "Name_EN": "The Sebuku Chinese TS Ching Sen(Burial) Association", "Location": "C\/O Chop Lian Kee, 19 Jalan Ong Guan Cheng, 94000 Bau, Sarawak.", "Region": "Sarawak", "Category": "慈善福利", "PageNumber": 380, "Country": "Malaysia", "latitude": 1.4151132, "longitude": 110.1545068 }, "geometry": { "type": "Point", "coordinates": [ 110.1545068, 1.4151132 ] } },
{ "type": "Feature", "properties": { "Name_CH": "砂罗越古田公会墓园", "Name_ML": null, "Name_EN": "Sarawak Kutien Association Cemetery", "Location": "Seduan, L.D. Sibu.", "Region": "Sarawak", "Category": "慈善福利", "PageNumber": 380, "Country": "Malaysia", "latitude": 2.287284, "longitude": 111.830535 }, "geometry": { "type": "Point", "coordinates": [ 111.830535, 2.287284 ] } },
{ "type": "Feature", "properties": { "Name_CH": "砂劳越嘉应同乡会义山", "Name_ML": null, "Name_EN": "Sarawak Kaying Community Association", "Location": null, "Region": "Sarawak", "Category": "慈善福利", "PageNumber": 380, "Country": "Malaysia", "latitude": 0.0, "longitude": 0.0 }, "geometry": { "type": "Point", "coordinates": [ 0.0, 0.0 ] } },
{ "type": "Feature", "properties": { "Name_CH": "石山自愿消防团", "Name_ML": "Persatuan Bomba Sukarela Unit Pekan Batu Niah", "Name_EN": null, "Location": "Lot 103, 1st Floor, Batu Niah Bazaar, 98200 Batu Niah, Sarawak.", "Region": "Sarawak", "Category": "慈善福利", "PageNumber": 381, "Country": "Malaysia", "latitude": 3.8025259, "longitude": 113.754909 }, "geometry": { "type": "Point", "coordinates": [ 113.754909, 3.8025259 ] } },
{ "type": "Feature", "properties": { "Name_CH": "实文然互助社", "Name_ML": null, "Name_EN": "Mutual Society", "Location": "No.6, Pasar Baru, 94800 Simunjan, Sarawak.", "Region": "Sarawak", "Category": "慈善福利", "PageNumber": 381, "Country": "Malaysia", "latitude": 1.3947865, "longitude": 110.7503748 }, "geometry": { "type": "Point", "coordinates": [ 110.7503748, 1.3947865 ] } },
{ "type": "Feature", "properties": { "Name_CH": "泗里街广福墓园信托委员会", "Name_ML": "Jawatankuasa Amanah Perkuburan Kong Fock Sarikei", "Name_EN": null, "Location": "3, 3rd Floor, Jalan Merdeka, 96100 Sarikei, Sarawak.", "Region": "Sarawak", "Category": "慈善福利", "PageNumber": 381, "Country": "Malaysia", "latitude": 2.1313727, "longitude": 111.5210161 }, "geometry": { "type": "Point", "coordinates": [ 111.5210161, 2.1313727 ] } },
{ "type": "Feature", "properties": { "Name_CH": "泗里街巴舌墓公会", "Name_ML": null, "Name_EN": "Sarikei Sungai Pasi Cemetery Association", "Location": "45, 1st floor, Repok Road, Sarikei Sarawak.", "Region": "Sarawak", "Category": "慈善福利", "PageNumber": 381, "Country": "Malaysia", "latitude": 2.097069, "longitude": 111.523806 }, "geometry": { "type": "Point", "coordinates": [ 111.523806, 2.097069 ] } },
{ "type": "Feature", "properties": { "Name_CH": "泗里街明心堂公会", "Name_ML": "Persatuan Ming Sing Tong Sarikei", "Name_EN": "Sarikei Ming Sing Tong Association", "Location": "1st Mile, Repok Road, Sarikei, Sarawak.", "Region": "Sarawak", "Category": "慈善福利", "PageNumber": 381, "Country": "Malaysia", "latitude": 2.097069, "longitude": 111.523806 }, "geometry": { "type": "Point", "coordinates": [ 111.523806, 2.097069 ] } },
{ "type": "Feature", "properties": { "Name_CH": "泗里街福利公会义山", "Name_ML": null, "Name_EN": "Sarikei Foozhow Association Cemetery", "Location": "8, 2nd Floor, Jalan Tok Tok, 96100 Sarikei, Sarawak.", "Region": "Sarawak", "Category": "慈善福利", "PageNumber": 381, "Country": "Malaysia", "latitude": 2.130578, "longitude": 111.522578 }, "geometry": { "type": "Point", "coordinates": [ 111.522578, 2.130578 ] } },
{ "type": "Feature", "properties": { "Name_CH": "诗巫客家慈善社", "Name_ML": null, "Name_EN": "Sibu Harka Benevolent Society", "Location": "29, High Street, 96000 Sibu, Sarawak.", "Region": "Sarawak", "Category": "慈善福利", "PageNumber": 381, "Country": "Malaysia", "latitude": 2.3556865, "longitude": 111.9522491 }, "geometry": { "type": "Point", "coordinates": [ 111.9522491, 2.3556865 ] } },
{ "type": "Feature", "properties": { "Name_CH": "石山华人慈善信托委员会", "Name_ML": null, "Name_EN": "The batu Nian Chinese Charitable Trust Board", "Location": "Lot 489, Batu Nian, Sarawak.", "Region": "Sarawak", "Category": "慈善福利", "PageNumber": 381, "Country": "Malaysia", "latitude": 3.802937, "longitude": 113.7553189 }, "geometry": { "type": "Point", "coordinates": [ 113.7553189, 3.802937 ] } },
{ "type": "Feature", "properties": { "Name_CH": "石山狮子会", "Name_ML": null, "Name_EN": "Lion Club of Batu Niah", "Location": "Lot 119, Batu Niah Bazaar, P O Box 8, 98207 Batu Niah, Sarawak.", "Region": "Sarawak", "Category": "慈善福利", "PageNumber": 381, "Country": "Malaysia", "latitude": 3.8025259, "longitude": 113.754909 }, "geometry": { "type": "Point", "coordinates": [ 113.754909, 3.8025259 ] } },
{ "type": "Feature", "properties": { "Name_CH": "十哩华人慈善社", "Name_ML": "Persatuan Faedah Bersama Cina Batu 10", "Name_EN": "10th Mile Benevolent Society", "Location": "No. 58, 1st Floor, Kota Padawan Jalan Penrissen, 93250 Kuching, Sarawak.", "Region": "Sarawak", "Category": "慈善福利", "PageNumber": 381, "Country": "Malaysia", "latitude": 1.4739225, "longitude": 110.3293087 }, "geometry": { "type": "Point", "coordinates": [ 110.3293087, 1.4739225 ] } },
{ "type": "Feature", "properties": { "Name_CH": "诗巫兴化莆仙公会墓园", "Name_ML": null, "Name_EN": "Hin Hua Poo Sen Association Cemetery, Sibu", "Location": "No.1-3, Jalan Wong Nai Siong, 96000 Sibu, Sarawak.", "Region": "Sarawak", "Category": "慈善福利", "PageNumber": 381, "Country": "Malaysia", "latitude": 2.2897974, "longitude": 111.8273807 }, "geometry": { "type": "Point", "coordinates": [ 111.8273807, 2.2897974 ] } },
{ "type": "Feature", "properties": { "Name_CH": "石隆门华人慈善信托机构属下华人义山", "Name_ML": null, "Name_EN": "Chinises Cemetery Under The Mnagement of the Bau Chinese Charitable Trust Board, Bau, Sarawak", "Location": null, "Region": "Sarawak", "Category": "慈善福利", "PageNumber": 381, "Country": "Malaysia", "latitude": 0.0, "longitude": 0.0 }, "geometry": { "type": "Point", "coordinates": [ 0.0, 0.0 ] } },
{ "type": "Feature", "properties": { "Name_CH": "武梭华侨慈善社", "Name_ML": null, "Name_EN": "Buso Hua Keow Benevolent", "Location": "No.7 Peka Buso 94000 Bau, Sarawak.", "Region": "Sarawak", "Category": "慈善福利", "PageNumber": 382, "Country": "Malaysia", "latitude": 1.4372012, "longitude": 110.1809782 }, "geometry": { "type": "Point", "coordinates": [ 110.1809782, 1.4372012 ] } },
{ "type": "Feature", "properties": { "Name_CH": "粤海亭义山", "Name_ML": null, "Name_EN": "Wak Hai Teng Cemetery", "Location": "11\/2 Mile, Jalan Tun Haji Openg, Kuching, Sarawak.", "Region": "Sarawak", "Category": "慈善福利", "PageNumber": 382, "Country": "Malaysia", "latitude": 1.5410635, "longitude": 110.3407999 }, "geometry": { "type": "Point", "coordinates": [ 110.3407999, 1.5410635 ] } },
{ "type": "Feature", "properties": { "Name_CH": "西连华人慈善托管委员会", "Name_ML": null, "Name_EN": "Serian Chinese Charitable Trust Board", "Location": "Lembaga Amanah Serian, 12 Pekan Serian, 94700 Serian, Sarawak.", "Region": "Sarawak", "Category": "慈善福利", "PageNumber": 382, "Country": "Malaysia", "latitude": 1.172728, "longitude": 110.563879 }, "geometry": { "type": "Point", "coordinates": [ 110.563879, 1.172728 ] } },
{ "type": "Feature", "properties": { "Name_CH": "泗里街漳泉公会墓园", "Name_ML": null, "Name_EN": "Sarikei Chiang Chuan Association Cemetery", "Location": "Lot 145, Block 92, Bulat Road, Sarikei, Sarawak.", "Region": "Sarawak", "Category": "慈善福利", "PageNumber": 382, "Country": "Malaysia", "latitude": 2.131703, "longitude": 111.5237279 }, "geometry": { "type": "Point", "coordinates": [ 111.5237279, 2.131703 ] } },
{ "type": "Feature", "properties": { "Name_CH": "永秀山庄", "Name_ML": null, "Name_EN": "Yun Siew Grave Yard-Kong Ho Ann Benevolent Society", "Location": "Lot 341, Durin Ferry Point, Bukit Tinyal, Sarawak.", "Region": "Sarawak", "Category": "慈善福利", "PageNumber": 382, "Country": "Malaysia", "latitude": 2.111078, "longitude": 111.9936571 }, "geometry": { "type": "Point", "coordinates": [ 111.9936571, 2.111078 ] } },
{ "type": "Feature", "properties": { "Name_CH": "泗里街榕侨慈善社", "Name_ML": null, "Name_EN": "Yong Kiew Chu Sien Sia Association", "Location": "P.O.Box 275, 96107 Sarikei, Sarawak.", "Region": "Sarawak", "Category": "慈善福利", "PageNumber": 382, "Country": "Malaysia", "latitude": 2.131703, "longitude": 111.5237279 }, "geometry": { "type": "Point", "coordinates": [ 111.5237279, 2.131703 ] } },
{ "type": "Feature", "properties": { "Name_CH": "张氏公会墓园", "Name_ML": null, "Name_EN": "The Sarawak Zhang' s Clan Association", "Location": "39-43, 3rd Floor Upper Lanang 12C, Pusat Suria Permali, Sibu, Sarawak.", "Region": "Sarawak", "Category": "慈善福利", "PageNumber": 382, "Country": "Malaysia", "latitude": 2.2634197, "longitude": 111.8435505 }, "geometry": { "type": "Point", "coordinates": [ 111.8435505, 2.2634197 ] } },
{ "type": "Feature", "properties": { "Name_CH": "泗里奎广惠肇公会碧山亭", "Name_ML": null, "Name_EN": "Kwong Wai Siew Association Cemetery", "Location": null, "Region": "Sarawak", "Category": "慈善福利", "PageNumber": 382, "Country": "Malaysia", "latitude": 0.0, "longitude": 0.0 }, "geometry": { "type": "Point", "coordinates": [ 0.0, 0.0 ] } }
]
}
