{
"type": "FeatureCollection",
"name": "Category_3",
"crs": { "type": "name", "properties": { "name": "urn:ogc:def:crs:OGC:1.3:CRS84" } },
"features": [
{ "type": "Feature", "properties": { "Name_CH": "巴冬潮州会馆", "Name_ML": "Persatuan Teo Chew Parit Jawa Muar", "Name_EN": null, "Location": "181 Jalan Jabbar Parit Jawa, 84150 Muar, Johor.", "Region": "Johor", "Category": "地缘", "PageNumber": 267, "Country": "Malaysia", "latitude": 1.957464, "longitude": 102.6425143 }, "geometry": { "type": "Point", "coordinates": [ 102.6425143, 1.957464 ] } },
{ "type": "Feature", "properties": { "Name_CH": "巴莪两广公会", "Name_ML": "Persatuan Liong Kwong Pagoh", "Name_EN": null, "Location": "No.2, Taman Perdana, 84600 Pagoh, Johor.", "Region": "Johor", "Category": "地缘", "PageNumber": 268, "Country": "Malaysia", "latitude": 2.048864, "longitude": 102.5886802 }, "geometry": { "type": "Point", "coordinates": [ 102.5886802, 2.048864 ] } },
{ "type": "Feature", "properties": { "Name_CH": "巴莪福建华福山公会", "Name_ML": null, "Name_EN": "Wah Hock San Kong Soh Association", "Location": "2 Pagoh Muar, Johor.", "Region": "Johor", "Category": "地缘", "PageNumber": 268, "Country": "Malaysia", "latitude": 2.1406529, "longitude": 102.7691622 }, "geometry": { "type": "Point", "coordinates": [ 102.7691622, 2.1406529 ] } },
{ "type": "Feature", "properties": { "Name_CH": "大马永春龙头乡陈氏家族会", "Name_ML": "Persatuan Eng Choon Leng Thow Heung Tan Si Kar Chor Malaysia", "Name_EN": null, "Location": "3 Taman Rakyat Jalan Segamat, Jementah, 85200 Segamat, Johor.", "Region": "Johor", "Category": "地缘", "PageNumber": 268, "Country": "Malaysia", "latitude": 2.4421928, "longitude": 102.6843956 }, "geometry": { "type": "Point", "coordinates": [ 102.6843956, 2.4421928 ] } },
{ "type": "Feature", "properties": { "Name_CH": "彼咯广西同乡会", "Name_ML": "Persatuan Kwang Si Bekok Johor", "Name_EN": null, "Location": "C-73 Jalang Gunong Bekok, Johor.", "Region": "Johor", "Category": "地缘", "PageNumber": 268, "Country": "Malaysia", "latitude": 2.3872222, "longitude": 103.1811111 }, "geometry": { "type": "Point", "coordinates": [ 103.1811111, 2.3872222 ] } },
{ "type": "Feature", "properties": { "Name_CH": "巴罗福建会馆", "Name_ML": "Persatuan Hokkien Paloh", "Name_EN": "Paloh Hokkien Association", "Location": "No.40, Jalan 2\/2 Taman Paloh, 86600 Paloh, Johor.", "Region": "Johor", "Category": "地缘", "PageNumber": 268, "Country": "Malaysia", "latitude": 2.1835564, "longitude": 103.1885443 }, "geometry": { "type": "Point", "coordinates": [ 103.1885443, 2.1835564 ] } },
{ "type": "Feature", "properties": { "Name_CH": "笨珍海南会馆", "Name_ML": "PERSATUAN HAINAN PONTIAN JOHOR", "Name_EN": null, "Location": "358 JALAN ALSAGOFF 82000 PONTIAN JOHOR", "Region": "Johor", "Category": "地缘", "PageNumber": 268, "Country": "Malaysia", "latitude": 1.4876523, "longitude": 103.3886115 }, "geometry": { "type": "Point", "coordinates": [ 103.3886115, 1.4876523 ] } },
{ "type": "Feature", "properties": { "Name_CH": "笨珍客家公会", "Name_ML": "Persatuan Hakka Pontian", "Name_EN": null, "Location": "153, Jalan Bakek, 82000 Pontian, Johor", "Region": "Johor", "Category": "地缘", "PageNumber": 268, "Country": "Malaysia", "latitude": 1.4842705, "longitude": 103.3900731 }, "geometry": { "type": "Point", "coordinates": [ 103.3900731, 1.4842705 ] } },
{ "type": "Feature", "properties": { "Name_CH": "笨珍绍安会馆", "Name_ML": null, "Name_EN": "Pontian Chiow Ann Hui Kwan", "Location": "705, 705-1 Jalan Taib, 82000 Pontian, Johor.", "Region": "Johor", "Category": "地缘", "PageNumber": 268, "Country": "Malaysia", "latitude": 1.4860405, "longitude": 103.3901013 }, "geometry": { "type": "Point", "coordinates": [ 103.3901013, 1.4860405 ] } },
{ "type": "Feature", "properties": { "Name_CH": "笨珍潮州会馆", "Name_ML": "Persatuan Eng Choon Pontian", "Name_EN": null, "Location": "691 Jalan Taib, 82000 Pontian, Johor.", "Region": "Johor", "Category": "地缘", "PageNumber": 268, "Country": "Malaysia", "latitude": 1.4859185, "longitude": 103.3901473 }, "geometry": { "type": "Point", "coordinates": [ 103.3901473, 1.4859185 ] } },
{ "type": "Feature", "properties": { "Name_CH": "笨珍永春会馆", "Name_ML": "Persatuan Eng Choon Pontian", "Name_EN": null, "Location": "676 (1st Floor) Jalan Taibz 82000 Pontian, Johor.", "Region": "Johor", "Category": "地缘", "PageNumber": 268, "Country": "Malaysia", "latitude": 1.4869255, "longitude": 103.388961 }, "geometry": { "type": "Point", "coordinates": [ 103.388961, 1.4869255 ] } },
{ "type": "Feature", "properties": { "Name_CH": "笨珍永春会馆", "Name_ML": "Persatuan Eng Choon Pontian", "Name_EN": null, "Location": "676 (1st Floor) Jalan Taibz 82000 Pontian, Johor.", "Region": "Johor", "Category": "地缘", "PageNumber": 268, "Country": "Malaysia", "latitude": 1.4869255, "longitude": 103.388961 }, "geometry": { "type": "Point", "coordinates": [ 103.388961, 1.4869255 ] } },
{ "type": "Feature", "properties": { "Name_CH": "笨珍福建会馆", "Name_ML": null, "Name_EN": "Hokkien Association Pontian", "Location": "108-1101st Floor, Jalan Johor, 82000 Pontian, Johor.", "Region": "Johor", "Category": "地缘", "PageNumber": 268, "Country": "Malaysia", "latitude": 1.4810615, "longitude": 103.3989336 }, "geometry": { "type": "Point", "coordinates": [ 103.3989336, 1.4810615 ] } },
{ "type": "Feature", "properties": { "Name_CH": "巴冬杉岭公会", "Name_ML": "Persatuan Sam Leng Parit Jawa Muar", "Name_EN": null, "Location": "77 Jalan Jabbar, Parit Jawa, 84150 Muar, Johor.", "Region": "Johor", "Category": "地缘", "PageNumber": 268, "Country": "Malaysia", "latitude": 1.9575548, "longitude": 102.6424755 }, "geometry": { "type": "Point", "coordinates": [ 102.6424755, 1.9575548 ] } },
{ "type": "Feature", "properties": { "Name_CH": "东甲潮州会馆", "Name_ML": "Persatuan Teo Chew Tangkak Muar Johor", "Name_EN": null, "Location": "137, Jalan Muar, Tangkak, 84900 Muar, Johor.", "Region": "Johor", "Category": "地缘", "PageNumber": 269, "Country": "Malaysia", "latitude": 2.1453001, "longitude": 102.5628591 }, "geometry": { "type": "Point", "coordinates": [ 102.5628591, 2.1453001 ] } },
{ "type": "Feature", "properties": { "Name_CH": "东甲德化会馆", "Name_ML": "Persatuan Teck Hwa Huay Kuan Tangkak", "Name_EN": null, "Location": "40, Jalan Sialang, 84900 Tangkak, Johor.", "Region": "Johor", "Category": "地缘", "PageNumber": 269, "Country": "Malaysia", "latitude": 2.2730884, "longitude": 102.526837 }, "geometry": { "type": "Point", "coordinates": [ 102.526837, 2.2730884 ] } },
{ "type": "Feature", "properties": { "Name_CH": "东甲广肇会馆", "Name_ML": "PERSATUAN KWONG SIU WUI KOONZ TANGKAK", "Name_EN": null, "Location": "LC 357 Jalan Muar, Tangkak, 84900 Muor, Johor.", "Region": "Johor", "Category": "地缘", "PageNumber": 269, "Country": "Malaysia", "latitude": 2.1728687, "longitude": 102.5544931 }, "geometry": { "type": "Point", "coordinates": [ 102.5544931, 2.1728687 ] } },
{ "type": "Feature", "properties": { "Name_CH": "东甲惠潮公会", "Name_ML": "Persatuan Hui Teo Tangkak", "Name_EN": null, "Location": "51 Jalan Panggang Lama, Muar, 84900 Tangkak, Johor.", "Region": "Johor", "Category": "地缘", "PageNumber": 269, "Country": "Malaysia", "latitude": 2.261147, "longitude": 102.536006 }, "geometry": { "type": "Point", "coordinates": [ 102.536006, 2.261147 ] } },
{ "type": "Feature", "properties": { "Name_CH": "东甲海南会馆", "Name_ML": "Persatuan Hainan Tangkak", "Name_EN": null, "Location": "160 Jalan Muar, 84900 Tangkak, Johor.", "Region": "Johor", "Category": "地缘", "PageNumber": 269, "Country": "Malaysia", "latitude": 2.2629002, "longitude": 102.5374111 }, "geometry": { "type": "Point", "coordinates": [ 102.5374111, 2.2629002 ] } },
{ "type": "Feature", "properties": { "Name_CH": "东甲客家公会", "Name_ML": "Persatuan Hakka Tangkak Johor", "Name_EN": null, "Location": "136 Jalan Muar, 84900 Tangkak, Johor.", "Region": "Johor", "Category": "地缘", "PageNumber": 269, "Country": "Malaysia", "latitude": 2.2627732, "longitude": 102.5373102 }, "geometry": { "type": "Point", "coordinates": [ 102.5373102, 2.2627732 ] } },
{ "type": "Feature", "properties": { "Name_CH": "东甲惠州公会", "Name_ML": null, "Name_EN": "Fui Chiu Association Tangkak", "Location": "16 Jalan Solok, 84900 Tangkak, Johor.", "Region": "Johor", "Category": "地缘", "PageNumber": 269, "Country": "Malaysia", "latitude": 2.2657923, "longitude": 102.539888 }, "geometry": { "type": "Point", "coordinates": [ 102.539888, 2.2657923 ] } },
{ "type": "Feature", "properties": { "Name_CH": "地南客属公会", "Name_ML": "Persatuan Hakka Ulu Tiram Johor", "Name_EN": null, "Location": "73 Taman Ulu Tiram, Ulu Tiram, 81800 Johor Bahru, Johor.", "Region": "Johor", "Category": "地缘", "PageNumber": 269, "Country": "Malaysia", "latitude": 1.6018389, "longitude": 103.78975 }, "geometry": { "type": "Point", "coordinates": [ 103.78975, 1.6018389 ] } },
{ "type": "Feature", "properties": { "Name_CH": "丰盛港客家公会", "Name_ML": "Persatuan Hakka Mersing", "Name_EN": null, "Location": "15-1, Jalan Jemaluang, 86800 Mersing, Johor.", "Region": "Johor", "Category": "地缘", "PageNumber": 269, "Country": "Malaysia", "latitude": 2.4296564, "longitude": 103.8346569 }, "geometry": { "type": "Point", "coordinates": [ 103.8346569, 2.4296564 ] } },
{ "type": "Feature", "properties": { "Name_CH": "丰盛港福建会馆", "Name_ML": null, "Name_EN": "The Hokkien Association Mersing", "Location": "13-14 Jalan Jemaluang, 86800 Mersing, Johor.", "Region": "Johor", "Category": "地缘", "PageNumber": 269, "Country": "Malaysia", "latitude": 2.430035, "longitude": 103.8348422 }, "geometry": { "type": "Point", "coordinates": [ 103.8348422, 2.430035 ] } },
{ "type": "Feature", "properties": { "Name_CH": "丰盛港海南会馆", "Name_ML": "Persatuan Hainan Mersing Johor", "Name_EN": null, "Location": "51, Jalan Ismail 86600 Mersing, Johor.", "Region": "Johor", "Category": "地缘", "PageNumber": 269, "Country": "Malaysia", "latitude": 2.4298711, "longitude": 103.8374514 }, "geometry": { "type": "Point", "coordinates": [ 103.8374514, 2.4298711 ] } },
{ "type": "Feature", "properties": { "Name_CH": "丰盛港广西会馆", "Name_ML": "Persatuan Kwong Si Mersing", "Name_EN": null, "Location": "79, Jalan Ismail 86800 Mersing, Johor.", "Region": "Johor", "Category": "地缘", "PageNumber": 269, "Country": "Malaysia", "latitude": 2.4299175, "longitude": 103.8375726 }, "geometry": { "type": "Point", "coordinates": [ 103.8375726, 2.4299175 ] } },
{ "type": "Feature", "properties": { "Name_CH": "福建华福山公所", "Name_ML": null, "Name_EN": "Wah Hock San Kong Soh Association", "Location": "No.2, Jalan Besar, 84600 Pagoh, Muar, Johor.", "Region": "Johor", "Category": "地缘", "PageNumber": 270, "Country": "Malaysia", "latitude": 2.1477532, "longitude": 102.7695198 }, "geometry": { "type": "Point", "coordinates": [ 102.7695198, 2.1477532 ] } },
{ "type": "Feature", "properties": { "Name_CH": "古来广西同乡会", "Name_ML": null, "Name_EN": "Kwang Si Tung Hsiang Hui", "Location": "77 Jalan Raya, 81000 Kulai, Johor.", "Region": "Johor", "Category": "地缘", "PageNumber": 270, "Country": "Malaysia", "latitude": 1.6656527, "longitude": 103.5888856 }, "geometry": { "type": "Point", "coordinates": [ 103.5888856, 1.6656527 ] } },
{ "type": "Feature", "properties": { "Name_CH": "古来潮州会馆", "Name_ML": "Persatuan Teo Chew Kulai Johor", "Name_EN": null, "Location": "C\/0 31A Jalan Pinang, Taman Kota Kulai, 81000 Kulai, Johor.", "Region": "Johor", "Category": "地缘", "PageNumber": 270, "Country": "Malaysia", "latitude": 1.6685128, "longitude": 103.5802432 }, "geometry": { "type": "Point", "coordinates": [ 103.5802432, 1.6685128 ] } },
{ "type": "Feature", "properties": { "Name_CH": "古来福建公会", "Name_ML": "Persekutuan Hokkien Kulai", "Name_EN": "Hokkien Kong Huay Kulai", "Location": "42-9 & 42-10 (2nd Floor) Jalan Raya, Kulai Besar, 81000 Kulai, Johor.", "Region": "Johor", "Category": "地缘", "PageNumber": 270, "Country": "Malaysia", "latitude": 1.6510212, "longitude": 103.6107693 }, "geometry": { "type": "Point", "coordinates": [ 103.6107693, 1.6510212 ] } },
{ "type": "Feature", "properties": { "Name_CH": "哥打丁宜广东会馆", "Name_ML": "Persatuan Kwang Tong Kota Tinggi Johor", "Name_EN": null, "Location": "2 (Tingkat 2), Jalan Ah Siang, 81900 Kota Tinggi, Johor.", "Region": "Johor", "Category": "地缘", "PageNumber": 270, "Country": "Malaysia", "latitude": 1.4636879, "longitude": 103.7709249 }, "geometry": { "type": "Point", "coordinates": [ 103.7709249, 1.4636879 ] } },
{ "type": "Feature", "properties": { "Name_CH": "哥打丁宜海南会馆", "Name_ML": "Persatuan Hainan Kota Tlnggi Johor", "Name_EN": null, "Location": "27-1 Tingkat 2, Jalan Lombong, 81900 Kota Tinggi Johor.", "Region": "Johor", "Category": "地缘", "PageNumber": 270, "Country": "Malaysia", "latitude": 1.7569631, "longitude": 103.887913 }, "geometry": { "type": "Point", "coordinates": [ 103.887913, 1.7569631 ] } },
{ "type": "Feature", "properties": { "Name_CH": "哥打丁宜福建会馆", "Name_ML": "Persatuan Hokkien Kota Tinggi Johor", "Name_EN": null, "Location": "12 Jalan Ahmad Ujan, Taman Kota Besar, 81900 Kota Tinggi, Johor.", "Region": "Johor", "Category": "地缘", "PageNumber": 270, "Country": "Malaysia", "latitude": 1.719428, "longitude": 103.8927842 }, "geometry": { "type": "Point", "coordinates": [ 103.8927842, 1.719428 ] } },
{ "type": "Feature", "properties": { "Name_CH": "哥打丁宜客家公会", "Name_ML": "Persatuan Hakka Kota Tinggi Johor", "Name_EN": null, "Location": "8 (Tingkat 2), Jalan Ibrahim, 81900 Kota Tinggi, Johor.", "Region": "Johor", "Category": "地缘", "PageNumber": 270, "Country": "Malaysia", "latitude": 1.7286473, "longitude": 103.8984396 }, "geometry": { "type": "Point", "coordinates": [ 103.8984396, 1.7286473 ] } },
{ "type": "Feature", "properties": { "Name_CH": "哥打丁宜广西会馆", "Name_ML": "Persatuan Kwang Sai Kota Tinggi Johor", "Name_EN": null, "Location": "Top Floor, No.3 Main Road, 81900 Kota Tinggi, Johor.", "Region": "Johor", "Category": "地缘", "PageNumber": 270, "Country": "Malaysia", "latitude": 1.7290972, "longitude": 103.8994535 }, "geometry": { "type": "Point", "coordinates": [ 103.8994535, 1.7290972 ] } },
{ "type": "Feature", "properties": { "Name_CH": "哥打丁宜潮州会馆", "Name_ML": "Persatuan Teochew Kota Tinggi Johor", "Name_EN": null, "Location": "3, Jalan Tepi SungaL 81900 Kota Tinggi Johor.", "Region": "Johor", "Category": "地缘", "PageNumber": 270, "Country": "Malaysia", "latitude": 1.7265991, "longitude": 103.9000376 }, "geometry": { "type": "Point", "coordinates": [ 103.9000376, 1.7265991 ] } },
{ "type": "Feature", "properties": { "Name_CH": "哥达丁宜广肇会馆", "Name_ML": "Persatuan Kwong Siew Kota Tinggi Johor", "Name_EN": null, "Location": "8A Tingkat 2, Jalan Bendahara, Taman Bendahara, 81900 Kota Tinggi Johor.", "Region": "Johor", "Category": "地缘", "PageNumber": 270, "Country": "Malaysia", "latitude": 1.736723, "longitude": 103.9100297 }, "geometry": { "type": "Point", "coordinates": [ 103.9100297, 1.736723 ] } },
{ "type": "Feature", "properties": { "Name_CH": "哥打丁宜嘉应会馆", "Name_ML": "Persatuan Kar Eng Kota Tnggi Johor", "Name_EN": null, "Location": "13 Jalan Tambatan(Tinggi 1),  81900 Kota Tinggi Johor.", "Region": "Johor", "Category": "地缘", "PageNumber": 270, "Country": "Malaysia", "latitude": 1.727237, "longitude": 103.89926 }, "geometry": { "type": "Point", "coordinates": [ 103.89926, 1.727237 ] } },
{ "type": "Feature", "properties": { "Name_CH": "惠安公会", "Name_ML": null, "Name_EN": "Hui Ann Association", "Location": "No.38-8, Jalan Arab,84000 Muar, Johor.", "Region": "Johor", "Category": "地缘", "PageNumber": 271, "Country": "Malaysia", "latitude": 2.0482125, "longitude": 102.5715537 }, "geometry": { "type": "Point", "coordinates": [ 102.5715537, 2.0482125 ] } },
{ "type": "Feature", "properties": { "Name_CH": "广西同乡会", "Name_ML": "Persatuan Kwang Si Tung Hsiang Hui", "Name_EN": null, "Location": "16-1A Jalan Mohd. Salleh, 83000 Batu Pahat, Johor.", "Region": "Johor", "Category": "地缘", "PageNumber": 271, "Country": "Malaysia", "latitude": 1.8483078, "longitude": 102.9294551 }, "geometry": { "type": "Point", "coordinates": [ 102.9294551, 1.8483078 ] } },
{ "type": "Feature", "properties": { "Name_CH": "居銮海南会馆", "Name_ML": "Persatuan Hainan Kluang", "Name_EN": "Kluang Hainan Association", "Location": "13-14 (Tingkat 3) Jalan Mengkobol, 86000 Kluang , Johor.", "Region": "Johor", "Category": "地缘", "PageNumber": 271, "Country": "Malaysia", "latitude": 2.0147608, "longitude": 103.3199229 }, "geometry": { "type": "Point", "coordinates": [ 103.3199229, 2.0147608 ] } },
{ "type": "Feature", "properties": { "Name_CH": "居銮大埔同乡会", "Name_ML": "Persatuan Thai Pu Kluang", "Name_EN": "Kluang Thai Pu Association", "Location": "No.18, Lorong Wayang, 86000 Kluang, Johor.", "Region": "Johor", "Category": "地缘", "PageNumber": 271, "Country": "Malaysia", "latitude": 2.0280618, "longitude": 103.3206128 }, "geometry": { "type": "Point", "coordinates": [ 103.3206128, 2.0280618 ] } },
{ "type": "Feature", "properties": { "Name_CH": "居銮潮州会馆", "Name_ML": "Persatuan Teow Chew Kluang", "Name_EN": "Kluang Teow Chew Association", "Location": "34, Jalan Dato Captain Ahmad, 86000 Kluang, Johor.", "Region": "Johor", "Category": "地缘", "PageNumber": 271, "Country": "Malaysia", "latitude": 2.0335582, "longitude": 103.3198229 }, "geometry": { "type": "Point", "coordinates": [ 103.3198229, 2.0335582 ] } },
{ "type": "Feature", "properties": { "Name_CH": "居銮广西会馆", "Name_ML": "Persatuan Kwangsi Kluang", "Name_EN": "Kluang Kwangsi Association", "Location": "No.9-A, Jalan Cantik, 86000 Kluang, Johor.", "Region": "Johor", "Category": "地缘", "PageNumber": 271, "Country": "Malaysia", "latitude": 2.0304297, "longitude": 103.3226214 }, "geometry": { "type": "Point", "coordinates": [ 103.3226214, 2.0304297 ] } },
{ "type": "Feature", "properties": { "Name_CH": "居銮福建会馆", "Name_ML": "Persatuan Hokkien Daerah Kluang", "Name_EN": null, "Location": "146, Jalan Mersing, 86000 Kluang, Johor.", "Region": "Johor", "Category": "地缘", "PageNumber": 271, "Country": "Malaysia", "latitude": 2.0315272, "longitude": 103.3235478 }, "geometry": { "type": "Point", "coordinates": [ 103.3235478, 2.0315272 ] } },
{ "type": "Feature", "properties": { "Name_CH": "后拳福甫仙公会", "Name_ML": "Persatuan Hock Por Sian Kluang", "Name_EN": null, "Location": "47, Tingkat 1, Jalan Kg. Paya, Kluang Baru, 86000 Kluang Johor.", "Region": "Johor", "Category": "地缘", "PageNumber": 271, "Country": "Malaysia", "latitude": 2.045249, "longitude": 103.333256 }, "geometry": { "type": "Point", "coordinates": [ 103.333256, 2.045249 ] } },
{ "type": "Feature", "properties": { "Name_CH": "古来惠州会馆", "Name_ML": "Persatuan Fui Chew Kulai, Johor", "Name_EN": null, "Location": "1 & 2, 21 Mile Taman Sri Kulai Baru, 81000 Kulai, Johor.", "Region": "Johor", "Category": "地缘", "PageNumber": 271, "Country": "Malaysia", "latitude": 1.6684163, "longitude": 103.5861444 }, "geometry": { "type": "Point", "coordinates": [ 103.5861444, 1.6684163 ] } },
{ "type": "Feature", "properties": { "Name_CH": "古来客属公会", "Name_ML": "Persatuan Hakka Kulai Johor", "Name_EN": null, "Location": "144-B Tingkat 2t Jalan Rayam, 81000 Kulai, Johor.", "Region": "Johor", "Category": "地缘", "PageNumber": 271, "Country": "Malaysia", "latitude": 1.662981, "longitude": 103.5999371 }, "geometry": { "type": "Point", "coordinates": [ 103.5999371, 1.662981 ] } },
{ "type": "Feature", "properties": { "Name_CH": "古来广肇会馆", "Name_ML": "Persatuan Kwang Shiu Kulai Johor", "Name_EN": "The Kwang Shiu Association Kulai Johor", "Location": "21 Lorong 2, 81000 Kulai, Johor.", "Region": "Johor", "Category": "地缘", "PageNumber": 271, "Country": "Malaysia", "latitude": 1.6014125, "longitude": 103.647704 }, "geometry": { "type": "Point", "coordinates": [ 103.647704, 1.6014125 ] } },
{ "type": "Feature", "properties": { "Name_CH": "古来海南会馆", "Name_ML": "Persatuan Hainan Kulai", "Name_EN": null, "Location": "Lot 6580, Jalan Kota TinggL 81100 Kulai, Johor.", "Region": "Johor", "Category": "地缘", "PageNumber": 271, "Country": "Malaysia", "latitude": 1.5734688, "longitude": 103.817786 }, "geometry": { "type": "Point", "coordinates": [ 103.817786, 1.5734688 ] } },
{ "type": "Feature", "properties": { "Name_CH": "峇株巴辖福莆仙会馆", "Name_ML": null, "Name_EN": "Hock Por Sian Association Batu Pahat", "Location": "25 2nd Floor, LRG Satu, Jalan Ismail, 83000 Batu Pahat, Johor.", "Region": "Johor", "Category": "地缘", "PageNumber": 272, "Country": "Malaysia", "latitude": 1.8508939, "longitude": 102.9280248 }, "geometry": { "type": "Point", "coordinates": [ 102.9280248, 1.8508939 ] } },
{ "type": "Feature", "properties": { "Name_CH": "峇株巴辖茶阳会馆", "Name_ML": "Persatuan Cha Yong Batu Pahat Johor", "Name_EN": null, "Location": "24 A-B, Jalan Mhd Akil, Batu Pahat Johor.", "Region": "Johor", "Category": "地缘", "PageNumber": 272, "Country": "Malaysia", "latitude": 1.944935, "longitude": 102.966102 }, "geometry": { "type": "Point", "coordinates": [ 102.966102, 1.944935 ] } },
{ "type": "Feature", "properties": { "Name_CH": "峇株巴辖广东会馆", "Name_ML": "Persatuan Tung Hway Kuan Of Batu Pahat", "Name_EN": null, "Location": "78B Jalan Mohd Akil, 83000 Batu Pahat Johor.", "Region": "Johor", "Category": "地缘", "PageNumber": 272, "Country": "Malaysia", "latitude": 1.8551888, "longitude": 102.9294688 }, "geometry": { "type": "Point", "coordinates": [ 102.9294688, 1.8551888 ] } },
{ "type": "Feature", "properties": { "Name_CH": "峇株巴辖福州十邑会馆", "Name_ML": "Persatuan Foo Chow Sek Aik Batu Pahat Johor (1993)", "Name_EN": null, "Location": "5 (Atas) Jalan Ampuan, 83000 Batu Pahat, Johor.", "Region": "Johor", "Category": "地缘", "PageNumber": 272, "Country": "Malaysia", "latitude": 1.8426517, "longitude": 102.9318528 }, "geometry": { "type": "Point", "coordinates": [ 102.9318528, 1.8426517 ] } },
{ "type": "Feature", "properties": { "Name_CH": "峇株巴辖福建会馆", "Name_ML": "Persatuan Hokkien Batu Pahat Johor", "Name_EN": null, "Location": "35- B, Jalan Rahmat 83000 Batu Pahat Johor.", "Region": "Johor", "Category": "地缘", "PageNumber": 272, "Country": "Malaysia", "latitude": 1.848559, "longitude": 102.9318686 }, "geometry": { "type": "Point", "coordinates": [ 102.9318686, 1.848559 ] } },
{ "type": "Feature", "properties": { "Name_CH": "峇株巴辖安溪公会", "Name_ML": "Persatuan Am Koay Daerah Batu Pahat", "Name_EN": null, "Location": "130-A, Jalan Rotan Batu, 83000 Batu Pahat, Johor.", "Region": "Johor", "Category": "地缘", "PageNumber": 272, "Country": "Malaysia", "latitude": 1.8666887, "longitude": 102.9509644 }, "geometry": { "type": "Point", "coordinates": [ 102.9509644, 1.8666887 ] } },
{ "type": "Feature", "properties": { "Name_CH": "峇株巴辖潮州会馆", "Name_ML": "Persatuan Teo Chew Batu Pahat", "Name_EN": "Teochew Association Batu Pahit", "Location": "40AJalan Soga, 83000 Batu Pahat Johor.", "Region": "Johor", "Category": "地缘", "PageNumber": 272, "Country": "Malaysia", "latitude": 1.852569, "longitude": 102.9269292 }, "geometry": { "type": "Point", "coordinates": [ 102.9269292, 1.852569 ] } },
{ "type": "Feature", "properties": { "Name_CH": "居銮区华校教师公会", "Name_ML": "Persatuan Guru-Guru Sekolah Cina Daerah Kluang", "Name_EN": null, "Location": "D\/A SJK(C) Lit Terk, Niyor, 86007 Kluang, Johor.", "Region": "Johor", "Category": "地缘", "PageNumber": 272, "Country": "Malaysia", "latitude": 2.0947366, "longitude": 103.2796107 }, "geometry": { "type": "Point", "coordinates": [ 103.2796107, 2.0947366 ] } },
{ "type": "Feature", "properties": { "Name_CH": "居銮河婆同乡联谊会", "Name_ML": "Persatuan Ho Po Kluang", "Name_EN": "Kluang Ho Po Association", "Location": "15, (Tkt 2) Jalan Gunung Lambak 1, Taman Gunung Lambak, Off Jalan Kota Tinggi, 86000 Kluang, Johor.", "Region": "Johor", "Category": "地缘", "PageNumber": 272, "Country": "Malaysia", "latitude": 2.0307351, "longitude": 103.3334433 }, "geometry": { "type": "Point", "coordinates": [ 103.3334433, 2.0307351 ] } },
{ "type": "Feature", "properties": { "Name_CH": "居銮永春公会", "Name_ML": "Persatuan Eng Choon Kluang", "Name_EN": "Eng Choon Association Kluang", "Location": "35 & 36, Jalan Ismail, 86000 Kluang, Johor.", "Region": "Johor", "Category": "地缘", "PageNumber": 272, "Country": "Malaysia", "latitude": 2.0278498, "longitude": 103.3184669 }, "geometry": { "type": "Point", "coordinates": [ 103.3184669, 2.0278498 ] } },
{ "type": "Feature", "properties": { "Name_CH": "居銮琼联社", "Name_ML": null, "Name_EN": "Heng Lain Tay", "Location": "126-A(lst Floor) Jalan Mersing, 86000 Kluang Johor.", "Region": "Johor", "Category": "地缘", "PageNumber": 272, "Country": "Malaysia", "latitude": 2.0552696, "longitude": 103.3562689 }, "geometry": { "type": "Point", "coordinates": [ 103.3562689, 2.0552696 ] } },
{ "type": "Feature", "properties": { "Name_CH": "居銮客家公会", "Name_ML": "Persatuan Hakka Daerah Johor", "Name_EN": null, "Location": "1 (Tingkat 1) Jalan Tengku Mahkota Ismail, 86000 Kluang, Johor.", "Region": "Johor", "Category": "地缘", "PageNumber": 272, "Country": "Malaysia", "latitude": 2.030068, "longitude": 103.3184639 }, "geometry": { "type": "Point", "coordinates": [ 103.3184639, 2.030068 ] } },
{ "type": "Feature", "properties": { "Name_CH": "利丰港广东会馆", "Name_ML": "Persatuan Kwang Tung Sungai Mati Muar Johor", "Name_EN": null, "Location": "83 Jalan Raya, Sungai Mati, 84400 Muar, Johor.", "Region": "Johor", "Category": "地缘", "PageNumber": 273, "Country": "Malaysia", "latitude": 2.1456904, "longitude": 102.5629169 }, "geometry": { "type": "Point", "coordinates": [ 102.5629169, 2.1456904 ] } },
{ "type": "Feature", "properties": { "Name_CH": "利民达福建公会", "Name_ML": "Persatuan Hokkien Jementah", "Name_EN": null, "Location": "63 Tingkat 2, Jalan Muar, Jementah, Johor.", "Region": "Johor", "Category": "地缘", "PageNumber": 273, "Country": "Malaysia", "latitude": 2.4387998, "longitude": 102.6846273 }, "geometry": { "type": "Point", "coordinates": [ 102.6846273, 2.4387998 ] } },
{ "type": "Feature", "properties": { "Name_CH": "利民达两广公会", "Name_ML": "Persatuan Liong Kwong Jementah Johor", "Name_EN": null, "Location": "54, Jalan Muar, 85200 Jementah, Johor,", "Region": "Johor", "Category": "地缘", "PageNumber": 273, "Country": "Malaysia", "latitude": 2.471199, "longitude": 102.7009078 }, "geometry": { "type": "Point", "coordinates": [ 102.7009078, 2.471199 ] } },
{ "type": "Feature", "properties": { "Name_CH": "峇株巴辖广肇会馆", "Name_ML": "Persatuan Kwong Siew Woi Koon", "Name_EN": null, "Location": "31 Jalan Jenang, 83000 Batu Pahat Johor.", "Region": "Johor", "Category": "地缘", "PageNumber": 273, "Country": "Malaysia", "latitude": 1.8527499, "longitude": 102.927554 }, "geometry": { "type": "Point", "coordinates": [ 102.927554, 1.8527499 ] } },
{ "type": "Feature", "properties": { "Name_CH": "峇株巴辖晋江会馆", "Name_ML": "Persatuan Chin Kang Batu Pahat", "Name_EN": "Chin Kang Association Batu Pahat", "Location": "9- C, 1st Floor, Jalan Ismail 83000, Batu Pahat, Johor.", "Region": "Johor", "Category": "地缘", "PageNumber": 273, "Country": "Malaysia", "latitude": 1.8508939, "longitude": 102.9280248 }, "geometry": { "type": "Point", "coordinates": [ 102.9280248, 1.8508939 ] } },
{ "type": "Feature", "properties": { "Name_CH": "峇株巴辖惠安公会", "Name_ML": "Persatuan Hui Ann Batu Pahat", "Name_EN": "Batu Pahat Hui Ann Association", "Location": "33-3A, Jalan Mohd Akil, 83000 Batu Pahat Johor.", "Region": "Johor", "Category": "地缘", "PageNumber": 273, "Country": "Malaysia", "latitude": 1.8527663, "longitude": 102.9285369 }, "geometry": { "type": "Point", "coordinates": [ 102.9285369, 1.8527663 ] } },
{ "type": "Feature", "properties": { "Name_CH": "峇株巴辖海南会馆", "Name_ML": "Persatuan Hainan Batu Pahat", "Name_EN": null, "Location": "No 14, Jalan Mohd Salleh, 83000 Batu Pahat Johor.", "Region": "Johor", "Category": "地缘", "PageNumber": 273, "Country": "Malaysia", "latitude": 1.8485969, "longitude": 102.9290267 }, "geometry": { "type": "Point", "coordinates": [ 102.9290267, 1.8485969 ] } },
{ "type": "Feature", "properties": { "Name_CH": "峇株巴辖永春会馆", "Name_ML": "Persatuan Eng Choon Batu Pahat Johor", "Name_EN": null, "Location": "37A & 37-1A Jalan Rahmat Batu Pahat, Johor.", "Region": "Johor", "Category": "地缘", "PageNumber": 273, "Country": "Malaysia", "latitude": 1.848559, "longitude": 102.9318686 }, "geometry": { "type": "Point", "coordinates": [ 102.9318686, 1.848559 ] } },
{ "type": "Feature", "properties": { "Name_CH": "拉央拉央广西同乡会", "Name_ML": null, "Name_EN": "Kwong Sai Association Layang-Layang", "Location": "5 Jalan Station Layang-Layang, Johor.", "Region": "Johor", "Category": "地缘", "PageNumber": 273, "Country": "Malaysia", "latitude": 1.883987, "longitude": 103.4020896 }, "geometry": { "type": "Point", "coordinates": [ 103.4020896, 1.883987 ] } },
{ "type": "Feature", "properties": { "Name_CH": "令金广西同乡会", "Name_ML": "Persatuan Kwang Si Tung Hsiang Hui Rengam Johor", "Name_EN": null, "Location": "104 Jalan Perigi Raja, 86300 Rengam, Johor.", "Region": "Johor", "Category": "地缘", "PageNumber": 273, "Country": "Malaysia", "latitude": 1.883499, "longitude": 103.4017573 }, "geometry": { "type": "Point", "coordinates": [ 103.4017573, 1.883499 ] } },
{ "type": "Feature", "properties": { "Name_CH": "拉美士福建会馆", "Name_ML": "Persatuan Hokkien Labis Johor", "Name_EN": null, "Location": "166 Jalan Tenang, 85300 Labisz Johor.", "Region": "Johor", "Category": "地缘", "PageNumber": 273, "Country": "Malaysia", "latitude": 2.3926499, "longitude": 103.0226682 }, "geometry": { "type": "Point", "coordinates": [ 103.0226682, 2.3926499 ] } },
{ "type": "Feature", "properties": { "Name_CH": "令念广肇会馆", "Name_ML": "Persatuan Kwong Wai Siew Vei Kuon Rengam", "Name_EN": null, "Location": "106A, Jalan Perigi Raja, 86300 Rengam, Johor.", "Region": "Johor", "Category": "地缘", "PageNumber": 274, "Country": "Malaysia", "latitude": 1.8834589, "longitude": 103.4016644 }, "geometry": { "type": "Point", "coordinates": [ 103.4016644, 1.8834589 ] } },
{ "type": "Feature", "properties": { "Name_CH": "麻坡永舂会馆", "Name_ML": "Persatuan Eng Choon Muar", "Name_EN": null, "Location": "Jalan Maharani,84000 Muar, Johor.", "Region": "Johor", "Category": "地缘", "PageNumber": 274, "Country": "Malaysia", "latitude": 2.0484495, "longitude": 102.5674833 }, "geometry": { "type": "Point", "coordinates": [ 102.5674833, 2.0484495 ] } },
{ "type": "Feature", "properties": { "Name_CH": "麻坡茶阳会馆", "Name_ML": "Persatuan Char Yong Muar", "Name_EN": "The Muar Char Yong Association", "Location": "151,1st Floor, Jalan Abdullah, 84000 Muar, Johor.", "Region": "Johor", "Category": "地缘", "PageNumber": 274, "Country": "Malaysia", "latitude": 2.0490774, "longitude": 102.5694393 }, "geometry": { "type": "Point", "coordinates": [ 102.5694393, 2.0490774 ] } },
{ "type": "Feature", "properties": { "Name_CH": "麻坡海南东路同乡会", "Name_ML": "Persatuan Tang Lo Hainan Muar", "Name_EN": null, "Location": "129 Jalan Abdullah(top floor), 84000 Muar, Johor.", "Region": "Johor", "Category": "地缘", "PageNumber": 274, "Country": "Malaysia", "latitude": 2.0478552, "longitude": 102.56812 }, "geometry": { "type": "Point", "coordinates": [ 102.56812, 2.0478552 ] } },
{ "type": "Feature", "properties": { "Name_CH": "麻坡海南会馆", "Name_ML": "Persatuan Hainan Muar", "Name_EN": null, "Location": "69 Jalan Abdullah, 84000 Muar, Johor.", "Region": "Johor", "Category": "地缘", "PageNumber": 274, "Country": "Malaysia", "latitude": 2.0465234, "longitude": 102.5662948 }, "geometry": { "type": "Point", "coordinates": [ 102.5662948, 2.0465234 ] } },
{ "type": "Feature", "properties": { "Name_CH": "麻坡嘉应同乡会", "Name_ML": "Persatuan Kah Yin Thong Sheong Fui Muar", "Name_EN": null, "Location": "48 Jalan Sisi(2nd Floor), 84000 Muar, Johor.", "Region": "Johor", "Category": "地缘", "PageNumber": 274, "Country": "Malaysia", "latitude": 2.0448152, "longitude": 102.5671742 }, "geometry": { "type": "Point", "coordinates": [ 102.5671742, 2.0448152 ] } },
{ "type": "Feature", "properties": { "Name_CH": "麻坡延陵联公会", "Name_ML": "Persatuan Yeng Leng Union Association Muar", "Name_EN": null, "Location": "56, Jalan Ali, 84000 Muar, Johor.", "Region": "Johor", "Category": "地缘", "PageNumber": 274, "Country": "Malaysia", "latitude": 2.045532, "longitude": 102.5673577 }, "geometry": { "type": "Point", "coordinates": [ 102.5673577, 2.045532 ] } },
{ "type": "Feature", "properties": { "Name_CH": "麻坡客家公会", "Name_ML": "Persatuan Hakka Muar", "Name_EN": null, "Location": "75-5, Tingkat 3, Jalan Arab, 84000 Muar, Johor.", "Region": "Johor", "Category": "地缘", "PageNumber": 274, "Country": "Malaysia", "latitude": 2.0459837, "longitude": 102.5688532 }, "geometry": { "type": "Point", "coordinates": [ 102.5688532, 2.0459837 ] } },
{ "type": "Feature", "properties": { "Name_CH": "麻坡潮会馆", "Name_ML": "Persatuan Teo Chew Muar", "Name_EN": "Muar Teo Chew Association", "Location": "101, Jalan MaharanL 84000 Muar, Johor.", "Region": "Johor", "Category": "地缘", "PageNumber": 274, "Country": "Malaysia", "latitude": 2.0495461, "longitude": 102.5692071 }, "geometry": { "type": "Point", "coordinates": [ 102.5692071, 2.0495461 ] } },
{ "type": "Feature", "properties": { "Name_CH": "麻坡广西同乡会", "Name_ML": "Persatuan Kwang Si Muar Johor (1994)", "Name_EN": null, "Location": "416-6, Tingkat 1, Bagan Tey-Heng Hwa, Jalan Abdul Rahman, 84000 Muar, Johor.", "Region": "Johor", "Category": "地缘", "PageNumber": 274, "Country": "Malaysia", "latitude": 2.005933, "longitude": 102.591479 }, "geometry": { "type": "Point", "coordinates": [ 102.591479, 2.005933 ] } },
{ "type": "Feature", "properties": { "Name_CH": "麻坡广东会馆", "Name_ML": null, "Name_EN": "Muar Kwang Tung Association", "Location": "10 Jalan Bakri, 84000 Muar, Johor.", "Region": "Johor", "Category": "地缘", "PageNumber": 274, "Country": "Malaysia", "latitude": 2.0488314, "longitude": 102.572358 }, "geometry": { "type": "Point", "coordinates": [ 102.572358, 2.0488314 ] } },
{ "type": "Feature", "properties": { "Name_CH": "令金海南会馆", "Name_ML": "Persatuan Hainan Rengam", "Name_EN": null, "Location": "No.3, Jalan Trus 86300 Rengam, Johor.", "Region": "Johor", "Category": "地缘", "PageNumber": 274, "Country": "Malaysia", "latitude": 1.8834944, "longitude": 103.4023101 }, "geometry": { "type": "Point", "coordinates": [ 103.4023101, 1.8834944 ] } },
{ "type": "Feature", "properties": { "Name_CH": "麻属兴安会馆", "Name_ML": null, "Name_EN": "Shing An Association", "Location": "69-5 Jalan Sulaiman, 84000 Muar, Johor.", "Region": "Johor", "Category": "地缘", "PageNumber": 275, "Country": "Malaysia", "latitude": 2.0423035, "longitude": 102.567678 }, "geometry": { "type": "Point", "coordinates": [ 102.567678, 2.0423035 ] } },
{ "type": "Feature", "properties": { "Name_CH": "麻坡漳泉公会", "Name_ML": "Persatuan Chiang Chuan Muar Johor", "Name_EN": null, "Location": "33 Jalan Ali, Muar, Johor.", "Region": "Johor", "Category": "地缘", "PageNumber": 275, "Country": "Malaysia", "latitude": 2.0464004, "longitude": 102.5686104 }, "geometry": { "type": "Point", "coordinates": [ 102.5686104, 2.0464004 ] } },
{ "type": "Feature", "properties": { "Name_CH": "麻属南安会馆", "Name_ML": "Persatuan Nam Uwa Muar Johor", "Name_EN": null, "Location": "44, Jalan Suleiman, 84000 Muar, Johor.", "Region": "Johor", "Category": "地缘", "PageNumber": 275, "Country": "Malaysia", "latitude": 2.0387669, "longitude": 102.5711383 }, "geometry": { "type": "Point", "coordinates": [ 102.5711383, 2.0387669 ] } },
{ "type": "Feature", "properties": { "Name_CH": "麻属巴冬永春会馆", "Name_ML": "Persatuan Eng Choon Huay Kuan Parit Jawa Muar", "Name_EN": null, "Location": "134, Jalan Jabbar, Parit Jawa, Muar, Johor.", "Region": "Johor", "Category": "地缘", "PageNumber": 275, "Country": "Malaysia", "latitude": 1.9575426, "longitude": 102.6424622 }, "geometry": { "type": "Point", "coordinates": [ 102.6424622, 1.9575426 ] } },
{ "type": "Feature", "properties": { "Name_CH": "吗咯高州同乡会", "Name_ML": "Persatuan Koh Chow Bekok Johor", "Name_EN": null, "Location": "72 Jalan Gunong, Bekok, 86500 Kluang, Johor.", "Region": "Johor", "Category": "地缘", "PageNumber": 275, "Country": "Malaysia", "latitude": 2.3872222, "longitude": 103.1811111 }, "geometry": { "type": "Point", "coordinates": [ 103.1811111, 2.3872222 ] } },
{ "type": "Feature", "properties": { "Name_CH": "柔佛丰顺会馆", "Name_ML": "Persatuan Fung Shun", "Name_EN": "Fung Shun Association", "Location": "142, Kulai Besar, 81000 Kulai, Johor.", "Region": "Johor", "Category": "地缘", "PageNumber": 275, "Country": "Malaysia", "latitude": 1.6512825, "longitude": 103.6106658 }, "geometry": { "type": "Point", "coordinates": [ 103.6106658, 1.6512825 ] } },
{ "type": "Feature", "properties": { "Name_CH": "柔佛潮州八邑会馆", "Name_ML": null, "Name_EN": "Teochow Eight Districts Association", "Location": "No.53, Jalan Ibrahim Sultan, 80300 Johor Bahru, Johor.", "Region": "Johor", "Category": "地缘", "PageNumber": 275, "Country": "Malaysia", "latitude": 1.46465, "longitude": 103.7758056 }, "geometry": { "type": "Point", "coordinates": [ 103.7758056, 1.46465 ] } },
{ "type": "Feature", "properties": { "Name_CH": "任罗宏高州会馆", "Name_ML": "Persatuan Koo Chow Wooi Koon Johor Selantan", "Name_EN": null, "Location": "8-H Jalan Mersing, Jemaluang, 86810 Mersing, Johor.", "Region": "Johor", "Category": "地缘", "PageNumber": 275, "Country": "Malaysia", "latitude": 2.2684954, "longitude": 103.8521947 }, "geometry": { "type": "Point", "coordinates": [ 103.8521947, 2.2684954 ] } },
{ "type": "Feature", "properties": { "Name_CH": "柔佛丰盛港潮州会馆", "Name_ML": "Persatuan Teochew Mersing Johor", "Name_EN": "Teochew Association of Mersing Johor", "Location": "396-2, Tingkat 2, Jalan Jemaluang, 86800 Mersing, Johor.", "Region": "Johor", "Category": "地缘", "PageNumber": 275, "Country": "Malaysia", "latitude": 2.3927961, "longitude": 103.8529422 }, "geometry": { "type": "Point", "coordinates": [ 103.8529422, 2.3927961 ] } },
{ "type": "Feature", "properties": { "Name_CH": "任罗宏广西会馆", "Name_ML": null, "Name_EN": "Kwong Si Association Jemaluang", "Location": "18H Jalan Pasar, Jemaluang, 86810 Mersing, Johor.", "Region": "Johor", "Category": "地缘", "PageNumber": 275, "Country": "Malaysia", "latitude": 2.2715424, "longitude": 103.8565166 }, "geometry": { "type": "Point", "coordinates": [ 103.8565166, 2.2715424 ] } },
{ "type": "Feature", "properties": { "Name_CH": "任罗宏古冈州会馆", "Name_ML": null, "Name_EN": "Mersing Endau & Jemaluang Johor Malaya Ko Kong Chow Woo Koon", "Location": "19,Jln Pasar, Jemaluang, Mersing, Johor.", "Region": "Johor", "Category": "地缘", "PageNumber": 275, "Country": "Malaysia", "latitude": 2.2715424, "longitude": 103.8565166 }, "geometry": { "type": "Point", "coordinates": [ 103.8565166, 2.2715424 ] } },
{ "type": "Feature", "properties": { "Name_CH": "柔佛州金同夏会馆", "Name_ML": "Persatuan Kim Tong Har Negeri Johor", "Name_EN": null, "Location": "9-A Jalan Suleiman, Batu Pahat, Johor.", "Region": "Johor", "Category": "地缘", "PageNumber": 276, "Country": "Malaysia", "latitude": 1.8495104, "longitude": 102.9313723 }, "geometry": { "type": "Point", "coordinates": [ 102.9313723, 1.8495104 ] } },
{ "type": "Feature", "properties": { "Name_CH": "柔佛州德化会馆", "Name_ML": "Persatuan Teck Hua Negeri Johor", "Name_EN": null, "Location": "21A Jalan Temiang, Taman Makmur, Batu Pahat Johor.", "Region": "Johor", "Category": "地缘", "PageNumber": 276, "Country": "Malaysia", "latitude": 1.8595291, "longitude": 102.931669 }, "geometry": { "type": "Point", "coordinates": [ 102.931669, 1.8595291 ] } },
{ "type": "Feature", "properties": { "Name_CH": "柔佛州安溪公会", "Name_ML": null, "Name_EN": "Johore State Ann Kuay Association", "Location": "No. 16,17,(1st Floor), Jalan Tuanku Mahkota Ismail, 86000 Kluang, Johor.", "Region": "Johor", "Category": "地缘", "PageNumber": 276, "Country": "Malaysia", "latitude": 2.0277478, "longitude": 103.3184679 }, "geometry": { "type": "Point", "coordinates": [ 103.3184679, 2.0277478 ] } },
{ "type": "Feature", "properties": { "Name_CH": "柔佛州惠州会馆", "Name_ML": null, "Name_EN": "Johore State Fui Chew Assn 1954", "Location": "25,Jalan Dato Teoh Siew Khor, Kluang, Johor.", "Region": "Johor", "Category": "地缘", "PageNumber": 276, "Country": "Malaysia", "latitude": 2.031291, "longitude": 103.3197866 }, "geometry": { "type": "Point", "coordinates": [ 103.3197866, 2.031291 ] } },
{ "type": "Feature", "properties": { "Name_CH": "柔佛州高州公会", "Name_ML": "Persatuan Koh Chow Johor", "Name_EN": "Johor Koh Chow Association", "Location": "No.1, Tingkat 3, Jalan Mengkibol 86000 Kluang, Johor.", "Region": "Johor", "Category": "地缘", "PageNumber": 276, "Country": "Malaysia", "latitude": 2.0147608, "longitude": 103.3199229 }, "geometry": { "type": "Point", "coordinates": [ 103.3199229, 2.0147608 ] } },
{ "type": "Feature", "properties": { "Name_CH": "柔佛州嘉应会馆", "Name_ML": "Persatuan Kah Yin Negeri Johor", "Name_EN": "Johore Kah Yin Fui Kon", "Location": "36, Tingkat 1, Jalan Dato Captain Ahmad, 86000 Kluang, Johor", "Region": "Johor", "Category": "地缘", "PageNumber": 276, "Country": "Malaysia", "latitude": 2.030068, "longitude": 103.3184639 }, "geometry": { "type": "Point", "coordinates": [ 103.3184639, 2.030068 ] } },
{ "type": "Feature", "properties": { "Name_CH": "柔佛州东安会馆", "Name_ML": "Persatuan Tong Onn Negeri Johor", "Name_EN": null, "Location": "71 Jalan Besar, 86000 Kluang, Johor", "Region": "Johor", "Category": "地缘", "PageNumber": 276, "Country": "Malaysia", "latitude": 2.021911, "longitude": 103.323693 }, "geometry": { "type": "Point", "coordinates": [ 103.323693, 2.021911 ] } },
{ "type": "Feature", "properties": { "Name_CH": "柔佛州居銮属福莆仙公会", "Name_ML": "Persatuan Hock Por Sian Kluang Johor", "Name_EN": null, "Location": "47 (1st Floor), Jalan Kampung Paya, 86000 Kluang, Johor.", "Region": "Johor", "Category": "地缘", "PageNumber": 276, "Country": "Malaysia", "latitude": 2.0457193, "longitude": 103.3330986 }, "geometry": { "type": "Point", "coordinates": [ 103.3330986, 2.0457193 ] } },
{ "type": "Feature", "properties": { "Name_CH": "柔佛州河婆同乡会", "Name_ML": "Persatuan Ho Po Negeri Johor", "Name_EN": null, "Location": "N71-72, (tingkat 4), Batu 21, Jalan Raya, 81000 Kulai Johor.", "Region": "Johor", "Category": "地缘", "PageNumber": 276, "Country": "Malaysia", "latitude": 1.662981, "longitude": 103.5999371 }, "geometry": { "type": "Point", "coordinates": [ 103.5999371, 1.662981 ] } },
{ "type": "Feature", "properties": { "Name_CH": "柔佛古来鹤山会馆", "Name_ML": "Persatuan Johor Hok San Kulai", "Name_EN": "Johor Hok san Association Kulai", "Location": "S-13 Jalan Ibrahim, 81000 Kulai, Johor.", "Region": "Johor", "Category": "地缘", "PageNumber": 276, "Country": "Malaysia", "latitude": 1.6599719, "longitude": 103.602115 }, "geometry": { "type": "Point", "coordinates": [ 103.602115, 1.6599719 ] } },
{ "type": "Feature", "properties": { "Name_CH": "柔佛广东会馆", "Name_ML": null, "Name_EN": "The Johore Kwang Tung Association", "Location": "No.73-01, Jalan Susur Larkin Perdana, Taman Larkin Perdana, 80350 Johor Bahru, Johor.", "Region": "Johor", "Category": "地缘", "PageNumber": 276, "Country": "Malaysia", "latitude": 1.5018936, "longitude": 103.7486337 }, "geometry": { "type": "Point", "coordinates": [ 103.7486337, 1.5018936 ] } },
{ "type": "Feature", "properties": { "Name_CH": "柔佛新山海南会馆", "Name_ML": "Persatuan Hainan Johor Bahru", "Name_EN": null, "Location": "38, Jalan Ibrahim, 80000 Johor Bahru, Johor.", "Region": "Johor", "Category": "地缘", "PageNumber": 276, "Country": "Malaysia", "latitude": 1.4560334, "longitude": 103.7634343 }, "geometry": { "type": "Point", "coordinates": [ 103.7634343, 1.4560334 ] } },
{ "type": "Feature", "properties": { "Name_CH": "柔属雷州会馆", "Name_ML": "Persatuan Lui Chew Johor", "Name_EN": "Lui Chew Association Johor", "Location": "46, Tingkat 2 & 3, Jalan Sisi, 84000 Muar, Johor.", "Region": "Johor", "Category": "地缘", "PageNumber": 277, "Country": "Malaysia", "latitude": 2.046639, "longitude": 102.5657846 }, "geometry": { "type": "Point", "coordinates": [ 102.5657846, 2.046639 ] } },
{ "type": "Feature", "properties": { "Name_CH": "三合港海南会馆", "Name_ML": "Persatuan Hainan Cha' Ah Johor", "Name_EN": null, "Location": "8 Jalan Queen, Chaah, 85400 Segamat Johor.", "Region": "Johor", "Category": "地缘", "PageNumber": 277, "Country": "Malaysia", "latitude": 2.249619, "longitude": 103.0400849 }, "geometry": { "type": "Point", "coordinates": [ 103.0400849, 2.249619 ] } },
{ "type": "Feature", "properties": { "Name_CH": "柔佛州万宁同乡会", "Name_ML": "Persatuan Ban Ning Johor", "Name_EN": null, "Location": "210-B (Tingkat 2), Jalan Rugayah, 83000 Batu Pahat Johor.", "Region": "Johor", "Category": "地缘", "PageNumber": 277, "Country": "Malaysia", "latitude": 1.8506269, "longitude": 102.9258782 }, "geometry": { "type": "Point", "coordinates": [ 102.9258782, 1.8506269 ] } },
{ "type": "Feature", "properties": { "Name_CH": "柔佛州南安会馆", "Name_ML": "Persatuan Lam Ann Negeri Johor", "Name_EN": null, "Location": "59-A Jalan Mohd Salleh, 83000 Batu Pahat Johor.", "Region": "Johor", "Category": "地缘", "PageNumber": 277, "Country": "Malaysia", "latitude": 1.848362, "longitude": 102.9299305 }, "geometry": { "type": "Point", "coordinates": [ 102.9299305, 1.848362 ] } },
{ "type": "Feature", "properties": { "Name_CH": "二合港福建会馆", "Name_ML": "Persatuan Hokkien Chaah Johor", "Name_EN": null, "Location": "18 Taman Chaah, 85400 Chaah, Johor.", "Region": "Johor", "Category": "地缘", "PageNumber": 277, "Country": "Malaysia", "latitude": 2.2531676, "longitude": 103.0457295 }, "geometry": { "type": "Point", "coordinates": [ 103.0457295, 2.2531676 ] } },
{ "type": "Feature", "properties": { "Name_CH": "三合港广西同乡会", "Name_ML": "Persatuan Kwang Si Chaah Johor", "Name_EN": null, "Location": "6 Jalan Sim Kim Chong, 85400 Chaah, Johor.", "Region": "Johor", "Category": "地缘", "PageNumber": 277, "Country": "Malaysia", "latitude": 2.2506372, "longitude": 103.0411892 }, "geometry": { "type": "Point", "coordinates": [ 103.0411892, 2.2506372 ] } },
{ "type": "Feature", "properties": { "Name_CH": "三合港客属公会", "Name_ML": null, "Name_EN": "The Hakka Community Association Cha' Ah Johor", "Location": "15 Jalan Coronation, 85400 Chaah, Johor.", "Region": "Johor", "Category": "地缘", "PageNumber": 277, "Country": "Malaysia", "latitude": 2.5837669, "longitude": 102.6248312 }, "geometry": { "type": "Point", "coordinates": [ 102.6248312, 2.5837669 ] } },
{ "type": "Feature", "properties": { "Name_CH": "柔佛州泼江公会", "Name_ML": "Persatuan Song Kong Negeri Johor", "Name_EN": "Johore State Song Kong Association", "Location": "10, Lorong Wayang, 86000 Kluang, Johor.", "Region": "Johor", "Category": "地缘", "PageNumber": 277, "Country": "Malaysia", "latitude": 2.0280618, "longitude": 103.3206128 }, "geometry": { "type": "Point", "coordinates": [ 103.3206128, 2.0280618 ] } },
{ "type": "Feature", "properties": { "Name_CH": "士古来榕联福州十邑公会", "Name_ML": "Persatuan Rong Lian Dan Fu Zhou Sepuluh Kawasan Skudai Johor", "Name_EN": null, "Location": "2A Jalan Perkasa, Taman Ungku Aminahz, 81300 Skudai, Johor", "Region": "Johor", "Category": "地缘", "PageNumber": 277, "Country": "Malaysia", "latitude": 1.5104216, "longitude": 103.6494097 }, "geometry": { "type": "Point", "coordinates": [ 103.6494097, 1.5104216 ] } },
{ "type": "Feature", "properties": { "Name_CH": "柔佛州客家总会", "Name_ML": "Persatuan Hakka Negeri Johor Darul Ta' Zim", "Name_EN": null, "Location": "12, Jalan Permatang 10, Taman Desa Jaya, 81100 Johor Bahru, Johor.", "Region": "Johor", "Category": "地缘", "PageNumber": 277, "Country": "Malaysia", "latitude": 1.5576777, "longitude": 103.8043688 }, "geometry": { "type": "Point", "coordinates": [ 103.8043688, 1.5576777 ] } },
{ "type": "Feature", "properties": { "Name_CH": "柔南兴安会馆", "Name_ML": "Persatuan Hin Ann Johor Selatan", "Name_EN": null, "Location": "3D-1 Jalan Tebrau, 80250 Johor Bahru, Johor.", "Region": "Johor", "Category": "地缘", "PageNumber": 277, "Country": "Malaysia", "latitude": 1.4734307, "longitude": 103.7630868 }, "geometry": { "type": "Point", "coordinates": [ 103.7630868, 1.4734307 ] } },
{ "type": "Feature", "properties": { "Name_CH": "乌鲁地南福建会馆", "Name_ML": "Persatuan Hokkien Ulu Tiram Johor", "Name_EN": null, "Location": "1 Jalan Sri Mutiara, Tiram Mutiara, Ulu Tiram, Johor.", "Region": "Johor", "Category": "地缘", "PageNumber": 277, "Country": "Malaysia", "latitude": 1.585594, "longitude": 103.816699 }, "geometry": { "type": "Point", "coordinates": [ 103.816699, 1.585594 ] } },
{ "type": "Feature", "properties": { "Name_CH": "昔加末潮州会馆", "Name_ML": "Persatuan Teo Chew Segamat", "Name_EN": null, "Location": "33-34 (1st Floor) Jalan Abdullah, 85000 Segamat Johor.", "Region": "Johor", "Category": "地缘", "PageNumber": 278, "Country": "Malaysia", "latitude": 2.5093657, "longitude": 102.8139836 }, "geometry": { "type": "Point", "coordinates": [ 102.8139836, 2.5093657 ] } },
{ "type": "Feature", "properties": { "Name_CH": "昔属永春会馆", "Name_ML": "Persatuan Eng Choon Assn Segamat", "Name_EN": null, "Location": "22, Jalan Abdullah, Segamat Johor.", "Region": "Johor", "Category": "地缘", "PageNumber": 278, "Country": "Malaysia", "latitude": 2.5090984, "longitude": 102.8139209 }, "geometry": { "type": "Point", "coordinates": [ 102.8139209, 2.5090984 ] } },
{ "type": "Feature", "properties": { "Name_CH": "昔加末海南会馆", "Name_ML": "Persatuan Hainan Segamat Johor", "Name_EN": null, "Location": "31 Jalan Tengku Ahmad, 85000 Segamat, Johor.", "Region": "Johor", "Category": "地缘", "PageNumber": 278, "Country": "Malaysia", "latitude": 2.509559, "longitude": 102.8147469 }, "geometry": { "type": "Point", "coordinates": [ 102.8147469, 2.509559 ] } },
{ "type": "Feature", "properties": { "Name_CH": "昔加末客家公会", "Name_ML": "Persatuan Hakka Segamat", "Name_EN": "The Hakka Community Association", "Location": "Jalan Omar,Kampung Gubah, 85000 Segamat, Johor, Malaysia", "Region": "Johor", "Category": "地缘", "PageNumber": 278, "Country": "Malaysia", "latitude": 2.5113212, "longitude": 102.8151105 }, "geometry": { "type": "Point", "coordinates": [ 102.8151105, 2.5113212 ] } },
{ "type": "Feature", "properties": { "Name_CH": "昔加末广肇会馆", "Name_ML": "Persatuan Kwong Siew Segamat Johor (1991)", "Name_EN": null, "Location": "15-C Jalan Leong Yong, 85000 Segamat Johor.", "Region": "Johor", "Category": "地缘", "PageNumber": 278, "Country": "Malaysia", "latitude": 2.5084237, "longitude": 102.8158952 }, "geometry": { "type": "Point", "coordinates": [ 102.8158952, 2.5084237 ] } },
{ "type": "Feature", "properties": { "Name_CH": "昔加末福建会馆", "Name_ML": "Persatuan Hokkien Segamat Johor", "Name_EN": null, "Location": "41st Floor, Jalan Ros, 85000 Segamat Johor.", "Region": "Johor", "Category": "地缘", "PageNumber": 278, "Country": "Malaysia", "latitude": 2.503087, "longitude": 102.8218323 }, "geometry": { "type": "Point", "coordinates": [ 102.8218323, 2.503087 ] } },
{ "type": "Feature", "properties": { "Name_CH": "昔加末福州公会", "Name_ML": "Persatuan Foo Chow Daerah Segamat Johor", "Name_EN": null, "Location": "20 Tingkat 1, Jalan Syed Abdul Kadir, Kg. Abdullah,Segamat, Johor.", "Region": "Johor", "Category": "地缘", "PageNumber": 278, "Country": "Malaysia", "latitude": 2.507667, "longitude": 102.8275061 }, "geometry": { "type": "Point", "coordinates": [ 102.8275061, 2.507667 ] } },
{ "type": "Feature", "properties": { "Name_CH": "昔加末两广公会", "Name_ML": "Persatuan Liong Kwong Bukit Siput Segamat Johor", "Name_EN": null, "Location": "5 Tingkat 2 Taman Indah, Bukit Siput, 85020 Segamat Johor.", "Region": "Johor", "Category": "地缘", "PageNumber": 278, "Country": "Malaysia", "latitude": 2.4807204, "longitude": 102.8506586 }, "geometry": { "type": "Point", "coordinates": [ 102.8506586, 2.4807204 ] } },
{ "type": "Feature", "properties": { "Name_CH": "新加兰永春会馆", "Name_ML": "Persatuan Eng Choon Huay Kuan Senggarang Batu Pahat", "Name_EN": null, "Location": "32B & 32C Jalan Ismail, Senggarang, 83200 Batu Pahat Johor.", "Region": "Johor", "Category": "地缘", "PageNumber": 278, "Country": "Malaysia", "latitude": 1.850538, "longitude": 102.927885 }, "geometry": { "type": "Point", "coordinates": [ 102.927885, 1.850538 ] } },
{ "type": "Feature", "properties": { "Name_CH": "新邦令金德教会紫濡阁", "Name_ML": "Persatuan Meninggikan Akhlak Che Lu Khor", "Name_EN": null, "Location": "102, Jalan Putri 1, Taman Putrimas, 86200 Simpang Renggam, Johor", "Region": "Johor", "Category": "地缘", "PageNumber": 278, "Country": "Malaysia", "latitude": 1.813611, "longitude": 103.3171641 }, "geometry": { "type": "Point", "coordinates": [ 103.3171641, 1.813611 ] } },
{ "type": "Feature", "properties": { "Name_CH": "昔加末广西同乡会", "Name_ML": "Persatuan Keturunan Poh Johor", "Name_EN": null, "Location": "60-A Jalan Harimau Tarum, Taman Century, 80250 Johor Bahru, Johor", "Region": "Johor", "Category": "地缘", "PageNumber": 278, "Country": "Malaysia", "latitude": 1.4826389, "longitude": 103.764769 }, "geometry": { "type": "Point", "coordinates": [ 103.764769, 1.4826389 ] } },
{ "type": "Feature", "properties": { "Name_CH": "乌鲁地南海南会馆", "Name_ML": "Persatuan Hainan Ulu Tiram, Johor", "Name_EN": null, "Location": "103- A, Jalan Cempedek, Taman Tiram Baru, 81800 Ulu Tiram, Johor.", "Region": "Johor", "Category": "地缘", "PageNumber": 278, "Country": "Malaysia", "latitude": 1.5978242, "longitude": 103.822847 }, "geometry": { "type": "Point", "coordinates": [ 103.822847, 1.5978242 ] } },
{ "type": "Feature", "properties": { "Name_CH": "新山福清会馆", "Name_ML": "Persatuan Futsing Johor Bahru", "Name_EN": null, "Location": "171, Jalan Stulang Baru, 81100 Johor Bahru, Johor.", "Region": "Johor", "Category": "地缘", "PageNumber": 279, "Country": "Malaysia", "latitude": 1.5039428, "longitude": 103.7526799 }, "geometry": { "type": "Point", "coordinates": [ 103.7526799, 1.5039428 ] } },
{ "type": "Feature", "properties": { "Name_CH": "新文龙广西会馆", "Name_ML": null, "Name_EN": "Kwang Si Hwai Kuan", "Location": "33B, Jalan Ismail Senggarang, 83200 Batu Pahat Johor.", "Region": "Johor", "Category": "地缘", "PageNumber": 279, "Country": "Malaysia", "latitude": 1.8505268, "longitude": 102.9279825 }, "geometry": { "type": "Point", "coordinates": [ 102.9279825, 1.8505268 ] } },
{ "type": "Feature", "properties": { "Name_CH": "新文龙海南会馆", "Name_ML": "Persatuan Hainan Senggarang Benut Dan Rengit Johor", "Name_EN": null, "Location": "177-A Jalan Ismail Senggarang, 83200 Batu Pahat, Johor.", "Region": "Johor", "Category": "地缘", "PageNumber": 279, "Country": "Malaysia", "latitude": 1.8508939, "longitude": 102.9280248 }, "geometry": { "type": "Point", "coordinates": [ 102.9280248, 1.8508939 ] } },
{ "type": "Feature", "properties": { "Name_CH": "永平广东会馆", "Name_ML": "Persatuan Kwong Tong Yong Peng Johor", "Name_EN": null, "Location": "15-3 & 16-3 (Tingkat 3), Taman Muhibah, 83700 Yong Peng, Johor.", "Region": "Johor", "Category": "地缘", "PageNumber": 279, "Country": "Malaysia", "latitude": 1.626766, "longitude": 103.6201388 }, "geometry": { "type": "Point", "coordinates": [ 103.6201388, 1.626766 ] } },
{ "type": "Feature", "properties": { "Name_CH": "永平福州会馆", "Name_ML": null, "Name_EN": "Hock Chew Assn", "Location": "7, Jalan Templer, Yong Peng, Johor.", "Region": "Johor", "Category": "地缘", "PageNumber": 279, "Country": "Malaysia", "latitude": 2.0129016, "longitude": 103.0596714 }, "geometry": { "type": "Point", "coordinates": [ 103.0596714, 2.0129016 ] } },
{ "type": "Feature", "properties": { "Name_CH": "永平海南会馆", "Name_ML": "Persatuan Hainan Yong Peng Johor", "Name_EN": null, "Location": "2 Jalan Mar Cho, 83700 Yong Peng, Johor.", "Region": "Johor", "Category": "地缘", "PageNumber": 279, "Country": "Malaysia", "latitude": 1.9654819, "longitude": 103.0472164 }, "geometry": { "type": "Point", "coordinates": [ 103.0472164, 1.9654819 ] } },
{ "type": "Feature", "properties": { "Name_CH": "新山海南会馆", "Name_ML": "Persatuan Hainan Johor Bahru", "Name_EN": null, "Location": "38, Jalan Ibrahim, 80000 Johor Bahru, Johor.", "Region": "Johor", "Category": "地缘", "PageNumber": 279, "Country": "Malaysia", "latitude": 1.4560334, "longitude": 103.7634343 }, "geometry": { "type": "Point", "coordinates": [ 103.7634343, 1.4560334 ] } },
{ "type": "Feature", "properties": { "Name_CH": "新山广肇会馆", "Name_ML": null, "Name_EN": "Johor Bahru Kwong Siew Wai Kuan", "Location": "24-26, Jalan Siu Nam, 80000 Johor Bahru, Johor", "Region": "Johor", "Category": "地缘", "PageNumber": 279, "Country": "Malaysia", "latitude": 1.4590919, "longitude": 103.7662809 }, "geometry": { "type": "Point", "coordinates": [ 103.7662809, 1.4590919 ] } },
{ "type": "Feature", "properties": { "Name_CH": "新山永德会馆", "Name_ML": "Persatuan Eng Teck Assciation", "Name_EN": null, "Location": "37-A Jalan Kuning Dua, Taman Pelangi, 80400 Johor Bahru, Johor.", "Region": "Johor", "Category": "地缘", "PageNumber": 279, "Country": "Malaysia", "latitude": 1.4779163, "longitude": 103.7673703 }, "geometry": { "type": "Point", "coordinates": [ 103.7673703, 1.4779163 ] } },
{ "type": "Feature", "properties": { "Name_CH": "新山大马花园客家公会", "Name_ML": "Persatuan Hakka Johor Bahru", "Name_EN": null, "Location": "27A Jalan Bidik Satu, Taman Sri Tebrau, Taman Sri Tebrau, 80050 Johor Bohru, Johor.", "Region": "Johor", "Category": "地缘", "PageNumber": 279, "Country": "Malaysia", "latitude": 1.4850002, "longitude": 103.7675002 }, "geometry": { "type": "Point", "coordinates": [ 103.7675002, 1.4850002 ] } },
{ "type": "Feature", "properties": { "Name_CH": "新山福州十邑会馆", "Name_ML": "Persatuan Foochow Johor Bahru", "Name_EN": "Foochow Association Johor Bahru", "Location": "186B, Jalan Sri Pelangi , Taman Pelangi, 80400 Johor Bahru, Johor.", "Region": "Johor", "Category": "地缘", "PageNumber": 279, "Country": "Malaysia", "latitude": 1.480179, "longitude": 103.7739111 }, "geometry": { "type": "Point", "coordinates": [ 103.7739111, 1.480179 ] } },
{ "type": "Feature", "properties": { "Name_CH": "永平闽南公会", "Name_ML": null, "Name_EN": "Ban Nao Association Yong Peng", "Location": "170 (1st Floor) Main Road, 82700 Yong Peng, Johor.", "Region": "Johor", "Category": "地缘", "PageNumber": 280, "Country": "Malaysia", "latitude": 2.01196, "longitude": 103.0581698 }, "geometry": { "type": "Point", "coordinates": [ 103.0581698, 2.01196 ] } }
]
}
