Name_CH,Name_ML,Name_EN,Location,Longitude,Latitude,Region,Category,PageNumber,,
吉玻庄严同宗会,Persatuan Zhuang Yam Kedah Dan Perlis,,"No.4, Tingkat 2, Taman Selesa, Simpang Kuala, 05400 Alor Setae Kedah.",100.3666021,6.095685,Perlis,血缘,37,,
玻璃市港口鱼商船主公会,Persatuan Peniaga Ikan Dan Pengusaha Bot Kuala Perlis,,"No.19, Taman Sentosa, 02000 Kuala Perlis, Perlis.",100.134212,6.391184,Perlis,业缘,37,,
玻璃市州华人大会堂,Dewan Perhimpunan China Negeri Perlis,Perlis Chinese Assembly Hall,"30, Jalan Maju 4, Taman Kemajuan, 01000 Kangsar, Perlis.",100.2003471,6.4244126,Perlis,综合,37,,
玻璃市广东公会,Persatuan Guang Dong Guan Di Miao Perlis,,"Taman Mutiara, Fasa 3, 01000 Kangar, Perlis.",100.1885371,6.434396,Perlis,地缘,37,,
玻州小贩商业公会,Persatuan Penjaja-Penjaja & Penjual-Penjual Negeri Perlis,,"10, Jin Jubli Perak, 01000 Kangar, Perlis.",100.1918523,6.4348625,Perlis,业缘,37,,
玻璃市中华工商总会,,Perlis Chinese Chamber of Commerce and Industry,"274, Jalan Kangar-Alor Setarjingkat 1, Taman Mutiara, 01000 Kangar, Perlis.",100.1886573,6.4361422,Perlis,业缘,37,,
玻璃市福建会馆,Persatuan Hokkien Perlis,Perlis Hokkien Association,"No.1, Jalan Barrack, Kangar, Perlis.",100.229309,6.5333079,Perlis,地缘,37,,
玻州加基武吉中华公会,Persatuan Choong Fah Koong Pooi,,Dewan Persatuan Choong Fah Koong Fooi 02200 Kaki Bukit Perlis.,100.1927389,6.7071186,Perlis,综合,37,,
玻州亚娄庆安宫,Persatuan Penganut Dewa Kheng Aun Keong,,"C-16, Jalan Syed Hussein, 02600 Arau, Perlis.",100.273179,6.426466,Perlis,宗教,38,,
华益学校校友会,Persatuan Murid-Murid Tua Hwa Aik,,"Sekolah Hwa Aik, Arauz Perlis.",100.2738723,6.4269488,Perlis,文教,38,,
群益学校校友会,Persatuan Murid-Murid Tua Khoon Aik,,"1, Jin Seri Satuz Taman Perlis, 01000 Kangar, Perlis.",100.196919,6.4279,Perlis,文教,38,,
玻州菩提佛教会,PersatuanBodhi Buddhist Perlis,Perlis Bodhi Buddhist Association,"8, Jalan Taman Sri lntan, 02600 Arauz Perlis.",100.2749433,6.4287388,Perlis,宗教,38,,
玻璃市华校董事联合会,Persatuan Lembaga2 Pengurus Sekolan China Perlis,,"C/O SRJK(C) Khoon Aik, Jalan Raja Syed Alwi, 01000 Kangar, Perlis.",100.1966063,6.4293425,Perlis,文教,38,,
玻州德教会紫阳阁,Persatuan Pendidikan Akhlak Che Yang Khor,Che Yang Khor Moral Uplifting Society,"33, Pengkalan Asam, 01000 Kangar, Perlis.",100.1894975,6.4344785,Perlis,宗教,38,,
玻璃市佛学会,Pertubuhan Buddist Perlis,,"1, Jin Mutiara, Taman Mutiara, 01000 Kangar, Perlis.",100.1884752,6.4352269,Perlis,宗教,38,,
玻璃市加央真空教原南坛,Guan Nam Tuagh Chinese Temple,,"125, Jalan Jubli Emas, Kangar, Perlis.",100.2084512,6.4459783,Perlis,宗教,38,,
玻璃市华校教师会,Persatuan Guru-Guru Sekolah Cina Perlis,The Perlis Chinese School Teachers Association,"SJK(C) Kok Aik, 02500 Mata Ayer, Perlis.",100.2584516,6.4729163,Perlis,文教,38,,
玻中校友会,Persatuan Murid-Murid Tua SMJK Perlis,,"2, Jin Masjid, 02100 Padang Besar, Perlis.",100.3197898,6.6605315,Perlis,文教,38,,
双弄那督庙,Dato Kong Kuala Sanglang,,"225, K Sanglang, Perlis.",100.195938,6.260972,Perlis,宗教,39,,
普济庙,Fo Chi Mooi,,"76, Pekan Simpang Empat, 02700 Simpang Empat Perlis.",100.1367166,6.2980423,Perlis,宗教,39,,
加基武吉佛教会,,Pertubuhan Buddhis Kaki Bukit,"PT 1794, Pekan Lama, 02000 Kuala Perlis, Perlis.",100.12741,6.3970635,Perlis,宗教,39,,
加央港口永安堂,Tokong Cina Eng Aun Keong,,"Batu 6 3/4, Jalan Besar, 02000 Kuala Perlis, Perlis.",100.1321746,6.4002226,Perlis,宗教,39,,
爪夷芭静安宫理事会,"Pertubuhan Pengurusan Rumah Berhala Cheng Aun Kong, Jejawi, Perlis",,"1168, Jalan Jejawi Permatang, 02600, Arau, Perlis.",100.2267865,6.4068519,Perlis,宗教,39,,
玻璃市篮球总会,Persatuan Bola Keranjang Negeri Perlis,Perlis Basketball Association,"158, Taman Utara, Jejawi, 02600 Arau, Perlis.",100.2824483,6.4105653,Perlis,体育联谊,39,,
玻璃市州琼谊社,Kelab Kheng Yee The Perlis,,"Hotel Federel, 01000 Kangar, Perlis.",100.197633,6.439058,Perlis,体育联谊,39,,
山神伯公庙,Tokong Cina Beseri Jaya,,"2841, Taman Beseri Jaya 02400,Perlis.",100.2334792,6.559489,Perlis,宗教,39,,
福德祠（巴东勿刹）,Hock Teik Soo Temple,,"C/O 31, Pekan Lama, 02100 Padang Besar, Perlis.",100.317013,6.658363,Perlis,宗教,39,,
赞美中心,Gospel Vision Consultant,,"No. 20, Jalan Cendana, Taman Kaki Bukit, 02200, Kaki Bukit Perlis.",100.212438,6.643662,Perlis,宗教,39,,
吉玻州双弄华人公冢理事会,"JawatankuasaTanah Perkuburan Orang-Orang Kuala Sanglang, Kedah/Perlis",,"1178,1179 dan 1180 (Asal Lot 1081 & 1095) Negeri Perlis, Mukim Sanglang, Simpang Sanglang.",100.1982971,6.282643,Perlis,慈善福利,40,,
玻州十字港，新港公冢,Kubur China (Wan On),,"Kuala Sungai Baru 02700 Simpang Empat, Kayang, Perlis.",100.1659619,6.334916,Perlis,慈善福利,40,,
万和公冢,Perkuburan Wan Ho,,"Batu 1, Jalan Tambun Tulang, Simpang Empat, Kayang, Perlis.",100.2488782,6.38486,Perlis,慈善福利,40,,
玻州港口广万源公冢,Tanah Kubur Cho Kong Wan Teng (Orang Cina Mukim Kuala Perlis),,"Kampung Bukit Putih 02000 Kuala Perlis, Perlis.",100.1306779,6.397886,Perlis,慈善福利,40,,
青运玻州分会,YMM Perlis,,"18, Jin Sarawak, 02000, Kuala Perlis, Perlis.",100.133918,6.400652,Perlis,青年妇女,40,,
青团运玻璃市州分会,Pertubuhan Gerakan Belia Bersatu Malaysia Bahagian Negeri Perlis,,"No.30, Jalan Maju 4, Taman Kemajuan, 01000 Kangsar, Perlis.",100.2003471,6.4244126,Perlis,青年妇女,40,,
玻璃市华人公冢理事会,Persatuan Perkuburan Orang-Orang Tionghwa Perlis,Perlis Chinese Public Cemetery Committee,"7, Jalan Indra Kayangan, 01000 Kangar, Perlis.",100.193518,6.438261,Perlis,慈善福利,40,,
亚娄及新路公冢,Perkuburan Cina Arau / Pauh (Awan),,"Batu 11/2, Jalan Pauhz Kurong Anai, Perlis.",100.310621,6.439435,Perlis,慈善福利,40,,
玻州加基武吉长江寮义务消防队,"Bomba Sukarela Pekan Sayur Kaki Bukit, Perlis",,"No.12, Pekan Sayur Kaki Bukit, Perlis.",100.2127371,6.6427383,Perlis,慈善福利,40,,
知知丁宜区小园主合作社,Koperasi Pekebun-Pekebun Kecil Mukim Titi Tinggi,,"115, Pekan Baru, 02200 Kaki Bukit Perlis.",100.208075,6.644254,Perlis,慈善福利,40,,
吉玻广西会馆,Perdatuan Kwang Sai Association,,"1 Jalan Petani, Sungai Petani, Kedah.",100.4834508,5.634133,Kedah,地缘,41,,
双溪大年华人注册社团联合会,Gabungan Persatuan Orang-Orang China,Sungai Petani Kedah,"21 Jalan Merbok, 08000 Sungai Petani, Kedah.",100.486279,5.6404689,Kedah,综合,41,,
吉打州华人大会堂,Dewan Perhimpunan Cina Keda,Kedah Chinese Assembly Hall,"8, Jalan Tanjung Bendahara, 05300 Alor Setae Kedah.",100.37,6.1018647,Kedah,综合,41,,
吉玻惠安公会,Persatuan Hui Aun Kedah / Perlis,,"51. KLM. Kampong Perak, 05100 Alor Star, Kedah.  ",100.363888,6.121473,Kedah,地缘,41,,
吉玻潮州会馆,Persatuan Teochew Kedah / Perlis,,"27-B, Lebuhraya Darul Aman, 05000 Alor Setar, Kedah.",100.3670486,6.1225038,Kedah,地缘,41,,
吉玻海南会馆,Persatuan Hainan Kedah / Perlis,"Hainan Association, Kedah And Perlis","36, Jalan Putra, 05100 Alor Setar, Kedah.",100.3631808,6.1228432,Kedah,地缘,41,,
吉玻海南会馆,Persatuan Hainan Kedah / Perlis,"Hainan Association, Kedah And Perlis","36, Jalan Putra, 05100 Alor Setar, Kedah.",100.3631808,6.1228432,Kedah,地缘,41,,
吉玻福莆仙同乡会,Kedah / Perlis Hock Phor Sean Association,,"40, Jalan Putra, 05100 Alor Star, Kedah.",100.3621919,6.123256,Kedah,地缘,41,,
吉玻惠州会馆,Persatuan Fui Chiu Kedah/Perlis Chen & Association,,"68 Komplek Alor Malai Batu 2, Jalang Langgar, 054460 Alor Setar, Kedah.",100.3890951,6.1308965,Kedah,地缘,41,,
浮罗交怡海南会馆,Persatuan Hainan Langkawi Kedah,,"1 Pekan Kuah, 07000 Langkawi, Kedah.",99.8439119,6.3265033,Kedah,地缘,41,,
浮罗交怡福建会馆,Pulau Langkawi Hokkien Association,,"217, Taman Langkawai, Mukim Kuahz 07000 Pulau Langkawi, Kedah.",99.8,6.35,Kedah,地缘,41,,
吉南福建公会,Persatuan Hokkien Kedah Selatan,South Kedah Hokkien Association,"291, Jalan Pasar, 09000 Kulim, Kedah.",100.5556366,5.3694705,Kedah,地缘,42,,
吉打永大会馆,Persatuan Yoon Thai,Yoon Thai Association,"99, Pekan China, 05000 Alor Setar, Kedah.",100.363097,6.117492,Kedah,地缘,42,,
吉打广东暨汀州会馆,Persatuan Kwangtung & Tengchow Kedah,,"24-A, Jalan Pengkalan Kapal 05000 Alor Setae Kedah.",100.3680364,6.1169404,Kedah,地缘,42,,
吉打福建公会,Persatuan Hokkien Kedah,Kedah Hokkien Association,"189-191, (Tingkat Satu), Jalan Penjara Lama, 05000 Alor Star, Kedah.",100.3643947,6.1172751,Kedah,地缘,42,,
吉打漳泉公所,Kedah Chang Chuan Kong Sor,,"190, Jalan Penjara Lama, 05000 Alor Star, Kedah.",100.3640173,6.117623,Kedah,地缘,42,,
吉打客家公会,Persatuan Hakka Kedah,,"2-B , Jalan Kampong Perak, 05100 Alor Star, Kedah.",100.3646997,6.1210698,Kedah,地缘,42,,
吉玻台山会馆,Persatuan Orang Orang Toishan Kedah / Perlis Toishan Association Kedah And Perlis,,"2-C, Kampong Baru, 05000 Alor Star, Kedah.",100.3675918,6.1218631,Kedah,地缘,42,,
吉打中山公会,Persatuan Chung Sun,Chung Sun Association,"65, Jalan Putra 05100, Alor Star, Kedah.",100.3628097,6.1229942,Kedah,地缘,42,,
吉玻南安会馆,Persatuan Nan Ann Kedah/Perlis,The Nan Ann Association Kedah/Perlis,"169-D, Jalan Putra 05100 Alor Star, Kedah.",100.3605645,6.1239428,Kedah,地缘,42,,
吉玻晋江会馆,Persatuan Chin Kang Kedah/Perlis,,"3B,C Tingkat 1, Jalan Gangsa, Seberang Jalan Putra, 05150 Alor Star, Kedah.",100.3581289,6.1265935,Kedah,地缘,42,,
吉玻龙答同乡会,Persatuan Lungyen Kedah / Perlis,,"750, Lebuhraya Darul Aman, 05000 Alor Setar, Kedah.",100.3683117,6.1317004,Kedah,地缘,42,,
吉打州福州会馆,Persatuan Foochow Kedah,Kedah Foochow Association,"785, Jalan Langgar, 05460 Alor Star, Kedah.",100.4198472,6.1486921,Kedah,地缘,42,,
吉南嘉应五属同乡会,Persatuan Kah Yin Kedah Selatan,,"52, Jalan Raya, 09000 Kulim, Kedah.",100.5539893,5.366648,Kedah,地缘,43,,
吉南韩江公会,Persatuan Hang Kang Kedah Selatan ,,"29 Jalan Ray, Kulim, Kedah.",100.5552646,5.3680671,Kedah,地缘,43,,
吉南广惠肇会馆,Persatuan Kwong Wai Slew Kedah Selatan,,"30, Jalan Raya, 09000 Kulim, Kedah.",100.5551418,5.368179,Kedah,地缘,43,,
吉属高州会馆,Kedah Koh Chow Wooi Koon,,"287-M, Jalan Aman ,09000 Kulim, Kedah.",100.554537,5.370651,Kedah,地缘,43,,
吉南客家公会,Persatuan Kaum Orang-Orang Hakka Kedah Selatan,South Kedah Hakka Community Association,"1125-1126, Lorong Belibis 1/1, Taman Tunku Putra, 09000 Kulim, Kedah.",100.5582809,5.3736648,Kedah,地缘,43,,
吉中福建会馆,Hokkien Association Central Kedah,,"1G, 1st Floor, Jalan Kampung Baru, 08000 Sungai Petani, Kedah.",100.486348,5.635983,Kedah,地缘,43,,
吉中客家公会,Persatuan Hakka Kedah Tengah,,"20 Jalan Merbok, 08000 Sungai Petani, Kedah.",100.486228,5.6404679,Kedah,地缘,43,,
吉玻嘉应会馆,Persatuan Kah Yin Kedah/Perlis,Kedah Perlis Kah Yin Association,"115, Jalan Langgar, 05460, Alor Star, Kedah.",100.3707448,6.1169556,Kedah,地缘,43,,
吉玻江夏堂黄氏宗祠,Persatuan Kang Har Tong (Ooi Si Chong Soo) Kedah / Perlis,,"10-G, Jalan Datuk Syed Omar, Seberang, Jalan Putra, 05150 Alor Setar, Kedah.",100.3853782,6.124713,Kedah,血缘,43,,
吉玻关氏延陵堂,Pertubuhan Keturunan Goh' s(Ean Leng Tong),Kedah Perlis,"50 Taman Thean Peng Seberang, Jalan Putra, 05150 Alor Setae Kedah.",100.3441771,6.13352,Kedah,血缘,43,,
吉南琼崖同乡会,Pert Thye Guang (Ong Si Choong Soo) Kedah/Perlis,,"70-L/M Taman Mahawangsa Seberang, Jalan Alor Setar, 05150 Kedah.",100.3311919,6.1428582,Kedah,地缘,43,,
吉玻苏许连宗祠,Persatuan Saw Khaw Lean Kedah / Perlis,,"88, Batu 6, Simpang Empat, 06650 Alor Star, Kedah.",100.3831873,6.022917,Kedah,血缘,44,,
吉玻龙山堂曾氏公会,Persatuan Loong Sun Tong Kedah/Perlis,,"192 Batu 5, Taman Bersatu Simpang Empat, Alor Setar, Kedah.",100.38073,6.043171,Kedah,血缘,44,,
吉玻施氏公会,Persatuan See Kedah/Perlias,,"173-B Taman Sri Tandop, Jalan Lencong Barat Alor Setar, Kedah.",100.3635728,6.0730443,Kedah,血缘,44,,
吉玻刘关张赵古城会,Persatuan Liu Guan Zhang Zhao Gu Cheng Hui,Kedah / Perlis,"168, Lebuhraya Sultan Abdul Halim, 05400 Alor Star, Kedah.",100.3629725,6.083403,Kedah,血缘,44,,
吉玻孙氏宗祠,Persatuan Suku Kaum Soon Shi Zong Ci Kedah/Perlis,Indera Kayangan,"99 Jalan Kundor, 05400 Alor Setar, Kedah. ",100.367359,6.0938389,Kedah,血缘,44,,
吉玻四美堂庄氏宗祠,Pertubuhan Soo Bee Tong Ch' ng Si Chong Soo Kedah Dan Perlis(1992),,"111 Jalan Pekan Melayu, Alor Setar, Kedah.",100.364923,6.119678,Kedah,血缘,44,,
吉玻谢氏宗亲会,Persatuan Cheah Kedah/Perlis,,"23 Tingkat 1, Jalan Tunku Yaakub, Alor Setar, Kedah.",100.3626123,6.1170733,Kedah,血缘,44,,
吉玻王氏太原堂,Pertubuhan Thye Guan Tong (Ong Si Chong Soo),Kedah / Perlis,"70-L & 70-M, Taman Mahawangsa, Seberang Jalan Putra, 05150 Alor Setar, Kedah,",100.3594005,6.1200058,Kedah,血缘,44,,
吉玻辛柯蔡宗祠,"Sin Quah Chuah Chong Soo, Kedah / Perlis",,"737, Lebuh Raya Darulaman 05100, Alor Setar, Kedah.",100.3683117,6.1317004,Kedah,血缘,44,,
吉玻梁氏宗亲会,"Persatuan Kebajikan Liang Kedah / Perlis,",,"2536 Tingkat 1, Kompleks Pumpang, Pekan Pumpong, 05250 Alor Setar, Kedah.",100.36952,6.1357614,Kedah,血缘,44,,
吉玻陇西堂,Persatuan Leong Say Tong Kedah/Perlis,,"6 Lorong Suka Ramai, Bakar Bata, 05100 Alor Star, Kedah.",100.370275,6.13899,Kedah,血缘,44,,
吉中李氏宗亲会,Pertubuhan Lee Sih Chong Soo Kedah Tengah,,"5, Hadapan Sek. Men. Che Tom, Jalan Bakar Arang, 08000 Sungai Petani, Kedah.",100.478342,5.6233449,Kedah,血缘,45,,
吉玻当商公会,Pertubuhan Pengusaha Pajak Gadai Kedah ,,"1 Jalan Petani, Sungai Petani, Kedah.",100.4834508,5.6341331,Kedah,业缘,45,,
吉中忠顺世家,Tiong Soon See Kah Kedah Tengah,,"739-B, Jalan Bakar Sampah, 08000 Sungai Petani, Kedah.",100.4990311,5.6364846,Kedah,血缘,45,,
吉中林氏宗祠,Persatuan Um See Chong Soo,,"5-G Jalan Kampong Baru 08000, Sungai Petani, Kedah.",100.4884533,5.6378644,Kedah,血缘,45,,
吉玻庄严同宗会,Persatuan Zhuang/Yam Kedah Dan Perlis,,"4, Tingkat 2, Taman Selesa, Simpang Kuala, 05400 Alor Setan Kedah.",100.3666021,6.095685,Kedah,血缘,45,,
吉玻陈氏颖川堂,Tan Si Eng Chuan Tong Kedah Perlis,,"666-B, Lorong Tangki Limbong Kapal, 05000 Alor Star, Kedah.",100.366859,6.115349,Kedah,血缘,45,,
吉打嘉和俱乐部,Kelab Rekrasi Kah Who Kedah,,"73-B, Tingkat 2, Komplek Jalan Nagor, 05000 Alor Star, Kedah.",100.366611,6.13126,Kedah,血缘,45,,
吉打九龙堂林姓公会,Persatuan Um Kew Leong Tong Kedah Darul Aman  ,Lim Association Kew Leong Tong,"4-A, Kampong Perak, 05100 Alor Setar, Kedah.",100.363888,6.121473,Kedah,血缘,45,,
吉玻郑氏英阳堂,"Persatuan The Si Eng Eong Tong Kedah, Perak",,"33,  Jalan Biru 2, Kg Berjaya Sag Jalan Putra, 05150 A/S Kedah.",100.3559783,6.1246006,Kedah,血缘,45,,
吉玻电单车汽车商暨银业公会,Persatuan Peniaga Kenderaan Bermotor / Kereta Terpakai Dan Kewangan,,"307, Jalan Tengah, Off Jalan Putra, 05100 Alor Setar, Kedah.",100.3624587,6.1253543,Kedah,业缘,45,,
吉玻缝业公会,Persatuan Tukang-Tukang Jahit Negeri Kedah /Perlis,,"82, Seberang Jalan Putra 05150 Alor Setar, Kedah.",100.350241,6.129868,Kedah,业缘,45,,
吉北华人摩多工人公会,,North Kedah Chinese Motor Workers Association,"8 Jalan Kanchut, Alor Setar, Kedah.",100.3683435,6.1328103,Kedah,业缘,45,,
吉玻摄影公会,,The Kedah Perlis Photo Graphers Association,"A-17, Jalan Saga Ria, Taman Saga, 05400 Alor Setar, Kedah.",100.3785116,6.0891102,Kedah,业缘,46,,
吉打屠业公会,,Persatuan Peniaga Dan Penyembelih Babi Kedah,"20-A, Taman Berjaya, Jalan Pengawal, 05050 Alor Star, Kedah.",100.3539164,6.1023367,Kedah,业缘,46,,
吉玻金钻珠宝公会,Persatuan Perniagaan Emas Dan Permata Kedah / Perlis,,"2203-K Tingkat Satu, Seberang Perak, 05050 Alor Setar, Kedah.",100.3612979,6.114328,Kedah,业缘,46,,
吉打什货商公会,Persatuan Peniaga Am Kedah,Kedah General Merchants' Association,"2190, 1st Floor, Lorong Kemuning Seberang Perak, 05400 Alor Star, Kedah.",100.3611063,6.11448,Kedah,业缘,46,,
吉打华人生果同业公会,,Kedah Chinese Furniture Association,"72-B, Jalan Nagor, 05000 Alor Setar, Kedah.",100.366611,6.13126,Kedah,业缘,46,,
吉玻米较公会,Persatuan Pengilang-Pengilang Beras,Kedah & Perlis Kedah & Perlis Rice Millers Association,"400 (2nd) Floor, Jalan Pintu Sepuluh, 05000 Alor Setar, Kedah.",100.3647999,6.1246473,Kedah,业缘,46,,
吉玻汽车修理工商公会,,Persatuan Auto Mobil Workshop Kedah / Perlis,"212 C, Medan Putra, Sbg Jalan Putra, 05150 Alor Setar Kedah.",100.3556513,6.1259264,Kedah,业缘,46,,
吉打华商咖啡公会,Persatuan Kedai-Kedai Kopi China Kedah,Kedah Chinese Shopkeepers Association,"169 E & F, Jalan Putra 05100 Alor Star, Kedah.",100.3537412,6.1268221,Kedah,业缘,46,,
吉打菜业公会,Persatuan Peniaga-Peniaga Sayur Negeri Kedah,,"S15 Pasar Pemborong Sayur Syarikat Saudagar-Saudagar Ikan (K) Sdn. Bhd. Sbg, Jalan Putra, Alor Setar, Kedah.",100.3590375,6.1273853,Kedah,业缘,46,,
吉打华巫米较公会,Persatuan Pengilang-Pengilang Beras Cina Melayu Kedah.,,"121-A&B, Seberang Jalan Putra, 05150 Alor Setar, Kedah.",100.3503911,6.128609,Kedah,业缘,46,,
吉玻机械及车辆零件商会,,Kedah Perlis Spare Parts Dealers Association,"25, 1st Floor, Seberang Jalan Putra, 05150 Alor Star, Kedah.",100.3480107,6.1299161,Kedah,业缘,46,,
吉玻家电商公会,Persatuan Peniaga Alat-Alat Elektrikal Dometik Kedah / Perlis,,"186, Tingkat 2, Shahab Perdana, Jalan Shahab Perdana 5, Jalan Sultanah Sembungan, 05350 Alor Star, Kedah.",100.3885712,6.1400601,Kedah,业缘,46,,
吉中咖啡公会,Persatuan Pemilik Kedai Kopi Kedah Tengah ,Central Kedah Coffee Shop Owners' Association,"6, Jalan Petri, 08000 Sungai Petani, Kedah.",100.4861629,5.640045,Kedah,业缘,47,,
吉中小贩商业公会,Persatuan Panjaja-Panjaja Kedah Tengah,,"55-N, Jalan Sekarat 08000 Sungai Petani, Kedah.",100.4945566,5.6414961,Kedah,业缘,47,,
吉打州柴炭商公会,Persatuan Peniagaan Kayu Api & Arang Negeri Kedah,,"13-C Taman Aman Kg. Baru, 08000 Sungai Petani, Johor.",100.4894179,5.643589,Kedah,业缘,47,,
吉打州家私同业公会,Persatuan Pembuat-Pembuat Dan Peniaga-Peniaga Perabot Negeri Kedah,,"228 &229 (Tingkat Atas), Kawasan Perusahaan Tandop Baru, 05050 Alor Star, Kedah.",100.3617197,6.0811629,Kedah,业缘,47,,
吉打州米商公会,Pertubuhan Peniaga-Peniaga Bekas Negeri Kedah,,"46-A, Kompleks Sukan Muazam Shah, Lebuhraya Sulfan Abdul Halim, 05400 Alor Star, Kedah.",100.364,6.09779,Kedah,业缘,47,,
吉礁建筑商暨建筑材料商公会,Persatuan Pemborong-Pemborong Dan Pembekal- Pembekal Barang-Barang Bangunan Kedah,,"169-A&B, Jalan Kampong Perak, 05100 Alor Star, Kedah.",100.3629177,6.1217677,Kedah,业缘,47,,
吉打小贩商业公会,Persatuan Penjaja-Penjaja Kedah,,"51, S&T,  Jalan Kampong Perak, 05100 Alor Setar, Kedah.",100.3625921,6.1221261,Kedah,业缘,47,,
吉打州枝职文凭公会,Persatuan Pemilik Sijil Kemahiran Malaysia Negeri Keda,,"4A, Batu 2, Seberang Jalan Putra, Mergong, 05150 Alor Setar, Kedah.",100.350838,6.12801,Kedah,业缘,47,,
吉打州拖车及修车公会,Persatuan Pemilik Kereta Penunda Dan Membaiki,,"4A, Baru 2, Seberang Jalan Putra Mergong, 05150 Alor Setar, Kedah.",100.3503911,6.128609,Kedah,业缘,47,,
吉打鱼商公会,,Kedah Fish Merchants Association,"37-R, Seberang Jalan Putra, 05150 Alor Setar, Kedah.",100.350241,6.129484,Kedah,业缘,47,,
吉打州修车公会,Persatuan Pemilik Bengkel Kenderaan Negeri Kedah,,"4A, Batu 2, Seberang Jalan Putra, Mergong, 05150 Alor Setar, Kedah.",100.3503911,6.128609,Kedah,业缘,47,,
吉打中华工商总会,Dewan Peniangaan Dan Perindustrian Tiong Hua,Kedah Chinese Chamber Of Commerce Industry,"749, 1st Floor, Lebuhraya Darul Aman, 05100 Alor Star, Kedah.",100.3680132,6.1302589,Kedah,业缘,47,,
南吉打中华商会,Dewan Perniagaan Tionghoa Kedah Selatan,South Kedah Chinese Chamber Of Commerce,"1190, Lorong Bebilis 1/1, Taman Tunku Putra, 09000 Kulim, Kedah.",100.5579764,5.3731295,Kedah,业缘,48,,
吉玻留台同学会,Persatuan Siswazah-Siswazah Taiwan Kedah Perlis,,"1, Lorong 23, Taman Patani Jaya, 08000 Sungai Petani Kedah.",100.4885642,5.6294811,Kedah,文教,48,,
潮商公会,Persatuan Saudagar-Saudagar Teochew Sungai Petani,,"136-C, Taman Bersatu, 08000 Sungai Petani, Kedah.",100.4917894,5.6372309,Kedah,业缘,48,,
双溪大年建造行,Persatuan Kin Cho Hong,,"584, Jalan Kuala Ketil, 08000 Sungai Petani, Kedah.",100.492513,5.6392999,Kedah,业缘,48,,
吉玻校长职工会,KKGGBM Cawangan Kedah / Perlis,,"SJK(C) Sin Min A, Jalan Pegawai, 08000 Sungai Petani, Kedah.",100.485215,5.652956,Kedah,文教,48,,
吉中中华工商联合会,Persatuan Perniagaan & Perindustrian Cina Kedah Tengah ,The Chinese Chamber Of Commerce&Industry Of Central Kedah,"143, 1st Floor, Jalan Kelab Cinta Sayang, Taman Ria Jaya, 08000 Sungai Petani, Kedah.",100.5131261,5.652979,Kedah,业缘,48,,
吉玻日间师训同学会,Persatuan Guru-Guru Lepasan DTC Kedah Perlis,,"180, Taman Sri Ampang, Jalan Kenanga 11 05050 Alor Star, Kedah.",100.3390124,6.1071718,Kedah,文教,48,,
亚罗士打建造业,Kin Cho Hong Alor Setar,,"3, Jalan Tunku Abdul Rahman Putra, (Jalan Putra), 05100 Alor Star, Kedah.",100.3655763,6.1217452,Kedah,业缘,48,,
吉北华校教师公会,Persatuan Guru-Guru Sekolah Cina Kedah Utara,North Kedah Chinese School Teachers Association,"25B, Jalan Alor Semadom, 05250 Alor Setar, Kedah.",100.3766421,6.1409135,Kedah,文教,48,,
吉州学生车公会,Persatuan Operator Bas Bas Sekolah Negeri Kedah,,"2500(Tingkat1) Kompleks Tunku Yaacob, Jalan Lebuhraya Darulaman, 05100 Alor Star, Kedah.",100.306147,6.1707361,Kedah,业缘,48,,
树胶商公会(古邦巴素),Persatuan Peniaga-Peniaga Getah Kubang Pasu Kedah,,"854 Jalan Masjid, Kubang Pasu, Kedah.",100.4225461,6.35777,Kedah,业缘,48,,
吉打华校校友会联合会,Gabungan Persatuan-Persatuan Bekas Palajar Sekolah Negeri Kedah,,"271, Taman Keranji 2, 09000 Kulim, Kedah.",100.5408068,5.3686469,Kedah,文教,49,,
吉南觉民校友会 .,"Persatuan Murid-Murid Lepasan Sekolah Chio Min, Kedah Selatan",,"271 Taman Keranji 2, 09000 Kulim, Kedah.",100.541701,5.36983,Kedah,文教,49,,
吉南华校教师公会,Persatuan Guru-Guru Sekolah Cina Kedah Selatan,,"D/A SJK(C) Chio Min B' , 09000 Kulim, Kedah. ",100.5498415,5.3732881,Kedah,文教,49,,
吉南鲁乃华民校友会,"Persatuan Bekas Murid-Murid Sekolah Hwa Min, Lunas Kedah",,"285, Tingkat Atas, Jalan Desa Makmur 3, Taman Desa Makmur, 09600 Lunas, Kedah.",100.5396992,5.4326799,Kedah,文教,49,,
吉中华校教师会,Persatuan Guru-Guru Sek Cina Kedah Tengah,,"SJK(C) TaiTong, Taman Kempas Sg. Pasir, 08000 Sungai Petani, Kedah.",100.4788199,5.594427,Kedah,文教,49,,
吉打双溪大年新民校友会,Persatuan Murid Murid Tua Sin Min Sungai Petani Kedah,,"10, Jalan Merbok, 08000 Sungai Petani, Kedah.",100.4853948,5.6404,Kedah,文教,49,,
吉大韩江校友会,Persatuan Bekas Murid Han Chiang Kedah,Penang Han Chiang School Ex-Pupils'  Kedah Association,"46(3/F) Jalan Pengkalan, Taman Pekan Baru, 08000 Sungai Petani, Kedah.",100.4875089,5.641611,Kedah,文教,49,,
吉打竹城明新校友会,Persatuan Bekas Murid Sekolah Min Sin Kota Sarang Semut Alor Star,,"SRJK(C) Min Sin Kota Sarang Semut, 06800 Alor Star, Kedah.",100.4021258,5.973825,Kedah,文教,49,,
吉打十字港益民校友会,Persatuan Murid-Murid Tua Yih Min,,"295, Taman Orkid Simpang Empat, 06650 Alor Star, Kedah.",100.378418,6.032684,Kedah,文教,49,,
吉打华校董联会,Persatuan Lembaga-Lembaga Pengurus Sekolah Cina Keday,"United Chinese School Comm, Associtaion of Kedah","D/A Sekolah Menengah Persendirian Sin Min No 1, Jalan Alor Mengkudu, 05400 Alor Setar, Johor.",100.3918634,6.0895976,Kedah,文教,49,,
吉玻種灵校友会,"Persatuan Alumni ChungLing, Kedah/Perlis",,"7-A, Lorong Lintang, 05200 Alor Star, Kedah.",100.3736284,6.1197605,Kedah,文教,49,,
吉打波各先那同育校友会,Persatuan Murid-AAurid Tua SRJK (C) Tong Yuh PokokSena Kedah,,"181A, Lorong 4 Kiri, 06400 Pokok Sena, Kedah.",100.6872457,6.1511113,Kedah,文教,49,,
加拉岸幵明校友会,Persatuan Bekas Murid-Murid SekKhai Min Karangan Kedah,,"40, Pekan Karangan, 09700 Karangan, Kedah.",100.6715287,5.4040874,Kedah,文教,50,,
尚正校友会,Persatuan Murid-Murid Tua Sekolah Shang Ching Pandang Serai Kedah,,"LC 36 Jalan Lunas, Padang Serai, Kedah.",100.554122,5.511538,Kedah,文教,50,,
新光校友会,Persatuan Murid-Murid Tua Sin Kwang Sungai Petani Kedah,,"118, Lorong 1/9, Taman Sri Wang, 08000 Sungai Petani, Kedah.",100.499183,5.618637,Kedah,文教,50,,
双溪大年二条石明德学校校友会,Persatuan Murid-Murid Tua Min Terk,,"930-B, Batu Dua, Jalan Kuala Ketil, 08000 Sungai Petani, Kedah.",100.521106,5.6317433,Kedah,文教,50,,
双溪大年新民校友会,Persatuan Murid Tua Sin Min Sungai Petani Kedah,,"10 Jalan Merbok Sungai Petani, Kedah.",100.4853948,5.6404,Kedah,文教,50,,
移风剧社,Persatuan Drama Yee Fong Sungai Petani Kedah,,"33, Jalan Dewa, 08000 Sungai Petani, Kedah.",100.4878118,5.6407147,Kedah,文教,50,,
亚罗士打平民校友会,Persatuan Murid-Murid Tua Peng Min,,"Sekolah RJK (C) Peng Min Bee Bee Park, 05400 Alor Setar, Kedah.",100.3655428,6.0950874,Kedah,文教,50,,
亚罗士打新民校友会,Persatuan Murid-Murid Tua Sin Min,,"C/O Weng Yick Brothers Furniture . 55Q, Jalan Telok Wanjah, 05200 Alor Setar, Kedah.",100.3646608,6.1173526,Kedah,文教,50,,
亚罗士打吉华校友会,Persatuan Murid-Murid Tua Keat Hwa,,"1785, Jalan Telok Wanjah, 05200 Alor Star, Kedah.",100.3783886,6.1220088,Kedah,文教,50,,
亚罗士打启智校友会,Persatuan Bekas Pelajar SRJK (C) Kee Chee,,"Batu 2, Jalan Langgar, 05460 Alor Setar, Kedah.",100.3868661,6.1293714,Kedah,文教,50,,
亚罗士打滂滂校友会,"Persatuan Bekas Pelajar SJK (C) Pumpong
Sekolah Jenis Kebangsaan (C) Pumpong",,"Jalan Bakar Bata, 05250 Alor Star, Kedah.",100.3703394,6.137731,Kedah,文教,50,,
日得拉中华校友会,Persatuan Murid-Murid Tua SRJK (C) Chung Hwa Jitra Kedah,,"26, Taman Jitra, Kedah.",100.4257769,6.2598848,Kedah,文教,50,,
西岭学校校友会,"Persatuan Bekas Murid Sekolah Cina Serdang, Kedah",,"85, Jalan Pecah Batu, 09800 Serdang, Kedah.",100.5663381,5.3955827,Kedah,文教,51,,
二条石三山国王善信会,"Pertubuhan Penganut-Penganut San Shan Guo Wang, Batu 2, Sungai Petani",,"721, Batu Dua, 08000 Sungai Petani Kedah.",100.5162322,5.629309,Kedah,宗教,51,,
法主公神庙,Pertubuhan Penganut Huat Szu Kong Sungai Petani Keda,,"2210, Lorong Mak Yong 1, Taman Ria Jya, 08000 Sungai Petani, Kedah.",100.5130143,5.6472535,Kedah,宗教,51,,
吉打莪仑德教会紫津阁,,Chee Chin Kok Moral Uplifting Society,"33-A, Jalan Jeniang, 08300 Gurun, Kedah.",100.5274773,5.8171971,Kedah,宗教,51,,
峨占必力佛教会,Persatuan Ugama Buddha Guar Chempedak Guruk Kedah,,"1 Taman Sri Wangsa, Gua Chempedak, Gurun, Kedah.",100.4608421,5.8511967,Kedah,宗教,51,,
吉打德教会济阳阁,,Chee Yang Kor Moral Uplifting Society Kedah,"2035, Tongkang Yard, Off Jalan Kota Tanah, 05050 Alor Setar, Kedah.",100.3543595,6.1166699,Kedah,宗教,51,,
吉打斗母宫九皇大帝庙,Persatuan Penganut Tow Boo Keong Kiu Ong Tai Tay Kedah,,"Lot 1124 Jalan Bangsa, Seberang Jalan Putra, 05150 Alor Setar, Kedah.",100.354874,6.117715,Kedah,宗教,51,,
吉打佛学院,Persatuan Buddhist Kedah,Kedah Buddhist Association,"1961-A, Jalan Telok Wanjah, 05200 Alor Star, Kedah.",100.3783886,6.1220088,Kedah,宗教,51,,
华玲育智校友会,Persatuan Bekas Pelajar Sekolah Yeok Chee Baling Kedah,,"W(LBB-36), Jalan Shariff, 09000 Baling, Kedah.",100.3823483,6.1259431,Kedah,文教,51,,
华玲德教会紫华阁,Persatuan Pendidikan Akhlak Chee Wah Kor Baling Kedah,,"33-A, Jalan Shariff, 09100 Baling, Kedah.",100.3823483,6.1259431,Kedah,宗教,51,,
波各先那佛教会,Persatuan Buddhist Pokok Sena,Pokok Sena Buddhist Association,"139-A, Lorong 6, Kampung Baru, 06400 Pokok Sena, Kedah.",100.5080062,6.166289,Kedah,宗教,51,,
吉南司南马德教会振成阁,Persatuan Amal Chin Shen Khor,,"77, Jalan Raya, 09810 Selama, Kedah.",101.2898938,4.1796236,Kedah,宗教,52,,
吉南三巴央广福宫,"Jawatankuasa Pengurusan Tokong Kwong Hock Keong, junjong","The Committee Of Management Of Kwong Hock Keong, Junjong","139, Pekan Junjong, 09000 Kulim, Kedah.",100.534158,5.2985354,Kedah,宗教,52,,
吉南德教会紫翰阁,,Chee Han Kor Moral Uplifting Society South Kedah,"358, Kelang Sago, 09000 Kulim, Kedah.",100.5513328,5.3736086,Kedah,宗教,52,,
吉南巴东色海德教会紫天阁,,Chee Thean Hkor Moral Uplifting Society,"Jalan Baling, 09400 Padang Serai, Kedah.",100.5651849,5.510874,Kedah,宗教,52,,
吉打双溪大年甘边园斗母宫理事会,"Pertubuhan Penganut Agama Buddha Dou Mu Gong Jiu Hwang Da Ti. Kampung Kean Peng. Sg Petani, Kedah",,"516, Kampung Kean Peng, Pekan Lama, 08000 Sungai Petani, Kedah.",100.4906033,5.6395609,Kedah,宗教,52,,
吉打华玲德教会紫华阁,Persatuan Pendidikan Akhlak Chee Wan Kor,,"33-A, Jalan Shariff, 90100 Baling, Kedah.",100.9168139,5.675547,Kedah,宗教,52,,
吉打广福宫,Kong Hock Keong,,"233-Pengkalan Kundor, 05400 Alor Star, Kedah.",100.3544711,6.0744856,Kedah,宗教,52,,
吉打亚罗士打蔗芭青山佬祖古庙,Persatuan Pengurusan Tokong Chin Sun Low Chor,,"15-M Kampong Kilang Tebu, Tembak Bunga, 05050 Alor Star, Kedah.",100.3409292,6.1021074,Kedah,宗教,52,,
吉礁圣教会,Persatuan Sin Kow Hooi Alor Setar Kedah,,"52/53 Batu 2, Jalan Langgar, 05100 Alor Setar, Kedah.",100.3657282,6.1166729,Kedah,宗教,52,,
吉打浮罗交怡德教会紫文阁,Persatuan Pendidikan Akhlak Chee Boon Kor ,,"58, Pokok Asam, 07000 Pulau Langkawi, Kedah.",99.8405157,6.327755,Kedah,宗教,52,,
吉打樟仑普救寺,Pertubuhan Penganut Ajaran Phoo Kiu Se,,"Tokong Phoo Kiu Se, Jalan Sintol, 06010 Changlun, Kedah.",100.5183622,6.4162552,Kedah,宗教,52,,
吉打樟仑佛教会,Persatuan Buddist Changlun,Changlun Buddhist Association,"87, Taman Changlun, Jalan Sintok, 06010 Changlun, Kedah.",100.4364106,6.4337078,Kedah,宗教,52,,
吉南西岭德教会紫峰阁,,Chee Hong Khor Moral Uplifting Society,"106-C, Jalan Raya, 09800 Serdang Kedah.",100.6421799,5.2399823,Kedah,宗教,53,,
麻坑大伯公理事会,Pertubuhan Penganut Tai Pak Kong,,"Lot 908, Tepi Sungai Kerian, 09500 Karangan, Pekan Mahang, Kulim, Kedah.",100.7547581,5.324538,Kedah,宗教,53,,
居林菩提连社,Pertubuhan Pu Ti Lian She Kulim Kedah,,"Lot 17, Lorong Sekolah Convent Jalan Bukit Awi, 09000 Kulim, Kedah.",100.5486378,5.3635611,Kedah,宗教,53,,
居林佛恩功德会,Pertubuhan Bakti Fo En Bandar Kulim Kedah,,"74 Lorong Semarak 3, Taman Semarak, 09000 Kulim, Kedah.",100.5407398,5.3779714,Kedah,宗教,53,,
加拉岸永来观音庙,Persataun Penganut Dewa Eng Lai Kuan In Pekan Karangan,,"165, Pekan Karangan, 09700 Karangan, Kedah.",100.6674156,5.4205609,Kedah,宗教,53,,
吉中庆隆花园福德祠理事会,Pertubuhan Pengikut Tokong Hock Teik Soo Taman Keladi,,"1, Lorong Angsana 1, Taman Keladi, 08000 Sungai Petani, Kedah.",100.5011797,5.6164019,Kedah,宗教,53,,
居邦慈音佛学会,Pertubuhan Buddhist Tze Yin Kupang Baling,,"99, Jalan Gadek, Kupang, Baling, Kedah.",100.8442524,5.6344544,Kedah,宗教,53,,
吉中双溪大年德教会紫修阁,,Chee Siew Kok Moral Uplifting Society,"390, Taman lntan, 08000 Sungai Petani, Kedah.",100.4732147,5.6356549,Kedah,宗教,53,,
吉中佛教会,Persatuan Buddhist Kedah Tengah,Central Kedah Buddhist Association,"5-F, Jalan Kampung Baru, 08000 Sungai Petani, Kedah.",100.4884533,5.6378644,Kedah,宗教,53,,
吉中徳教会立善阁,Persatuan Pendidikan Akhlak Lip Seang Kor,,"188, Air Mendidih, Jalan Badlishah,  08000 Sungai Petani, Kedah.",100.4957331,5.6494413,Kedah,宗教,53,,
马来西亚创价会吉打州分会,Persatuan Soka Gakkai Malaysia (Cawangan Kedah),,"55, Komplek Alor Malal Batu 2, Jalan Langgar, 05460 Alor Setar, Kedah.",100.3855847,6.1263811,Kedah,宗教,53,,
日得拉灵兴庙,Rumah Berhala Leng Heng Meow,Leng Heng Meow Temple,"Jalan Dato Seri Osman Aroff, 06000 Jitra, Kedah.",100.428257,6.2555782,Kedah,宗教,53,,
三巴央佛教会,Persatuan Penganut Agama Buddha,Junjong Buddhist Association,"Plot 25, Lot 416, Mukim Junjong, 09000 Kulim, Kedah.",100.5370695,5.2997054,Kedah,宗教,54,,
真佛宗北马同修会,Pertubuhan Penganut Buddha Chen Foh Chong Kedah Selatan,,"18 Tingkat 2, Jalan Selasih, Taman Semarak, 09000 Kulim, Kedah.",100.539049,5.3777893,Kedah,宗教,54,,
水莲南无观世音菩萨,Pertubuhan Penganut Ajaran Chui Lean Nam Mo Kwan Si Yin Pu Sat Sungai Petani Kedah,,"29, Taman Indah, 08000 Sungai Petani, Kedah.",100.4841817,5.6272258,Kedah,宗教,54,,
双溪大年老街场斗母宫,Pertubuhan Penganut Tow Boo Keong Pekan Lama Sungai Petani Kedah,,"424 B, Pekan Lama, 08000 Sungai Petani, Kedah.",100.4921772,5.6392792,Kedah,宗教,54,,
双溪大年新街场新公市莱菜市及各业圣王公理事会,Persatuan Penganut Tokong Seah Ong Kong Pasar,,"84-K, Jalan Pengam, Pekan Baru, 08000 Sungai Petani, Kedah.",100.485679,5.63982,Kedah,宗教,54,,
元帅宫,Pertubuhan Penganut Yuen Shuai Gong Jin Huang Da Di,,"649, Lorong 96, Taman Ria, 08000 Sungai Petani, Kedah.",100.5087509,5.664497,Kedah,宗教,54,,
新文英佛教会,Persatuan Agama Buddha Semeiling Kedah,,"106 Kg. Baru Semeling, 08100 Bedong, Kedah.",100.464947,5.7052553,Kedah,宗教,54,,
亚罗士打道德会,Pertubuhan Akhlak Tao Alor Setar,,"1A, Jalan Tokong Simpang Kuala, Alor Setar, Kedah.",100.3666579,6.099389,Kedah,宗教,54,,
真耶苏教会,Gereja Jesus Benar Alor Setar Kedah,,"1073 Bee Bee Park, 05400 Alor Setar, Kedah.",100.36769,6.119359,Kedah,宗教,54,,
元真坛,Pertubuhan Pengajian Tao (Yen Chern),,"1111, Lorong Pekaka, Jalan Tunku Abdul Halim, 05100 Jalan Terok Wanjau, Alor Star, Kedah.",100.369515,6.127284,Kedah,宗教,54,,
真佛宗法显堂,Pertubuhan Chen Fo Cong Fa Xian Tang Alor Setar Kedah,,"K-20 Rumah Kedai Perumahan Awam Mergong, 051510 Alor Setar, Kedah.",100.360535,6.131662,Kedah,宗教,54,,
日得拉玉皇大帝庙,Persatuan Penganut Dewa Gek Hong Tai Tee Kedah Utara,,,,,Kedah,宗教,54,,
吉打鹤翔庄气功协会,Persatuan Hexiang Zhuang Qigong Kedah,,"739-B, Jalan Bakar Sampah,  08000 Sungai Petani, Kedah.",100.4990311,5.6364846,Kedah,体育联谊,55,,
竹城沤孟兰胜会,"Pertubuhan Khairat Kematian Kaum Cina Kota Sarang Semut MK Sla Kecil Alor Star, Kedah",,"43, Jalan Pengkalan Kapal, Kota Sarang Semut, Alor Star, Kedah. ",100.4826035,5.6397566,Kedah,宗教,55,,
高拉武拉华人体育会,Kuala Muda Chinese Recreation Club Sungai Petani,,"1, Jalan Petri, 08000 Sungai Petani, Kedah.",100.4864647,5.6399439,Kedah,体育联谊,55,,
本同佛教会,Persatuan Buddhist Pendang Kedah,,"43 Jalan Titi Lama, 06700 Pendang, Kedah.",100.5746224,6.0072868,Kedah,宗教,55,,
吉北业余乒乓公会,Persatuan Ping Pong Amatur Kedah Utara,North Kedah Amateur Table Tennis Association,"14,  Jalan Sinaran 4, Taman Sinaran, Jalan Kuala Kedah, 06600 Alor Star, Kedah.",100.321238,6.09392,Kedah,体育联谊,55,,
吉北太极气功十八式体育总会,Persatuan Sukan Taiji Qi Gong Kedah Utara,,"145 Taman Derga Jaya, Jalan Datok Kumbar, 08000 Kedah, ",100.4009773,6.1185193,Kedah,体育联谊,55,,
吉北象棋公会,Persatuan Xiang Qi Kedah Utara,,"c/o 3-D 3rd Floor Kompleks Star Parade, 05000 Alor Star, Kedah.",100.3734567,6.1235386,Kedah,体育联谊,55,,
吉北艺术协会,Persatuan Kesenian Kedah Utara,North Kedah Art Association,"501-A, 1st Floor, Jalan Pintu 10, 05100 Alor Star, Kedah.",100.3643741,6.1245758,Kedah,体育联谊,55,,
吉北篮球公会,Persatuan Bola Keranjang Kedah Utara,,"41, Taman Kristal, Kawasan Perindustrian Ringan Mergong, Sbg Jalan Putra, 05150 Alor Setar, Kedah.",100.3537412,6.1268221,Kedah,体育联谊,55,,
巴东昔拉庆兴庙,Pertubuhan Penganut Dewan Keng Heng Hong Beow Padang Sera,,"Dewan Keng Hong Beow Padang Sera, 06100 Kodiang, Kedah.",100.3425708,6.3541984,Kedah,宗教,55,,
吉北高岭佛教会,Persatuan Buddhist Kodiang Kedah,,"118D, Taman Hossana, Jalan Changlua, 06100 Kodiang, Kedah.",100.30572,6.393317,Kedah,宗教,55,,
吉南华人体育会,Kelab Penghiburan Orang-Orang Tionghu,South Kedah Chinese Recreation Club,"11, Taman Tasik Putra, 09000 Kulim, Kedah.",100.5624212,5.3725992,Kedah,体育联谊,56,,
吉中象棋公会,Persatuan Catur Cina Kedah Tengah,Central Kedah Chinese Chess Association Sungai Petani,"84 T, Jalan Pegam, Pekan Lama, 08000 Sungai Petani, Kedah.",100.5529298,5.6181488,Kedah,体育联谊,56,,
联友团结会,Persatuan Lean Yew Sungai Petani Kedah,,"41, Tingkat 2, Jalan Kuala Ketil, Sungai Petani, Kedah.",100.510239,5.6356909,Kedah,体育联谊,56,,
吉打中华体育会,Kelab Rekreasi Orang-Orang Tiong Hua Kedah,Kedah Chinese Recreation Club,"4, Jalan Setesen, 05000 Alor Setar, Kedah.",100.3705819,6.1167409,Kedah,体育联谊,56,,
吉州象棋公会,Persatuan Xiang Qi Kedah,,"3D 3rd Floor Kompleks Star Parade, 05000 Alor Star, Kedah.",100.3730015,6.1223804,Kedah,体育联谊,56,,
吉打州太极气功十八式总会,Persatuan Taiji Qi Gong Bercorak 18 Negeri Kedah,,"393-C, Jalan Pintu Sepuluh, Jalan Putra, 05100 Alor Setar, Kedah.",100.3641906,6.1236451,Kedah,体育联谊,56,,
吉打羽球公会,Persatuan Badminton Kedah,Kedah Badminton Association,"55-D, Taman Lam Sun, Telok Wanjah, 05200 Alor Star, Kedah.",100.3801933,6.1237983,Kedah,体育联谊,56,,
吉打集友倶乐部,Pert Chip Ewe Kok Lok Por,,"28 Jalan Station, Alor Setar, Kedah.",100.3671695,6.1263074,Kedah,体育联谊,56,,
同侨俱乐部,Thong Khew Ku Lok Poo,,"314, Jalan Lumpur, 05100 Alor Setar, Kedah.",100.362487,6.1267806,Kedah,体育联谊,56,,
吉打州业余排球总会,Persatuan Bola Tampar Amatur Kedah,Kedah Amateur Volleyball Association,"37-R, Seberang Jalan Putera l, 05150 Alor Setar, Kedah.",100.350241,6.129484,Kedah,体育联谊,56,,
亚罗士打精武体育会,Persatuan Sukan Chin Woo Alor Setar,,"13, Taman Pelangi, Mergong, 05150 Alor Setar, Kedah.",100.3610321,6.1312966,Kedah,体育联谊,56,,
吉打少林武术馆,Persatuan Seni Mempertahankan Diri Sao Um Negeri Kedah,,"A-88, Taman Wira, Jalan Puyu 1,  Mergong, 05350 Alor Star, Kedah.",100.3627175,6.1448779,Kedah,体育联谊,56,,
福泉安公冢,Perkuburan Hock Chuan An Jerlun,,"Pekan Jerlun Mk, 01150 Jerlun, Kedah.",103.3895446,3.492095,Kedah,慈善福利,57,,
福龙山坟山小组,Persatuan Hokkien Kedah Selatan,,"291, Jalan Pasar 09000 Kulim, Kedah.",100.5556366,5.3694705,Kedah,慈善福利,57,,
吉北业余排球公会,Persatuan Bola Tampar Amatur Kedah Utara,North Kedah Amateur Volleyball Association,"211-A, Taman Berjaya, 05050 Alor Star, Kedah.",100.3551886,6.1039007,Kedah,体育联谊,57,,
高岭广东公冢,Persatuan Jawatankuasa Pengurusan Tanah Perkuburan Kwantung Kodiang Kedah,,"15, Taman Bahagia, Jalan Perlis, 06100 Kodiang, Kedah.",100.354649,6.108671,Kedah,慈善福利,57,,
吉北哥打士打业余排球公会,Persatuan Bola Tampar Amatur Kota Setar,Amateur Volleyball Association,"40, Taman Bunga Raya, Lorong Bunga Raya 10, 05050 Alor Star, Kedah.",100.3549995,6.1105485,Kedah,体育联谊,57,,
波各先那互助会,"Persatuan Kebajikan Penduduk Kampung Baru Pokok Sena, Kedah",,"181-A, Lorong 4 Kiri, 06400 Pokok Sena, Kedah. ",100.6872457,6.1511113,Kedah,慈善福利,57,,
浮罗玉及文曼华人义山理事会,Jawatankuasa Perkuburan Orang-Orang Cina,,"Pulau Nyior & Gemban, Jitra, Kedah.",100.3946198,6.2824821,Kedah,慈善福利,57,,
端影义务消防队,Pasokan Bomba Sukarela Pekan Tunjang Kedah,,"36, Pekan Tunjang, 06000 Jitra, Kedah.",100.3744613,6.2868161,Kedah,慈善福利,57,,
浮罗交怡中华会馆,Chung Hwa Hoay Kuan Kedah,,"12 Pekan Kuah, 07000 Langkawi, Kedah.",99.8513461,6.3186696,Kedah,慈善福利,57,,
浮罗交怡华人高尔夫球公会,Persatuan Remain Golf Orang Tiong Hua Langkawi Kedah,,"10 Pekan Kuah, 07000 Langkawi, Kedah.",99.8496904,6.3215871,Kedah,体育联谊,57,,
浮罗交怡华人体育会,Kelab Rekreasi Tiong Hua Langkawi Kedah,,"217 Taman Langkawi, 07000 Langkawi, Kedah.",99.8168481,6.3330632,Kedah,体育联谊,57,,
巴东昔拉义务消防队,Pasukan Bomba Sukarela Padang Sera,,"37, Padang Sera, 06100 Kodiang, Kedah.",100.3389712,6.3565963,Kedah,慈善福利,57,,
吉打居林永爱之家,Persatuan Bakti Yong Ai Daerah Kulim Kedah,,"121 Lorong Semarak 1, Taman Semaeak, 09000 Kulim, Kedah.",100.5422899,5.3786261,Kedah,慈善福利,58,,
吉北皂礼山华人公冢理事会,Persatuan Jawatankuasa Pengurusan Tanah Perkuburan Orang-Orang Awam Cina Bukit Choras Kedah,,"Seng Wor Ricemill, Bukit Besar, Kota Sarang Semut, 06800 Alor Star, Kedah.",100.4133333,5.9536111,Kedah,慈善福利,58,,
华联公会第一及第二公冢,Persatuan Hwa Lian Pendang,,"Bangunan Persatuan Hwa Lian, 06700 Pendang, Kedah.",100.5746224,6.0072868,Kedah,慈善福利,58,,
吉打多皆华人公冢,Tanah Perkuburan Orang-orang China Tokai,,"c/o M.C.A. Cawangan Tokai, Pekan Tokai, 06660 Alor Star, Kedah.",100.412112,6.0272533,Kedah,慈善福利,58,,
吉打十字港华联公会,Persatuan Kebajian Orang-orang Tionghua Simpang Kedah.,,"Dewan Tokong Kee Tian Kung, Jalan Tokai Simpang Empat, 06050 Alor Star, Kedah.",100.4292749,6.0283397,Kedah,慈善福利,58,,
吉北老新港广东公冢理事会,Pertubuhan Perkuburan Kwang Tung Kedah Utara,,"67, Telagar Juan, Kubang Rotan, 06250 Alor Setar, Kedah.",100.30198,6.13564,Kedah,慈善福利,58,,
吉打波各先那义务消防队,Persatuan Bomba Sukarela Pokok Sena,,"Lot 47, Kg. Jalan Pahchor, 06400 Pokok Sena, Alor Star, Kedah.",100.469345,6.155521,Kedah,慈善福利,58,,
吉打高岭福建公冢理事会,Jawatankuasa Tanah Perkuburan Hokkien Kodiang Kedah,,"99, Railway Station, 06100 Kodiang, Kedah.",100.3385624,6.3779484,Kedah,慈善福利,58,,
吉打高岭义务消防队,Pasukan Bomba Sukarela Mukim Keplu,,"99, Railway Station, 06100 Kodiang, Kedah.",100.3385624,6.3779484,Kedah,慈善福利,58,,
瓜拉民浪华人义山,Perkubuhan Cina Kuala Nerang,,,,,Kedah,慈善福利,58,,
吉玻海南会馆公冢,Tanah Kubur Persatuan Hainan Kedah / Perlis Pokok Sena Mukim Jabi Lot 1342,,,,,Kedah,慈善福利,58,,
吉打莪仑华人公冢理事会,Perkuburan Perkuburan Cina Gurun Kedah,,,,,Kedah,慈善福利,58,,
吉南拉岸华人义山,Perkuburan Orang Cina Karangan,,"88-A, Dewan Orang Ramai, Karangan, 09700 Kulim, Kedah.",100.5387767,5.3337673,Kedah,慈善福利,59,,
吉南韩江公会,,Hang Kang Association& Kedah,"29, Jalan Raya, 09000 Kulim, Kedah.",100.5552646,5.3680671,Kedah,慈善福利,59,,
加拉岸义务消防队,Persatuan Pasukan Bomba Sukarela Karangan,,"101, Pekan Karangan, 09700 Karangan, Kedah.",100.6674156,5.4205609,Kedah,慈善福利,59,,
明修善社,Beng Slew Sean Siah,,"68, Jalan Kuala Ketil Pekan Lama, 08000 Sungai Petani, Kedah.",100.4923196,5.6391983,Kedah,慈善福利,59,,
吉中善行会,Pertubuhan Derma Bakti Kedah Tengah,,"21, Jalan Merbok, 08000 Sungai Petani, Kedah.",100.486279,5.6404689,Kedah,慈善福利,59,,
仁岭福德祠华人公冢,Perkuburan Cina Tokong Hock Teik Soo Jeniang,,"Tokong Hock Teik Soo, Jeniang, 08700 Jeniang, Kedah.",100.5114658,5.7008751,Kedah,慈善福利,59,,
吉打新文英玉帝宫华人公冢暨篮督公理事会,Rumah Berhala Yok Teh Keong Dan TanahPerkuburan,,"Awam China Serta Keramat Semeling, Kedah.",100.457528,5.706851,Kedah,慈善福利,59,,
稜幹社,Leng Kan Seah,,"189, Jalan Penjara Lamaz 05000 Alor Star, Kedah.",100.3636117,6.1177151,Kedah,慈善福利,59,,
弥勒爱心会,Pertubuhan Penyokong Mi Leh Aixin,,"25-A, Lorong Lintang Off Jalan Merpati, 05200 Alor Star, Kedah.",100.3742118,6.1195635,Kedah,慈善福利,59,,
吉打武吉槟榔弄拐山华人公冢理事会,Jawatankuasa Pengurus Tanah Perkuburan Orang Orang Awam Cina Bukit Pinang Kedah,,"245 Bukit Pinang, Kedah.",100.4227992,6.192955,Kedah,慈善福利,59,,
吉打双弄广东华人公冢,Persaluon Pengurusan Tanah Perkuburan,,"150 Kuala Sanglang, Sing Cheong Chong, 06150 Kualo Sanglang, Kedah.",100.1990716,6.2594019,Kedah,慈善福利,59,,
吉南双溪吉舌於列华人公冢,,Sungai Kecil llir Chinese Cemetery,,,,Kedah,慈善福利,59,,
西领华人义山委员会,Pertubuhan Jawatankuasa Pengurusan Tanah Perku-buran Cina Serdang Kedah,,"93 Main Road, 09800 Serdang, Kedah.",100.6421799,5.2399823,Kedah,慈善福利,60,,
曾乃福德祠义山,Perkuburan Hock Teik Soo Lunas,,"No.286, Jalan Sungai Lunas, Kedah.",100.5318426,5.4269426,Kedah,慈善福利,60,,
巴东色海华人义山理事会,Pawatankuasa Perkuburan Orang-Orang Cina Padang Serai Kedah,,"D/A L. C. 36 Jalan Lunas, Padang Serai, Kedah.",100.554122,5.511538,Kedah,慈善福利,60,,
武吉茹椒华人理事会,Persatuan Joo Hua Bukit Junun Kedah,,"Jalan Kilang Kecil, Bukit Junun, 06720 Kedah.",100.4774178,5.9035371,Kedah,慈善福利,60,,
亚罗士打泾慈善福利中心,Pertubuhan Kebajikan San Sheng Alor Star,,"16, Taman Putra Jaya, Jalan Tanjung Bebdahara, 05300 Alor Star, Kedah.",100.3777326,6.1115868,Kedah,慈善福利,60,,
亚罗士打默贡珍珠园华裔居民协会,Persatuan Penduduk-Penduduk Cina Taman Mutiara Mergong,,"58, Taman Mutiara Mergong 05150 Alor Star, Kedah.",100.346504,6.132868,Kedah,慈善福利,60,,
亚罗士打PKNK园华人福利组,Persatuan Kebajaka Tiong Hua Taman PKNK Alor Setar,,"2150 Taman PKNK, Alor Malai, 05200 Alor Setar, Kedah.",100.3854925,6.1358285,Kedah,慈善福利,60,,
巴东昔拉华人义山公会,Persatuan Pengurusan Tanah Perkubuhan Cina Padang Sera,,"10 Padang Sera 06100 Kodiang, Kedah.",100.3389712,6.3565963,Kedah,慈善福利,60,,
樟仑义务消防队,Pasukan Bomba Sukarela Changlun,,"4, Jalan Kodiang, Pekan Baru, 06010 Changlun, Kedah.",100.30572,6.393317,Kedah,慈善福利,60,,
樟仑福建义冢,"Lembaga Pengurus Kubor Orang-orang Hokian Changlun, Kedah",,"34, Pekan Lama Changlun, 06010, Jitra, Kedah.",100.4285286,6.4284842,Kedah,慈善福利,60,,
樟仑天主堂理事会,"Jawatan Kuasa Gereja Katholik Changloon, Kedah Ng Ngen Fatt",Parish Church Council,"No.69 A, Kg. Baru, Pekan Baru, 06010 Changlun, Kedah.",100.429997,6.43183,Kedah,慈善福利,60,,
武吉槟榔华人公冢,"Jawatankuasa Pengurus Tanah Perkuburan Orang-orang Awam China Bkt Pinang, Kedah",,,,,Kedah,慈善福利,60,,
巴东伦武华人公冢理事会,Pertubuhan Perkuburan Orang-Orang Cina Padang Lembu,,"18K, Padang Lembu, 08330 Gurun, Kedah.",100.533086,5.837977,Kedah,慈善福利,61,,
马来西亚青年运动(青运)吉打州,Pengerakan Pemuda Malaysia Cawangan Negeri Kedah,Young Malaysians Movement (YMM) Kedah,"499, Tingkat Alas, Jalan Kenanga 13, Taman Sri Ampang, 05050 Alor Setar, Kedah.",100.3383778,6.1078054,Kedah,青年妇女,61,,
爪美福建公冢,Perkuburan Orang-orang Cina Hokkien,,,,,Kedah,慈善福利,61,,
北马广西会馆,Persatuan Kwangsi Utara (M),,"147, Tingkat Kurau 4, Chai Leng Park, 13700 Seberang Prai.",100.3917406,5.3887477,Penang,地缘,62,,
北海海南会馆,Persatuan Hainan Butterworth,,"3914, Jalan Bagan Luar, 12000 Butterworth.",100.3705707,5.4080875,Penang,地缘,62,,
北马永春会馆,Northern Malaya Eng Choon Association,,"No. 731 Jalan Dato Kramat, 2nd Floor, 10460 Pulau Pinang.",100.312759,5.413499,Penang,地缘,62,,
北马琼乐同乡会,Persatuan Kheng Loke,Kheng Loke Association,"77, Jalan Siam, 10400 Pulau Pinang.",100.3207508,5.4147695,Penang,地缘,62,,
北马鹤山会馆,North Malaya Hok San Addsociation,,"30- C, Siam Road, 10400 Pulau Pinang.",100.320914,5.4148262,Penang,地缘,62,,
北马永定同乡会,Pertubuhan Yungting Utara Semenanjung,North Peninsula Malaysia Yungting Association,"1st Floor No.91, Jalan Siam, 10400 Pulau Pinang.",100.3204671,5.4151556,Penang,地缘,62,,
北马惠来同乡会,Hooi Lye Tung Hneoh Hoay,,"43, Lebuh Kimberley, 10100 Pulau Pinang.",100.3335876,5.4156851,Penang,地缘,62,,
北马潮安同乡会,The Nouth Malays Teo Aun Provincial Association,,"29, Jalan Sg. Uiong, 10100 Penang.",100.3319095,5.4157272,Penang,地缘,62,,
槟州华人大会堂,Dewan Perhimpunann Cine Pulau Pinang,Penang Chinese Town Hall,"22, Jalan Masjid Kapitan Keling, 10200 Pulau Pinang.",100.3388467,5.4188249,Penang,综合,62,,
槟城州华人公会,,State Chinese Penang Association,"13, Jalan Perakz 10150 Penang.",100.317384,5.4236458,Penang,综合,62,,
槟城浮罗山背福建会馆,Persatuan Hokkien Balik Pulau,Hokkien Kang Hoay Balik Pulau,"C/O Choo San See Temple, Balik Pulau, Pulau Pinang.",100.2322669,5.3548659,Penang,地缘,63,,
槟城惠南联乡会,Hooi Lam Lian Heong Hoay,,"46 Presgrave Street, 10300 Penang.",100.3304396,5.4111536,Penang,地缘,63,,
槟城惠州会馆,Persatuan Fooi Chew,,"37, Lorong Prangin, 10100 Pulau Pinang.",100.3339456,5.4132471,Penang,地缘,63,,
槟城福建公司,Hokkien Kongsi Pulau Pinang,"Hokkien Kongsi, Penang","57, Lebuh Armenian, 10200 Penang.",100.3369036,5.4153922,Penang,地缘,63,,
庇能台山宁阳会馆,Penang Toishan Ningyang Nui Kwon,,"36-38, Lebuh King, 10200 Pulau Pinang.",100.3400073,5.4183662,Penang,地缘,63,,
庇能番禹会馆,Penang Phun Yue Wooi Koon,,"330-A, Lebuh Chulia, 10200 Pulau Pinang.",100.3357801,5.4185616,Penang,地缘,63,,
槟城海南会馆,Persatuan Hainan Pulau Pinang,Penang Hainan Association,"93, Muntri Street, 11200 Penang.",100.3347924,5.4200468,Penang,地缘,63,,
槟城会宁会馆,Wooi Ning Wooi Koon,,"145, Lebuh Muntri, 10200 Pulau Pinang.",100.3343558,5.4202441,Penang,地缘,63,,
槟城东安会馆,Tong On Wooi Koon,,"119A, Jalan Hutton, 10050 Pulau Pinang.",100.3298887,5.4202474,Penang,地缘,63,,
槟城安溪会馆,"Un Khuay Hoey Kuan, Penang",,"201, Jalan Macalister, 10450 Pulau Pinang.",100.315444,5.420451,Penang,地缘,63,,
槟城福州会馆,Persatuan Foochow Hoay Kuan,,"36, Jalan Angyei, 10050 Pulau Pinang.",100.3287399,5.4321233,Penang,地缘,63,,
槟城从清会馆,Persatuan Choong Ching,,"No.958, Bumbong Lima, 13200 Kepala Batas, Seberang Perai, Pulau Pinang.",100.4362265,5.5569676,Penang,地缘,63,,
槟城龙岩会馆,Persatuan Lung Yen Pulau Pinang,Lung Yen Association Penang,"Persatuan Lung Yen No.211, Jalan Masjid Negeri, 11600 Pulau Pinang.",100.304143,5.400316,Penang,地缘,64,,
槟城三水会馆,"Sam Sooi Wooi Koon, Pulau Pinang","Sam Sooi Wooi Koon, Penang","1-1-9, Jalan Veterinary, 10150 Pulau Pinang.",100.3175155,5.409085,Penang,地缘,64,,
槟城同安金厦公会,Persatuan Tong Aun Kim Har Pulau Pinang,Tong Aun Kim Har Association Pulau Pinang,"22, Lebuh Melayu, 10100 Pulau Pinang.",100.3355257,5.4131823,Penang,地缘,64,,
槟城永大会馆,Persatuan Eng Tye Hooi Kuan,Penang Eng Tye Hooi Kuan,"No.7, Lorong Tok Aka, 10100 Pulau Pinang.",100.3326786,5.4163935,Penang,地缘,64,,
槟榔屿潮州会馆,Persatuan Teo Chew Pulau Pinang,Penang Teo Chew Association,"127, Chulia Street, 10200 Penang.",100.3382136,5.4166508,Penang,地缘,64,,
槟城三江公会,Persatuan San Kiang Pulau Pinang,Penang San Kiang Association,"109, Lorong Macalister, 10400 Pulau Pinang.",100.3286939,5.4168953,Penang,地缘,64,,
槟城中山会馆,Chung Shan Wooi Koon,,"30, Lebuh King, 10200 Pulau Pinang.",100.3401707,5.4186017,Penang,地缘,64,,
槟城五福堂广州府会馆,Ng Fook Thong Cantonese Districts Association Penang,,"No.407, Lebuh Chulia, 10200 Pulau Pinang.",100.3349686,5.4188582,Penang,地缘,64,,
槟城新会会馆,Persatuan Sun Wui,Sun Wui Wui Koon,"38, Biohop Street, 10200 Penang.",100.3413643,5.4189255,Penang,地缘,64,,
槟城增龙会馆,Penang Tsen Lung Fui Kon,,"20, Lebuh King, 10200 Pulau Pinang.",100.3403385,5.4190378,Penang,地缘,64,,
槟城肇庆府会馆,Persatuan Siew Heng Foo Pulau Pinang,Siew Heng Foo Association Penang,"126-C, Jalan Transfer, 10050 Pulau Pinang.",100.3303969,5.420459,Penang,地缘,64,,
槟城琼谊社,Kheng Yee Seah,,"534, Tanjong Bungah, 11200 Pulau Pinang.",100.280178,5.464279,Penang,地缘,64,,
大山脚韩江公会,Persatuan Hung Kung Bukit Mertajam,Hung Kung Association Bukit Mertajam,"215, Jalan Datuk Ooh Chooi Cheng, 14000 Bukit Mertajam, Pulau Pinang.",100.4608809,5.3650922,Penang,地缘,65,,
槟榔屿惠安公会,Persatuan Hui Aun Pulau Pinang,Hui Aun Association Penang,"No.73, Jalan Magazine, Penang.",100.3318323,5.4124403,Penang,地缘,65,,
槟榔屿晋江会馆,Chin Kang Hoay Kuan Penang,,"120, Jalan Macalister, 10400 Pulau Pinang.",100.3255353,5.4156849,Penang,地缘,65,,
槟榔屿漳州会馆,,"Cheang Chew Association, Penang","38-A , Sungai Ujong Road, 10100 Penang.",100.3318067,5.4158333,Penang,地缘,65,,
槟榔州福建会馆,Persatuan Hokkien Pulau Pinang,Penang Hokkien Association,"71-D, 4th Floor Jalan Macalister, 10400 Pulau Pinang.",100.324001,5.415902,Penang,地缘,65,,
槟榔屿大埔同乡会,Persatuan Taipu Pulau Pinang,Penang Taipu Association,"33, Anson Road, 10400 Pulau Pinang.",100.3232372,5.4191292,Penang,地缘,65,,
槟榔屿南海会馆,Persatuan Nam Hooi Wooi Koon,Nam Hooi Wooi Koon Penang,"463, Lebuh Chulia, 10200 Penang.",100.3336787,5.4194134,Penang,地缘,65,,
槟榔屿高要会馆,,Koh Yew Mutual Aid Society,"No.37, Nagore Road, Pulau Pinang.",100.3261639,5.4209847,Penang,地缘,65,,
槟榔屿万宁同乡会,Persatuan Wanning Pulau Pinang,,"136, Jalan Hutton, 10000 Pulau Pinang.",100.3280295,5.4216374,Penang,地缘,65,,
槟榔州南安会馆,"Persatuan Lam Aun, Pulau Pinang","Lam Aun Hoay Kuan, Penang","167, Argyll Road, 10050 Pulau Pinang.",100.3305539,5.42202,Penang,地缘,65,,
槟州客属公会,Persatuan Khek Pulau Pinang,,"34, Tingkat 4 & 5, Jalan Burmah, 10500 Pulau Pinang.",100.3180021,5.4262063,Penang,地缘,65,,
德化会馆,,Teik Hwa Association,"No.5, Seh Tah Court, Pulau Pinang.",100.3091,5.4356367,Penang,地缘,65,,
吉辇、威南龙岩同乡会,Persatuan Keturunan Lung Yen Daerah Kerian Dan Seberang Perai Selatan,,"64 Persiaran Merbun, Taman Sri Nibong, Nibong Tebal Pulau Pinang.",100.4745049,5.169329,Penang,地缘,66,,
威省福建会馆,Persatuan Hokkien Seberang Perai,Hokkien Hoay Kuan Province Wellesley,"98, Jalan Datuk Ooh Chooi Cheng, 14000 Bukit Mertajam, Seberang Perai Tengah, Pulau Pinang.",100.4633239,5.362035,Penang,地缘,66,,
浮罗广汀公所,Kong Teng Kongsor Balik Pulau,Tay Yap Temple,"Mk-4, Balik Pulau Village, 11000 Pulau Pinang.",100.2100522,5.3851597,Penang,地缘,66,,
马来西亚龙岩会馆联合会,Persekutuan Persatuan-Persatuan Lung Yen Malaysia Federation Of Lung Yen Association,,"No.211, Jalan Masjid, Pulau Pinang",100.3160655,5.3914287,Penang,地缘,66,,
威省广东会馆,Persatuan Keturunan Guang Dong Seberang Perai,,"No 951, MK 2, Jalan Samagagah, Permatang Pauh, Pulau Pinang.",100.4122539,5.4117169,Penang,地缘,66,,
汀州会馆,Persatuan Tengchow,Tengchow Association,"No.91, Tingkat Satu, Jalan Siam, 10400 Pulau Pinang.",100.3214389,5.4140326,Penang,地缘,66,,
开平会馆,Hoy Peng Wui Koon,,"No.86, Lebuh Cintra, 10100 Penang.",100.3330715,5.4172381,Penang,地缘,66,,
广东暨汀州会馆,,Kwangtung & Tengchow Association,"No.50, Penang Street, 10200 Penang.",100.3406836,5.4182415,Penang,地缘,66,,
嘉应会馆,Kar Yin Fee Kon,,"22, 1st Floor King Street, 10200 Penang.",100.340016,5.4183768,Penang,地缘,66,,
顺德会馆,Soon Tuck Wooi Koon,,"51, Love Lane, 10200 Pulau Pinang.",100.3367666,5.419113,Penang,地缘,66,,
惠北同乡会,Hui Pak Tong Heong Hoay,,"82, Jalan Kedah, 10050 Pulau Pinang.",100.3278773,5.4200186,Penang,地缘,66,,
威北直落斗哇韩江公会,Persatuan Keturunan Han Kang Teluk Air Tawar Seberang Perai Utara,,"No. 70, Teluk Air Tawar, Butterworth.",100.3828492,5.4797103,Penang,地缘,66,,
威省广惠肇会馆,Persatuan Keturunan Kwong Waai Slew Seberang Perai,Kwong Waai Siew Association Province Wellesley,"3035 (3rd Floor), Jalan Megat Harun, Pusat Perniagaan Maju, 14000 Bukit Mertajam, Pulau Pinang.",100.466839,5.349218,Penang,地缘,67,,
威省海南会棺,Persatuan Hainan Seberang Perai,,"1 Jalan Melor, 14000 Bukit Mertajam, Sebarang Perai (7), Pulau Pinang.",100.463273,5.3608084,Penang,地缘,67,,
威省客家公会,Pertubuhan Hakka Seberang Perai,,"84-B, Jalan Bunga Raya, 14000 Bukit Mertajam, Pulau Pinang.",100.4598705,5.3639493,Penang,地缘,67,,
北赖林氏宗亲会,Persatuan Keturunan Um Shee Chong Cheng Hui Perai,,"47, Lorong Kurau 31, Tmn. Chai Leng, 13700 Perai, Seberang Perai Tengah.",100.3962999,5.3859362,Penang,血缘,67,,
北海威省林氏西河堂,Um See Sai Hoe Tong Province Wellesley,,"Lot 548/549, Lorong Kubor, 12200 Butterworth, Province Wellesley.",100.3756324,5.4106081,Penang,血缘,67,,
兴安会馆,,Hin Aun Association,"36, Lebuh Noordin, 10300 Pulau Pinang.",100.3316809,5.4113099,Penang,地缘,67,,
五福堂广州府会馆,Ng Fook Thong Temple Cantonese Districts Association,,"407, Lebuh Chulia, 10200 Pulau Pinang.",100.3349686,5.4188582,Penang,地缘,67,,
北海威省陈氏颍川堂,Persatuan Tan Si Eng Chuan Tong,,"18, Jalan Kg. Paya, 12200 Butterworth, Province Wellesley.",100.3781718,5.419234,Penang,血缘,67,,
永大会馆,,Ying Tai Association,"33, Jalan Anson, 10400 Pulau Pinang.",100.323185,5.419261,Penang,地缘,67,,
北海陇西堂,"Persatuan Leong Say Tong(Keturunan Kaum Lee,Phee,Tung) Butterworth",,"No.17, Jalan Cerijalan Raja Uda, Butterworth, Province Wellesley.",100.3808153,5.4232973,Penang,血缘,67,,
北海江夏堂黄氏宗祠,Kang Har Tong Ooi Si Chong Soo,,"287, Permatang Tengah, Jalan Sungai Puyu, 13000 Butterworth, Province Wellesley.",100.3960971,5.4483345,Penang,血缘,67,,
北马(倪氏)千乘堂,Persatuan Keturunan Ni Utara Semenanjung Malaysia,,"9, Jalan Tiong Mas, Taman Tiong Mas, 14100 Simpang Ampat, Province Wellesley South.",100.4780958,5.2751335,Penang,血缘,68,,
北马龙山堂,Persatuan Leng Sun Tong Malaysia Utara,,"No.1864, Mk 14, Jalan Besar, Taman Markisah, 14000 Bukit Mertajam, Penang.",100.4612817,5.3169062,Penang,血缘,68,,
北马渤海堂高甘吴宗祠,Persatuan Puat Hai Tong Utara Malaysia,,"No.5, Jalan Melor Bukit Mertajam, Penang.",100.463273,5.3608084,Penang,血缘,68,,
北马宝树堂,Persatuan Bao Shu Tang (M) Utara,,"2112, Jalan Berapit, 14000 Bukit Mentajam, Penang.",100.4761753,5.382117,Penang,血缘,68,,
北马赖氏宗祠,Pertubuhan Keturunan Cong Su Lai Malaysia Utara,,"114, Jalan Noordin, 10300 Pulau Pinang.",100.330162,5.412021,Penang,血缘,68,,
北马何氏公会,Ho Si Koong Hui (North Malaya),,"9, Jalan Sungai Ujong, 10100 Pulau Pinang.",100.3323136,5.4160042,Penang,血缘,68,,
北马邓氏南阳堂,,North Malaya Tang's (Nanyang Tong) Association,"72-J Jalan Anson, 10400 Pulau Pinang",100.3209414,5.4165677,Penang,血缘,68,,
北马符氏宗祠,Persatuan Foo See Seah Wilayah Utara,,"12-A, Aboo Sittee Lane, 10400 Pulau Pinang.",100.3247565,5.4198907,Penang,血缘,68,,
北马六桥林氏公会,,Leok Keow Um Si Association,"21, Jalan Sri Bahari, 10050 Pulau Pinang.",100.3321243,5.4209876,Penang,血缘,68,,
北马六桂堂,North Mayaysia Leok Kooi Tong,,"45, Jalan Westland, 10400 Pulau Pinang.",100.3212455,5.4210187,Penang,血缘,68,,
北马厚美张氏同乡会,,How Bee (Village) Teoh Clan Association,"33, Jalan Nagore, 10500 Pulau Pinang.",100.3261846,5.4211987,Penang,血缘,68,,
北马洪氏宗祠,"North Malaya Ang Si Chong Soo, Butterworth",,"86, Pantai Bersih Bagam Ajam, 13000 Butterworth",100.3810726,5.4440777,Penang,血缘,68,,
北马涂氏公会,Persatuan Keturunan Thor Utara Semenanjung Malaysia,North Malaysia Thor Clan Association,"No.354 H, Jalan Batu Maung, Pulau Pinang.",100.2776048,5.2911298,Penang,血缘,69,,
槟城兑山李氏乡谊会,Persatuan Kaum Lee Tay Sun Penang,,"l-A , Lee Jetty Weld Quay, 10300 Pulau Pinang.",100.3378172,5.4119122,Penang,血缘,69,,
北马颜氏公会,,The Gan Association Of North Malaysia,"61, Jalan Perak, 10150 Penang.",100.3169717,5.4172537,Penang,血缘,69,,
北马锤氏公会,,North Malaya Choong Clan Association,"71 Rangoon Road, 10400 Pulau Pinang.",100.3242025,5.41728,Penang,血缘,69,,
庇能陈氏宗祠,Chin Si Toong Soo,,"64, Lebuh King, 10200 Penang.",100.3394887,5.4175979,Penang,血缘,69,,
槟城广东李氏宗祠,Penang Kwong Thung Lee See Chung Chie,,"39, Lebuh King, 10200 Pulau Pinang.",100.3399363,5.4178204,Penang,血缘,69,,
槟城长林社,Siang Lim Seah,,"17, Jalan Pintal Tali, 10100 Pulau Pinang.",100.3351732,5.4181802,Penang,血缘,69,,
北马沈氏宗祠,Sim Clan Ancestral Hall North Malaya,,"37, Lorong Abu Siti, 10400 Pulau Pinang.",100.3240702,5.4181874,Penang,血缘,69,,
槟城海南陈氏宗祠,Persatuan Keturunan Tan Hainan Pulau Pinang,Penang Hainan Tan Clan Association,"20, Lorong Chulia, 10200 Pulau Pinang.",100.337715,5.419008,Penang,血缘,69,,
槟城郭氏汾阳堂,Kong Si Hoon Yeong Tong,"Koay Si Hoon Yeong Tong, Penang","234, Macalister Road, 10400 Penang.",100.3183173,5.4191678,Penang,血缘,69,,
北马沙堤赵氏公会,,Teow Si Association,"161-D, Jalan Argyll, 10050 Pulau Pinang.",100.3304409,5.4216337,Penang,血缘,69,,
北马谢氏宗祠,Persatuan Keturunan Kaum Cheah Malaya Utara,North Malaya Cheah Si Chong Soo,"22, Jalan Pangkor, 10050 Pulau Pinang.",100.3173182,5.4254015,Penang,血缘,69,,
槟城林氏圣母堂,Dewan Suci Um Si Seng Bo,,"7135, Blok-J, Mkl2, Pusat P. Semula, Jalan Permatang Damai Laut, 11960 Pulau pinang.",100.2677242,5.2752311,Penang,血缘,70,,
槟城姜氏宗亲会,Pertubuhan Keturunan Keoh Pulau Pinang,,"100-14-H, Jalan Tan Sri Teh Ewe Um, Pulau Pinang.",100.3063507,5.3926329,Penang,血缘,70,,
槟城江夏堂黄公司,Penang Kang Har Tong Ooi Kongsi,,"112, Jalan Jelutong, 11600 Pulau Pinang.",100.3229551,5.4009774,Penang,血缘,70,,
槟城江氏公会,Persatuan Keturunan Kang Si Pulau Pinang,,"128, Jalan C. Y. Choy, 10300 Pulau Pinang",100.3315601,5.4097911,Penang,血缘,70,,
槟城林氏溪东公会,"Persatuan Kaum Lim Khay Tang, Penang",,"83-E, Air Itam Road, 10460 Penang.",100.3119038,5.4117616,Penang,血缘,70,,
槟城林氏忠孝堂,"Persatuan Keturunan Lim Si Teong How Tong, Pulau Pinang",Penang Lim Si Teong How Tong,"64, Noordin Street, 10300 Penang.",100.331126,5.411841,Penang,血缘,70,,
槟城烈山五姓(吕，卢 ，高 ，许 ，记)宗祠,"Persatuan Keturunan Liat-Sun (LoozLoh,Koh,Khaw,Kee)","Penang Liat-Sun (Loo,Loh,Koh,Khaw,Kee) Association","No.28, Macalister Lane, 10400 Pulau Pinang.",100.3277176,5.414928,Penang,血缘,70,,
槟城林氏双桂堂,Lim Si Seang Kooi Tong Penang,,"234, Leboh Pantai, 10300 Penang.",100.3387646,5.4150588,Penang,血缘,70,,
槟城黄氏坊前诗峰社,Ooi Si Pang Chnwee See Hong Seah,,"No.103, Lorong Selamat, 10400 Georgetown, Pulau Pinang.",100.32495,5.4169732,Penang,血缘,70,,
槟城刘关张赵古城会,Koo Siang Wooi Penang,,"67, King Street, 10200 Penang.",100.340016,5.4183768,Penang,血缘,70,,
槟城李氏宗祠,Persatuan Lee Sih Chong Soo Pulau Pinang,Lee Sih Chong Soo Penang,"182-A, Jalan Burma, 10050 Pulau Pinang.",100.3191223,5.4253566,Penang,血缘,70,,
槟城济阳堂辛柯蔡宗祠,Penang Choy Yeong Tong Sin Quah Chuah Chong Soo,,"37, Codrington Avenue, 10350 Penang.",100.3132801,5.4290862,Penang,血缘,70,,
槟城阮氏陈留堂,Persatuan Keturunan Kaum Goon Pulau Pinang,,"502, Pintasan Mayang 7,11950 Bayan Lepas, Pulau Pinang.",100.2770012,5.3198825,Penang,血缘,71,,
槟城施氏公会,Pertubuhan Keturunan See Pulau Pinang,,"2-7N Lintang Sempadam, 11400 Penang.",100.2950709,5.4068872,Penang,血缘,71,,
槟城王氏一心社,Ong Si Eit Sim Sean,,"202, Jalan C.Y.Choy, 10300 Pulau Pinang.",100.330445,5.4083849,Penang,血缘,71,,
槟城绳德堂邱公司,Sin Teik Tong Khoo Kongsi Penang,,"No.377 Beach Street, Pulau Pinang.",100.3357214,5.4124313,Penang,血缘,71,,
槟城马氏扶风堂,Ma Si Foo Foong Tong Penang,,"2, Lorong Carnarvon, 10100 Pulau Pinang.",100.3348892,5.4148738,Penang,血缘,71,,
槟城王氏太原堂,Ong Si Thye Guan Tong Penang,,"436, Jalan Penang, 10000 Pulau Pinang.",100.328667,5.4153467,Penang,血缘,71,,
槟城三省堂曾公司,Sum Seng Tong Chan Kongsi,,"63, Jalan Perak, 10150 Pulau Pinang.",100.3169309,5.4169907,Penang,血缘,71,,
槟城梅氏家庙,Moey She Temple Pow Pon Hong,,"31 Lebuh Penang, 10200 Penang.",100.3407444,5.4179342,Penang,血缘,71,,
槟城庐山堂苏连宗祠,Loh San Tong (Saw & Lean Kongsi),,"C/0 36, Jalan Burma, 10050 Pulau Pinang.",100.3286176,5.4183278,Penang,血缘,71,,
槟城骆氏同宗社,Loh Si Tong Chong Seah Penang,,"34, Logan Road, 10400 Pulau Pinang.",100.3189139,5.4208929,Penang,血缘,71,,
槟城史氏公会,Persatuan Soo Pulau Pinang,Penang Soo Association,"58-A, Jalan Cantonment, 10250 Penang.",100.3124474,5.4325402,Penang,血缘,71,,
槟城彭氏联宗会,"Pertubuhan Kebajikan ""Phang"" Pulau Pinang","""Phang"" Welfare Association, Penang ","4th Floor, Wisma Tri-Super, 37-G, Jalan Cantoment, 10250 Penang.",100.3189185,5.4387466,Penang,血缘,71,,
槟威汝南堂朱周袁蓝梅宗亲,Persatuan Klan Zhu Zhou Yuan Lan Mei,,"21 Jalan Limau 4, Taman Limau Manis, Bukit Tengah, 14999 Bukit Mertajam, Pulau Pinang.",100.4379886,5.3523821,Penang,血缘,72,,
槟吉余氏公会,Persekutuan Keturunan Yee Pulau Pinang Dan Kedah,,"1-2-8, Blok 1, 2nd Floor, 8, Jalan Tapah, Taman Sri Bunga, 11600 Pulau Pinang.",100.313658,5.395766,Penang,血缘,72,,
槟城周桥公司,The Chew Jetty Kongsi Penang,,"65, Weld Quay Chew Jetty, 10300 Pulau Pinang.",100.3397331,5.4129138,Penang,血缘,72,,
槟城杨氏公会,Persatuan Yeoh Si Pulau Pinang,Yeoh Si Association Penang,"20, Lebuh Melayu, 10100 Pulau Pinang.",100.3355493,5.4131311,Penang,血缘,72,,
槟城庄氏四美堂宗祠,Persatuan Ch' ng Si Soo Bee Tong,Ch' ng Si Soo Bee Tong,"26, Lebuh Kimberely, 10100 Pulau Pinang.",100.3340868,5.4156781,Penang,血缘,72,,
槟榔屿三都联络局,Persatuan Sam Toh Bean Lok Keok,Sam Toh Bean Lok Keok Penang.,"38-A, Jalan Sungai Ujong, 10100 Penang.",100.3318203,5.4158265,Penang,血缘,72,,
槟城至德宗亲会,,Penang Gee Tuck Clans Association,"33, Kimberley Street, 10100 Penang.",100.3328652,5.4162274,Penang,血缘,72,,
槟城周氏岐山堂,Chew Si Kee San Tong,,"No.33, Kimberlay Street, 10100 Penang.",100.3328652,5.4162274,Penang,血缘,72,,
槟城张氏清河堂,Teoh Si Cheng Hoe Tong,,"260-B Carnarvon Street, 10100 Penang.",100.335918,5.417474,Penang,血缘,72,,
槟榔屿江夏堂黄氏宗祠,Koong Har Tong Wong Si Chong Chi,,"No.39, Penang Street, 10200 Penang.",100.340554,5.417819,Penang,血缘,72,,
槟城王氏玉坂社,Persatuan Ong Si Geok Pan Penang,Penang Ong Si Geok Pan Seah,"56, Jalan Kedah, 10050 Pulau Pinang.",100.3283534,5.4200818,Penang,血缘,72,,
槟城郑氏荥阳堂,Persatuan Keturunan The Si Eng Eong Tong Pulau Pinang,,"148, Jalan Hutton, 10050 Pulau Pinang.",100.3276159,5.4218274,Penang,血缘,72,,
大山脚洪氏敦煌堂,Persatuan Ang Si Toon Hong Tong Bukit Mertajam,,"1656, Jalan Kulim, Taman Machong Bubok, 14020 Bukit Mertajam, Seberang Prai Tengah.",100.5064864,5.3416088,Penang,血缘,73,,
大山脚黄氏江夏堂,Persatuan Kung Har Tong B.M.,,"No.17, Jalan Aston, 14000 Bukit Mertajam, Province Wellesley.",100.4631659,5.3635004,Penang,血缘,73,,
大山脚林氏西河堂,Lim Si Say Ho Tong Bukit Mertajam,,"254, Jalan Dato Ooi Chooi Cheng, 14000 Bukit Mertajam, Pulau Pinang.",100.4838889,5.3669444,Penang,血缘,73,,
大山脚陈氏颍川堂,Persatuan Tan Sze Eng Chuan Tong Bukit Mertajam,,"1807, Jalan Tanah Liat, 14000 Bukit Mertajam, Seberang Perai Tenga, Pulau Pinang.",100.4647487,5.3991844,Penang,血缘,73,,
陈氏潮塘社,Tan Sie Teoh T'ng Seah,,"361-A, Perak Road, Jelutong, 11600 Penang.",100.3139265,5.399918,Penang,血缘,73,,
陈氏宗义社,Pertubuhan Tan Si Chong Ghee,Tan Si Chong Ghee Seah,"15, Lebuh Presgrave, 10300 Pulau Pinang.",100.3317035,5.4105762,Penang,血缘,73,,
槟州林氏宗亲会联合会,"Persekutuan Persatuan Keturunan Lim, Pulau Pinang",,"69, Lebuh Noordin, 10300 Pulau Pinang.",100.3312015,5.4118405,Penang,血缘,73,,
垂统堂邱公司,Swee Thong Tong Khoo Kongsi,,"377, Beach Street, 10300 Pulau pinang.",100.3357214,5.4124313,Penang,血缘,73,,
陈氏联宗社,Persatuan Tan Si Lean Chong Seah,Tan Si Lean Chong Seah,"153, Lebuh Carnarvon, 10100 Pulau Pinang.",100.3348479,5.4151039,Penang,血缘,73,,
槟州南阳堂叶氏宗祠,Lum Yeong Tong Yap Temple,,"71, Armenian Street, 10200 Penang.",100.3368096,5.4154278,Penang,血缘,73,,
槟州各姓氏宗祠联委会,"Majlis Klan Cina, Pulau Pinang",Penang Chinese Clan Council,"48, Jalan Pinfal Tali, 10100 Penang.",100.3344674,5.4173275,Penang,血缘,73,,
槟州各姓氏青年团联合委员会 ,Gabungan Belia Persatuan Klan Cina Pulau Pinang,Clan Associations Youth Committee Penang,"38-GF, Kompleks AAasyarakat Penyayang",,,Penang,血缘,73,,
大山脚苏许连颜谭巫总祠,Saw Khaw Lean Ghean Thum Boo Chong Shu,,"4, Lorong Melor, 14000 Bukit Mertajam, Penang.",100.463273,5.3608084,Penang,血缘,74,,
方氏宗祠河南堂,Persatuan Keturunan Fang Sze Chung Tzu Hur Nan Tang Pulau Penang,,"1, Jalan Masjid, 10200 Pulau Pinang.",100.3160655,5.3914287,Penang,血缘,74,,
黄氏宗和社,Ooi Si Chong Hoe Seah,,"No.ll2, Jalan Jelutong, 11600 Pulau Pinang.",100.3169851,5.395007,Penang,血缘,74,,
黄氏宗祠,Wong Si Clan Temple,,"21, Mk-4, Batu Itam Balik Pulau, 11000 Pulau Pinang.",100.2333333,5.4,Penang,血缘,74,,
傅氏宗祠,Por Si Chong Soo,,"26, Lorong Prangin, 10100 Pulau Pinang.",100.3343469,5.4130139,Penang,血缘,74,,
金山堂邱公司,Pertubuhan Kongsi Khoo Kim Sah Tong (Gim Pang) Pulau Pinang,,"C/O Leong San Tong Khoo Kongsi No.18, Cannon Square, Pulau Penang.",100.3372189,5.4146082,Penang,血缘,74,,
九龙堂林公司,Kew Leong Tong-Lim Kongsi,,"234 Beach Street, Pulau Pinang.",100.3387646,5.4150588,Penang,血缘,74,,
杜氏清鸾社,Toh Si Cheng Luan Seah,,"18, Cintra Street, 10100 Pulau Pinang.",100.3329399,5.4169755,Penang,血缘,74,,
帝君胡公司,Tay Koon Oh Kongsi,,"70, Penang Street, 10200 Penang.",100.3403847,5.4176869,Penang,血缘,74,,
鼎美胡氏敦睦堂,Teng Bee Oh Toon Bok Tong,,"70, Penang Street, 10200 Penang.",100.3403847,5.4176869,Penang,血缘,74,,
洪氏敦煌堂,Ang Si Toon Hong Tong,,"67, Lorong Selamat, 10400 Pulau Pinang.",100.3254483,5.4177619,Penang,血缘,74,,
冯氏始平堂,Foong See Chie Peng Tong,Fong See Chie Peng Tong,"16C, Lorong Aboo Siti, 10400 Penang.",100.3245815,5.4195632,Penang,血缘,74,,
雷方邝宗祠溯源堂,Looi Fong Khong Chung Tzu Su Goon Tong Su Goon Tong,,"1, Jalan Masjid, 10200 Pulau Pinang.",100.3160655,5.3914287,Penang,血缘,75,,
刘氏公会,,Low Clan Association,"89, Jalan Magazine, 10300 Pulau Pinang.",100.3316267,5.4124984,Penang,血缘,75,,
梁氏宗祠(梅镜堂),Neoh Si Chong So (Moi Keng Tong),,"99, Jalan Seang Teik, 10400 Penang.",100.3226325,5.4142515,Penang,血缘,75,,
龙山堂邱公司,Trustees Of Leong San Tong Khoo Kongsi (Penang) Registered,,"18, Cannon Square, 10200 Penang.",100.3372189,5.4146082,Penang,血缘,75,,
林公司敦本堂,Lim Kongsi Toon Pun Tong,,"234,Leboh Pantai, 10300 Pulau Pinang.",100.3387646,5.4150588,Penang,血缘,75,,
林氏勉述堂,Lim Sz Bian Soot Tong Penang,," 234,Leboh Pantai, 10300 Pulau Pinang.",100.3387646,5.4150588,Penang,血缘,75,,
马来西亚吕氏公会,Persatuan Keturunan Loo Malaysia,Malaysia Loo See Association,"28, Lorong Macalister, 10400 Pulau Pinang.",100.3279886,5.4154184,Penang,血缘,75,,
廖氏宗祠,Persatuan Leow Pulau Pinang,Penang Leow Association,"1, Jalan Sungai Ujong, 10100 Penang.",100.332477,5.4161909,Penang,血缘,75,,
梁氏家庙,Leong See Kah Miew,,"65, Jalan Perak, 10150 Penang.",100.3167122,5.4165315,Penang,血缘,75,,
马来西亚洪氏敦煌堂,Ang Si Toon Hong Tong Semenanjung Malaysia,,"67, Lorong Selamat, 10400 Penang.",100.3254483,5.4177619,Penang,血缘,75,,
马来西亚苏许连宗祠暨青年团,Saw Khain Lean (Heah) Chong Shee Malaysia,,"36, Jalan Burmah, 10050 Pulau Pinang.",100.3286176,5.4183278,Penang,血缘,75,,
马来西亚戴氏家族会,Persatuan Keturunan Tye Malaysia,,"20, Lorong Stewart, 10200 Pulau Pinang.",100.3379595,5.4192903,Penang,血缘,75,,
威南、吉南及吉辇六桂堂,Pers Keturunan Ang Kang Ung Fang Kong & Wang (Liu Kwee Tang) Seberang Perai Selatan Kedah Selantan & Krian,,"No.3241 Jalan Victoria, Nibong Tebal, Seberang Perai Selatan.",100.4647909,5.1588762,Penang,血缘,76,,
威南温黄王郭陆宗亲会,"Persatuan Kaum Nisab Oon, Ng, Ong, Koay, Lok Nibong Tebal",,"No.34, Jalan Pengkalan Rawa, Nibong Tebal Seberang Perai.",100.476986,5.164823,Penang,血缘,76,,
威南吉辇区古城会,Persatuan Koo Seah Hoay Daerah Krian Dan Seberang Perai Selatan,,"1983, Jawi Village, 14200 Sungai Bakap, Seberang Perai Selatan.",100.500286,5.207162,Penang,血缘,76,,
威南忠顺世家,Persatuan Tong Soon See Keh,,"124, Jalan Blok-G Pekan, 14200 Sungai Bakap, Seberang Perai Selatan.",100.510189,5.215029,Penang,血缘,76,,
威吉杨氏弘农堂,Persatuan Yeoh Si Hong Long Tong Province Wellesley & Kedah,,"2476 (1st Floor) Jalan Kulim, Bukit Mertajam, Penang.",100.493116,5.3448156,Penang,血缘,76,,
马来西亚尢氏卿田堂,Ewe Si Kheng Tian Tong Kheng Tian Tong Yew Kongsi,,"376-Q, Jalan Perak, 11600 Pulau Pinang.",100.3144991,5.3950637,Penang,血缘,76,,
汪氏平阳堂,Penang State Ong Peng Yeong Tong,,"No.18, Lebuh Katz, 10300, Pulau Pinang.",100.329675,5.4084506,Penang,血缘,76,,
孙氏公会,Persatuan Kaum Soon Pulau Pinang,Penang Soon Clan Association,"83, Jalan Petanl， 10150 Penang.",100.322887,5.409333,Penang,血缘,76,,
马来西亚徐余涂佘同宗会,,Chee Yee Thor Seah Clan Association,"15, Kek Chuan Road, 10400 Penang.",100.3247729,5.4150649,Penang,血缘,76,,
马来西亚王氏公会联合会,Persekutuan Persatuan-Persatuan Ong(Wang) Malaysia,,"436 Penang Road, Pulau Pinang.",100.328667,5.4153467,Penang,血缘,76,,
苏许连宗祠,Saw Khaw Lean Chong Shu,,"36, Jalan Burmah, 10050 Pulau Pinang.",100.3286176,5.4183278,Penang,血缘,76,,
王氏家族龙泳社,,Ong Si Leng Eng Seah Family Association,"19, Khaw Sim Bee Road, Pulau Pinang.",100.3209355,5.420623,Penang,血缘,76,,
威省刘关张赵古城会,Persatuan Koo Siang Wooi,,"1722, Jalan Kulim, 14000 Bukit Mertajam, Penang.",100.4739768,5.3526073,Penang,血缘,77,,
威省马氏扶风社,Persatuan Keturunan Mah See Foo Fong Tong Seberang Perai,,"No.47, Jalan Betek Dua, Taman Sg. Rambai, Bukit Mertajam, Pulau Pinang.",100.4498897,5.3605649,Penang,血缘,77,,
威省大山脚陇西堂,Persatuan Long Say Tong Bukit Mertajam Seberang Prai,,"18, Jalan Betik, Taman Sri Jaya, 14000 Bukit Mertajam, Penang.",100.4503106,5.3634233,Penang,血缘,77,,
威省荣阳堂, Persatuan Keturunan Ying Yang Seberang Perai ,,"45, Tingkat 1, Jalan Keranji, Taman Mutiara, 14000 Bukit Mentajam, Seberang Perai Tengah, Pulau Pinang",100.4447799,5.364713,Penang,血缘,77,,
威省洪氏宗祠,Ang Kongsi Seberang Perai,And Si Chong Soo Province Wellesley,"4150 Heng Choon Thian Road, Butterworth, Province Wellesley.",100.3723294,5.4069129,Penang,血缘,77,,
威省林氏西河堂,Lim See Sai Hoe Tong,,"Lot No.548-549, Lorong Kobor, 12200 Butterworth, Province Wellesley.",100.3708439,5.4107519,Penang,血缘,77,,
威省李氏公会,Persatuan Keturunan Kaum Lee Seberang Perai,,"TBP 4070, MK 14, Lorong Cempa, Butterworth.",100.3776052,5.4184645,Penang,血缘,77,,
威省陈氏颖川堂,Tan Si Eng Chuan Tong Province Wellesley,,"18, Jalan Kampong Paya, 12200 Butterworth, Province Wellesley.",100.3781718,5.419234,Penang,血缘,77,,
威省吴氏宗祠,Persatuan Keturunan Kaum Goh Seberang Perai,,"No.1 Lorong Ceri Satu, 1330 Butterworth, Seberang Perai.",100.3812366,5.4232398,Penang,血缘,77,,
威省清河堂, Persatuan Cheng Hoe Tong ,,"6641, Jalan Raja Uda, 12300 Butterworth, Province Wellesley.",100.3854839,5.435125,Penang,血缘,77,,
威省王氏太原堂,Kongsi Thye Guan Tong Ong Seberang Prai,,"6085, Kampung Baru, Off Sungai Puyu, 13020 Butterworth, Seberang Prai.",100.3914786,5.4425458,Penang,血缘,77,,
威省北海江夏堂黄氏宗祠,"Kang Har Tong Ooi Si Chong Soo, B.W.",,"287, Jalan Permatang Tengah, 13000 Butterworth, Pulau Pinang.",100.3873888,5.4444219,Penang,血缘,77,,
武吉淡汶王氏太原堂,Thye Guan Tong (Ong Kongsi),,"13, Jalan Bukit Tambun, 14110 Province Wellesley.",100.4647974,5.2759216,Penang,血缘,78,,
宗盟社陈氏宗祠,Chong Beng Seah Tan Si Chong Soo,,"3833 Sungai Nibong, 11900 Pulau Pinang.",100.2986731,5.3376122,Penang,血缘,78,,
萧氏宗亲会,Persatuan Seow Pulau Pinang,The Seow Association Of Penang,"17, Jalan Limau Manis Satu, Taman Umau Manis, 14000 Bukit Mertajam.",100.43492,5.352095,Penang,血缘,78,,
祖奉家公司家族社,,Chor Hong Kah Kongsi Family Association,"81-E, Taman Jaya, 14000 Bukit Mertajam.",100.471284,5.356297,Penang,血缘,78,,
吴氏宗祠,Eng Leng Tong,,"22, Noorden Street, 10300 Pulau Pinang.",100.331126,5.411841,Penang,血缘,78,,
朱氏沛国堂,Choo Si Phai Kok Tong,,"30, Noordin Street, 10300 Penang.",100.331126,5.411841,Penang,血缘,78,,
颍川堂陈公司,Eng Chuan Tong Tan Kongsi,,"No. 28, Seh Tan Court, Beach Street, 10300 Penang.",100.336176,5.413316,Penang,血缘,78,,
谢氏福侯公公司,Cheah Si Hock Haw Kong Kongsi,,"No.8, Armenian Street, 10200 Penang.",100.338195,5.4147349,Penang,血缘,78,,
徐余涂佘同宗会,,Chee Yee Thor Seah Clan Association,"15, Jalan Keh Chuan, 10400 Pulau Pinang.",100.3245697,5.4148626,Penang,血缘,78,,
永定胡氏安定堂,She Foo Kongsi Ann Teng Tong,,"70, Penang Street, 10200 Penang.",100.3403847,5.4176869,Penang,血缘,78,,
许氏高阳堂,Khaw Kongsi (Koe Yang Tong),,"36, Jalan Burmah, 10050 Pulau Pinang.",100.3286176,5.4183278,Penang,血缘,78,,
伍氏家庙,Ng See Kah Miew,,"40, King Street, 10200 Penang.",100.340016,5.4183768,Penang,血缘,78,,
北马脚车商业联合会,,North Malaya Bicycle Traders Association,"182, Jalan Besar, 14100 Simpang Ampat Seberang Perai Selatan, Pulau Pinang.",100.4420708,5.3125488,Penang,业缘,79,,
北马罗厘司机公会,Persatuan Pemandu-Pemandu Lori Utara Semenjung Malaysia,,"18, Lorong Maju 2, Pusat Perniagaan Maju, Jalan Megat Harun, 14000 Bukit Mertajam",100.4668648,5.3497116,Penang,业缘,79,,
北马罗厘车商业公会,Persatuan Perkhidmatan Pengangkutan Lori,,"6, Jalan Sepakat Taman Bandar Jaya, 14000 Bukit Mertajam, Pulau Pinang.",100.4785,5.350118,Penang,业缘,79,,
北马华商洋货布疋公会,,The North Malayan Chinese Testile General Merchants Association,"38, 2nd Floor, Jalan Kuantan, 10150 Penang.",100.3243157,5.4109119,Penang,业缘,79,,
北马派报同业公会,,North Malaya Newspaper Distributor Association,"113, Malay Street, 10100 Penang.",100.3322478,5.4146397,Penang,业缘,79,,
安顺律万山商业公会,,Anson Rd. Market Traders' Association,"172, Jalan Seang Tek, 10400 Pulau Pinang.",100.3212831,5.4159306,Penang,业缘,79,,
北马车商公会,Persatuan Peniaga-Peniaga Basikal & Motor Malaysia Utara,North Malaysia Cycle & Motor Traders's Association,"72-B, Jalan Anson, 10400 Penang.",100.3206864,5.4161484,Penang,业缘,79,,
北马神料商公会,Persatuan Pedagang-Pedagang Barangan Sembahyang Semenajung Utara Malaysia,,"No. 38 Jalan Masjid Kapitan Keling, Pulau Pinang.",100.3385388,5.417887,Penang,业缘,79,,
北马酒商公会,Persatuan Saudagar 2 Minuman Keras Diutara Malaya,The North Malaya Liquor Traders'Association,"78 Love Lane, 10200 Pulau Pinang.",100.3361725,5.4190286,Penang,业缘,79,,
北马胶轮公会,Persatuan Tayar Malaysia Utara,North Malaysia Tyre Association,"11, Lorong Ceri 5, Taman Aman Jaya Off Jalan Raja Uda, 12300 Butterworth, Seberang Perai Utara.",100.380558,5.4220571,Penang,业缘,79,,
北马记者职工会,,Journalist Union Of North Malaysia,"21, Lorong Birch, Penang.",100.3156958,5.4325549,Penang,业缘,79,,
槟城缝业联合会,Persatuan Jahitan Pulau Pinang,Penang Tailoring Association,"9-B, Jalan Taman Binjai, Taman Sri Rambai， 14000 Bukit Mentajam.",100.4459568,5.34837,Penang,业缘,80,,
北马益疏石油气代理商公会,Persatuan Peniaga-Peniaga Essogas Utara Malaya,North Malaya Essogas Dealers Association,"10-B Ayer Itam Road, Pulau Pinang.",100.2781173,5.4013443,Penang,业缘,80,,
槟城磁商公会,,Procelain Traders Association Penang,"107A, Jalan Che Rose, 10150 Pulau Pinang.",100.3202087,5.4052361,Penang,业缘,80,,
北马铁厂商公会,,North Malaya Foundry Owners' Association,"No.35, Lebuh Katz, 10300 Penang.",100.3294387,5.4087583,Penang,业缘,80,,
北马药业公会,,North Malaya Patent Medicine & Herb Dealers Association,"4247, 2nd Floor, Jalan Kampong Benggali, 12200 Butterworth.",100.3719538,5.4100244,Penang,业缘,80,,
槟城贩商总会,Gabungan Persatuan Penjaja Pulau Pinang & Seberang Perai,,"25, Jalan Sungai Ujong, 10100 Pulau Pinang.",100.3319559,5.4157817,Penang,业缘,80,,
槟城潮商公会,Teo Siang Kong Sor,Teochew Merchants Association,"127, Chulia Street 10200 Penang.",100.3382136,5.4166508,Penang,业缘,80,,
槟城厨业联合会,,Penang Chinese Cooks' Association,"26 B, Rangoon Road, 10400 Penang.",100.325395,5.419249,Penang,业缘,80,,
庇能打金行,,Penang Goldsmith Association (Ta Kan Hong),"41, Muntri Street, 10200 Penang.",100.3358758,5.4198757,Penang,业缘,80,,
庇能华人机器公会,,Chinese Engineering Association,"9, Lorong Ceylon, 10050 Pulau Pinang.",100.3289515,5.4214924,Penang,业缘,80,,
槟城玻璃池滑万山同业公会,,Pg. Pulau Tikus Market Traders Association,"228-A, Jalan Burmah, 10350 Pulau Pinang.",100.3134771,5.4297539,Penang,业缘,80,,
北马树胶厂暨装配商公会,,Northern Malaya Rubber Millers & Packers Association,"No.22, Lebuh Pitt (3rd Floor), Room 301-302 & 303, 10200 Penang.",100.3091,5.4356367,Penang,业缘,80,,
槟城建筑材料零售商公会,,Penang Building Materials Dealers Association,"270-B, Jalan Jelutong, 11600 Pulau Pinang.",100.3183778,5.3965777,Penang,业缘,81,,
槟城摩多汽车商暨银业公会,,Penang & Province Wellesley Used Cars Autocycle Dealers & Motor Financiers Association,"48, Hamilton Road, 11600 Penang.",100.308594,5.4003272,Penang,业缘,81,,
槟城七条路菜市小商同业公会,Persatuan Penjual-Penjual Kecil Pasar Lebuh Cecil Pulau Pinang,,"Block 2G4, Lebuh Padang Tembak, 11400 Penang.",100.2928829,5.4080899,Penang,业缘,81,,
槟城福州咖啡公会,,The Foochow Coffee Shop Owner's Association,"160, Jalan Gurdwara, 10300 Pulau Pinang.",100.328144,5.409962,Penang,业缘,81,,
槟城汽车司机公会,,Penang Motor Drivers' Association,"61, Lebuh Noordin, 10300 Pulau Pinang.",100.3313137,5.4117608,Penang,业缘,81,,
槟城理发电发公会,,Penang Hair Dressing And Hair Waving Association,"204, Jalan Prangin, 10100 Pulau Pinang.",100.3341105,5.413174,Penang,业缘,81,,
槟城金银商业公会,,Gold & Silver Merchant Assn.,"25, Toh Aka Lane, 10100 Pulau Pinang.",100.3363048,5.4138519,Penang,业缘,81,,
槟城进出口商公会,Persatuan Pengimpot & Pengekspot Pulau Pinang,Penang Importers & Exporters Association,"Room 305, 3rd Floor, Penang Chinese Town Hall Building, No.22, Pitt Street, 10200 Penang",100.3388467,5.4188249,Penang,业缘,81,,
槟城米商公会,,Penang Rice Merchants' Association,"Room 304, 3rd Floor, Penang Chinese Town Hall Building 22, Pitt Street, 10200 Penang.",100.3388467,5.4188249,Penang,业缘,81,,
槟城福商公会,Persatuan Saudagar Hokkien Pulau Pinang,Penang Hock Siang Association,"35, clarke Street, 10050 Penang.",100.3308986,5.4200288,Penang,业缘,81,,
槟城聚贤金碹珠宝从业员公会,Kelab Choi Yin,,"No.41, Upstairs, Muntri Street Pulau Pinang.",100.3351286,5.420126,Penang,业缘,81,,
槟城建造行,Penang Kin Cho Hong,,"27, Jalan Sri Bahari, 10050 Pulau Pinang.",100.33218,5.4210962,Penang,业缘,81,,
槟城学生车公会,Persatuan Bas Sekolah Pulau Pinang,,"139-P Jalan Tan Sri Teh Ewe Lim, 11600 Penang.",100.306139,5.3925279,Penang,业缘,82,,
槟城亚依布底湖花园小贩公会,Persatuan Penjaja Air Putih,,"151, Jalan Air Putih, Air Itam, Penang.",100.2865303,5.4055857,Penang,业缘,82,,
槟城三轮车车工友联合会,,Penang Trishaw Riders Association,"276, Macallum Street Ghaut, 10300 Pulau Pinang.",100.3334385,5.4059708,Penang,业缘,82,,
槟城无线电商公会,,Radio Traders Association Of Penang & Province Wellesley,"14, Lebuh Melaka, 10400 Penang.",100.3233225,5.4127122,Penang,业缘,82,,
槟城汽车修理厂商公会,Persatuan Tuan-Tuan Empunya Bengkerl Kereta Motor Pulau Pinang,Penang Motor Vehicles Workshop Owner Association,"6466-J, Jalan Kg. Gajah, Butterworth.",100.3726959,5.4155549,Penang,业缘,82,,
槟城屠业公所,Persatuan Penyembelih Babi Penang,,"62-C, Lebuh Kimberley, 10100 Pulau Pinang.",100.3339522,5.4156873,Penang,业缘,82,,
槟城小贩商业公会,,Penang Hawkers' Association,"25, Jalan Sungai Ujong, 10100 Pulau Pinang.",100.3319559,5.4157817,Penang,业缘,82,,
槟城神料制造商公会,,Pg. & Pw Joss Stick Candal Joss Paper Manufacturers Association,"59, Jalan Kimberley, 10100 Pulau Pinang.",100.3331139,5.4158246,Penang,业缘,82,,
槟城亚齐商公会,"Persatuan Pedagang-Pedagang Atjeh, Pulau Pinang",Atjeh Traders Association Penang,"3rd Floor, Room 301, 302 & 303, 22, Lebuh Pitt, 10200 Penang.",100.3326786,5.4163935,Penang,业缘,82,,
槟城藤业公会,,Rattan Workers Association,"37, Kampong Melabar, 10100 Pulau Pinang.",100.3327392,5.41897,Penang,业缘,82,,
槟城小贩联合会,Persatuan Penjaja Penjaja Pulau Pinang,Penang Petty Traders' Association,"39A, Jalan Irawad, 10050 Penang.",100.321497,5.4256629,Penang,业缘,82,,
槟城树胶公会,,Rubber Trade Association Of Penang,"No.22, Lebuh Pitt 3rd Floor Room 301, 302 & 303, 10200 Penang.",100.3091,5.4356367,Penang,业缘,82,,
槟华船廊公会,,Pg. Chinese Ship Builders Association,"33, Peng Aun Pier, Gat Presgrave St Ghaut, 10300 Pulau Pinang.",100.296038,5.345248,Penang,业缘,83,,
槟岛蔬菜批发商公会,Persatuan Pemborong Sayur Sayuran Pulau Pinang,,"BG-14-T, Pasar Borong Gat Lebuh Macallum , 10300 Pulau Pinang.",100.3334824,5.4069524,Penang,业缘,83,,
槟城州机器厂商公会,Persatuan Industri-lndustri Fondri & Kejuruteraan Pulau Pinang,Penang State Foundry & Engineering Industries Association,"4B, 2nd Floor, Lorong Arowana 2, Permatang Pauh, 13500 Butterworth,Penong.",100.4083641,5.4098405,Penang,业缘,83,,
槟城中医师公会,,Penang Chinese Physician Association,"61-C/63-C, 3rd Floor, Lebuh Tye Sin, 10300 Pulau Pinang.",100.3296805,5.4105013,Penang,业缘,83,,
槟华商业联合会,,Chinese Commercial Union,"210, Jalan Prangin, 10100 Pulau Pinang.",100.3341105,5.413174,Penang,业缘,83,,
槟城中文报记者及摄影记者协会,Pertubuhan Wartawan Dan Jurugambar Akhbar Cina Pulau Pinang,,"9-2-8, Medan Lumba Juda, Jalan Sekolah La Salle, 11400 Penang.",100.3003029,5.4133603,Penang,业缘,83,,
槟城椰肉贸易公所,,Penang Copra Exchange,"171, Lebuh Victoria, 10300 Pulau Pinang,",100.3388584,5.4136897,Penang,业缘,83,,
槟华建筑公会,,Penang Chinese Builders Association,"44, New Lane, 10400 Pulau Pinang.",100.3265101,5.4148529,Penang,业缘,83,,
槟城钟表同业公会,Persatuan Peniaga-Peniaga Jam Pulau Pinang,Penang Watch Dealers Association,"60, Lorong Selamat, 10400 Penang.",100.3254004,5.4179732,Penang,业缘,83,,
槟城鱼商批发公会,Persatuan Pemborong-Pemborong Ikan Pulau Pinang,,"17, Jalan Chowrasta, 10100 Pulau Pinang.",100.331857,5.4181096,Penang,业缘,83,,
槟城杂货行,Persatuan Penjual Bahan Makanan,Grocers Association Penang,"4, Jalan Pintal Tali, 10100 Penang.",100.3351766,5.4184768,Penang,业缘,83,,
槟华兴和打金职工会,,Penang Chinese Heng Who Goldsmith Employees Union,"70, Lorong Riang, Taman Riang, 12300 Butterworth, Pulau Pinang.",100.3770588,5.4217958,Penang,业缘,83,,
槟威农牧业联合会,Persatuan Penternak & Peladang Pulau Pinang & Seberang,Perai & Province Wellesley Farmers' Association,"96-B, Jalan Tembikai, Taman Mutiara, 14000 Bukit Mertajam.",100.4444744,5.3616511,Penang,业缘,84,,
槟州鸡鸭同业公会,Persatuan Penjual-Penjual Ayam Itek Pulau Pinang,,"C/O 96B, Jalan Tem bikaijam an Mutiara, 14000 Bukit Mertajam.",100.4590091,5.365458,Penang,业缘,84,,
槟州家具同业商会,Persatuan Pembuat Dan Penjual Perabut Pulau Pinang,Penang Furniture Manufacturers And Dealers Association,"11,1st Floor, Lorong Kelasah 1, Taman Kelasah, 13700 Seberang Jaya, Penang.",100.409212,5.398395,Penang,业缘,84,,
槟威摩多汽车商暨银业公会,,Penang & Province Wellesley Used Cars Autocycle Dealers Motor Financiers Association,"48, Jalan Hamilton, 11600 Pulau Pinang.",100.308594,5.4003272,Penang,业缘,84,,
槟威制衣商公会,,The Penang & Province Wellesley Garment Association,"38, Jalan Kuntan, Penang.",100.3241207,5.4111361,Penang,业缘,84,,
槟州广告牌业公会,Persatuan Pengiklan & Penanda Negeri Pulau Pinang,Penang Advertising & Signcrafts' Association,"46, Jalan Selangor, 10400 Pulau Pinang.",100.324107,5.414192,Penang,业缘,84,,
槟吉玻酱园同业公会,Persatuan Perusahaan Kicap Negeri P.P. Kedah & Perlis,Soya Sauce Trade Association Penang Kedah & Perlis,"4, Jalan Pintal Tali, 10100 Penang.",100.3351766,5.4184768,Penang,业缘,84,,
槟州建筑暨材料商公会,Persatuan Pembina Dan Pembekal Bahan Binaan Pulau Pinang,Penang Master Builders & Building Materials Dealers Association,"3rd Floor, Room 306 Penang Chinese Town Hall 22, Jalan Masjid Kapitan Keling, 10200 Penang.",100.3388467,5.4188249,Penang,业缘,84,,
槟州当商公会,Persatuan Pajak Gadai Pulau Pinang,Penang Pawnbrokers' Association,"33, Anson Road, 10400 Pulau Pinang.",100.3232372,5.4191292,Penang,业缘,84,,
槟榔屿中医学院毕业医师协会,Persatuan Graduan Maktab Perubatan Zhong Hua Pulau Pinang,,"69, Lebuh Muntri, 10200 Pulau Pinang.",100.3353745,5.4200078,Penang,业缘,84,,
槟榔屿中医中药联合会,,Penang Chinese Physician & Druggist Association,"69, Jalan Muntri, 10200 Pulau Pinang.",100.3353745,5.4200078,Penang,业缘,84,,
槟威咖啡茶商公会,,The Penang And Province Wellesley Cafe Association,"91, Muntri Street Pulau Pinang.",100.33481,5.4200427,Penang,业缘,84,,
高渊小贩商业公会,Persatuan Penjaja Dan Peniaga Nibong Tebal,,"No.3678 Jalan Gharry Kuchi, Taman Nibong Tebal",100.473741,5.166769,Penang,业缘,85,,
大山脚海产公会,,Marine Products Association Bukit Mertajam,"72, Jalan Bunga Raya, 14000 Bukit Mertajam.",100.4598036,5.3640094,Penang,业缘,85,,
大山脚伯公坛饭商协会,Persatuan Peniaga Kaw. Lrg. Tokong Bukit Mertajam. S.P.T.,,"18, Lorong Tokong 14000 Bukit Mertajam.",100.4606698,5.3642365,Penang,业缘,85,,
槟州文具纸品商公会,Persatuan Penjual Kertas Dan Alatulis Pulau Pinang,,"6, Lorong Nagasari 26, Taman Nagasari, 13600 Prai, Pulau Pinang.",100.4160251,5.3646637,Penang,业缘,85,,
槟州五金机械商公会,Persatuan Saudagar Logam Dan Jentera.Pulau Pinang,Penang Hardware And Machinery Merchants Association,"15-B Medan Angsana, Bandar Baru Air Itam, 11500 Penang.",100.2833129,5.388326,Penang,业缘,85,,
槟州屠业公所,Persatuan Penyembilah Babi,,"28-02-03, Jalan Sungai, 10150 Georgtown.",100.3231699,5.4054663,Penang,业缘,85,,
打抢铺组屋区小贩同业公会,Persatuan Penjaja-Penjaja Dan Peniaga-Peniaga Kecil Rumah Pangsa Padang Tembak,Rifle Range Flats Hawkers And Pretty Traders Association,"55-G-4, Lorong Sempadan 2,11400 Ayer Itam, Penang",100.2895266,5.408853,Penang,业缘,85,,
槟州中华总商会,Dewan Perniagaan Tionghua Pulau Pinang,Penang Chinese Chamber Of Commerce,"9th Floor, Penang Chinese Town Hall Building, No.22, Jalan Masjid Kapitan Keling, 10200 Penang.",100.3388467,5.4188249,Penang,业缘,85,,
槟州神纸制造及神料商公会,Persatuan Pembuat Dan Peniaga Barang-Barang Sembahyang Cina Pulau Pinang,,"15 Lorong Mak Mandin, 5/1 Kawasan Perindustrian Mak Mandin, Butterworth.",100.3897926,5.4190552,Penang,业缘,85,,
姑苏广存堂茶酒楼公会,Persatuan Restoran & Kedai Tea Koo Soo Kwong Choon Tong Pulau Pinang,,"59, Lebuh Muntri, 10200 Pulau Pinang.",100.3355013,5.4198351,Penang,业缘,85,,
槟州鞋业公会,Persatuan Pengusaha Kasut Pulau Pinang,Penang Footwean Association,"No.80, Hutton Lane, 10050 Penang.",100.3291555,5.4208701,Penang,业缘,85,,
的士及出租车司机公会,Persatuan Pemandu-Pemandu Teksi Dan Kereta Sewa Seri Baru,,"No.128-H Batu Feringghi, Pulau Pinang.",100.246491,5.47124,Penang,业缘,85,,
马章武莫区阿倪玛益美园贩商公会,Persatuan Perniaga Dan Penjaja Tmn Selamat Alma Dan Kawasan Macang Bubuk Bukit Mertajam,,"36, Lorong Rusa 2, Taman Selamat Alma, Bukit Mertajam.",100.4859603,5.3299322,Penang,业缘,86,,
马来西亚印刷商公会槟州分会,Persatuan Pencetak Malaysia (Penang Branch) Complex Sri Wonder,,"88-3-58, Lintang Sungai Pinang, 10150 Pulau Pinang.",100.3184801,5.4026978,Penang,业缘,86,,
社尾方山同业公会,,Prangin Market Traders Association,"8G-117-T, Pasar Borong Gat Lebuh Macallum, 10300 Pulau Pinang.",100.3334824,5.4069524,Penang,业缘,86,,
万锦商会,,Chinese Drapers Guild,"38, 2nd Floor, Jalan Kuantan, 10150 Penang.",100.3243157,5.4109119,Penang,业缘,86,,
马来西亚鱼网索络销售商公会,,Malaysia Fishing Net & Rope Dealers' Association,"457, Jalan Pantai, 10300 Pulau Pinang.",100.3342775,5.4120011,Penang,业缘,86,,
水产公会,Chui Shun Kong Hui,Marine Produce Dealers Association,"63, Jalan Kebun Nyor, 10460 Penang.",100.3147091,5.4143262,Penang,业缘,86,,
鲁艺行,Noo Yee Hong,,"135, Jalan Pintal Tali, 10100 Pulau Pinang.",100.3328136,5.4156555,Penang,业缘,86,,
联商公会,Lean Seong Kong Hoay,,"88, Jalan Burna, 10050 Pulau Pinang.",100.3276131,5.4190246,Penang,业缘,86,,
鲁班行,Loo Pun Hong,,"Love Lane, 10200 Penang.",100.3369435,5.4195208,Penang,业缘,86,,
广商公所,,Cantonese Merchant Association,"13, Love Lane, 10200 Pulau Pinang.",100.3372496,5.4199988,Penang,业缘,86,,
马来西亚茶商公会,Persatuan Pedagang The Malaysia,Malaysia Tea Merchant Association,"201, Macalister Road, 10450 Penang.",100.315444,5.420451,Penang,业缘,86,,
威北小贩联合会,Persatuan Peniaga-Peniaga Kecil Seberang Perai Utara,,"16(4632) Medan Melur Selatan, Jalan Raja Uda, 12300 Butterworth.",100.3838996,5.4313006,Penang,业缘,86,,
威南树胶商公会,Persatuan Peniaga-Peniaga Getah Seberang Perai Selatan,,"No.193, High Road, Nibong Tebal, Province Wellesley South.",100.478163,5.168417,Penang,业缘,87,,
威中猪肉商公会,Persatuan Penjual-Penjual Daging Babi Seberang Perai Tengah Pulau Pinang,,"No.38, Persiaran Perpaduan, B Garden, Bukit Mertajam.",100.473412,5.3452477,Penang,业缘,87,,
威中小贩商业公会,Persatuan Penjaja-Penjaja Seberang Perai Tengah,,"3006, 2nd Floor, Jalan Berjaya, Taman Sri Maju, 14000 Bukit Mertajam, Seberan Perai Tengah.",100.469422,5.3516761,Penang,业缘,87,,
威省建造行,Kin Cho Hong,,"109, Jalan Datuk Ooh Chooi Cheng, 14000 Bukit Mertajam.",100.462625,5.362984,Penang,业缘,87,,
威省咖啡餐室经营公会,Persatuan Tuan-Tuan Empunya Kedai Kopi Dan Kedai Makanan Seberang Perai,,"No.29-C, Jalan Tembikai, Taman Mutiara, Bukit Mertajam.",100.4446189,5.364094,Penang,业缘,87,,
威省米较商协会,,Rice Millers' Association Province Wellesley,"4807 (1st Floor), Room B, Jalan Chain Ferry, Butterworth.",100.3881077,5.395311,Penang,业缘,87,,
威省车商公会,,The Province Wellesley Motor & Cycle Dealers' Association,"4645, Jalan Heng Choon Thian, 12000 Butterworth.",100.372356,5.4067099,Penang,业缘,87,,
新春满园同业公会,,New Wembley Park Traders Association,"83-C/92-C, New Wembley Park, 10300 Pulau Pinang.",100.332125,5.410299,Penang,业缘,87,,
新光大广场店商公会,Dewan Perniagaan Prangin Mall,Prangin Mall Merchant Association,"54, Cintra Street, 10100 Penang.",100.3329399,5.4169755,Penang,业缘,87,,
威省报界协会,Persatuan Wartawan Seberang Perai,Province Wellesley Pressman Association,"G-03, Pangsapuri Perindu, 13400 Butterworth.",100.3811098,5.4172685,Penang,业缘,87,,
威省金银饰品商业公会,,P.W. Gold & Silver Ornament Merchant Association,"4395, Jin Heng Choon Thiam, 12000 Butterworth.",100.388192,5.4380309,Penang,业缘,87,,
峇冬丁谊村华小校友会,Persatuan Bekas Murid-Murid SRK(C) Permatang Tinggi Seberang Pereai Tengah,,SRK (C) Permatang Tinggi Simpan Ampat.,100.47905,5.2997622,Penang,文教,88,,
槟城浮罗圣心校友会,Persatuan Bekas Murid-AAurid Sekolah Sacred Heart Balik Pulau,,"c/o SM Sacred Heart, 11000 Balik Pulau, Pulau Pinang.",100.2369179,5.352739,Penang,文教,88,,
北马华乐协会,Pertubuhan Muzik Tiong Hua Malaysia Utara,,"32, Jalan Manggis, Taman Bak Hai, 14000 Bukit Mertajam.",100.4539275,5.3610707,Penang,文教,88,,
北赖中华三校校友会,"Persatuan Bekas Murid-Murid Sekolah Chung Hwa (3) Perai, Seberang Perai",,"D/A SRJK(C) Chung Hwa 3, Perai.",100.3831945,5.3843292,Penang,文教,88,,
北海中华公学校友会,Persatuan Murid-Murid Tua Sekolah Chung Hwa,,"3921, Jalan Bagan Luar, 12000 Butterworth.",100.3679969,5.397666,Penang,文教,88,,
槟城佛教义学校友会,Persatuan Bekas Murid-Murid Penang Buddhist Free School Pulau Pinang,The Penang Buddhist Free School Ex-Pupil Association,"22-A, Jalan Munshi Abdullah, 10460 Pulau Pinang.",100.3138602,5.4081116,Penang,文教,88,,
北海韩江校友会,Persatuan Bekas Murid-Murid Han Chiang,Han Chiang Ex-Pupils Association Of Butterworth,"No.6, Jalan Bagan 3, Taman Bagan 3,13400 Butterworth.",100.3843294,5.4131684,Penang,文教,88,,
北海光华校友会,Persatuan Murid-Murid Tua SRJK(C) Kwang Hwa Butterworth,,"6542 Jalan Raja Udo, 12300 Butterworth.",100.3826239,5.426061,Penang,文教,88,,
槟城槟华校友会,,Penang Chinese Girls' School Union,"5, Jalan Bagan Germal, 10250 Penang.",100.3039041,5.4353471,Penang,文教,88,,
北海励华校友会,,Li Hwa School Ex-Pupils Association Butterworth,"No.56, Lorong Kenanga Off Jalan Raja Uda, Butterworth.",100.3864394,5.4422196,Penang,文教,88,,
槟城丹绒武雅培华校友会,Persatuan Bekas Murid-Murid Poey Wah,,"534-A, Tanjong Bunga, 11200 Penang.",100.282307,5.463285,Penang,文教,88,,
槟城光华校友会,,Kwang Hwa School Old Pupils' Association Sg. Nibong Penang,"Kwang Hwa School Sg. Nibong, Bayan Lepas, Pulau Pinang.",100.296544,5.33582,Penang,文教,89,,
槟城共和学校校友会,Persatuan Bekas Murid-Murid Sekolah Keong Hoe Pulau Pinang,,"529, Sungai Dua, 11700 Pulau Pinang.",100.30121,5.3526346,Penang,文教,89,,
槟城培新校友会,Persatuan Bekas Murid-Murid Sekolah Phei Shin,,"410-A, Jalan Bukit Dumbar, 11600 Pulau Pinang.",100.3132073,5.3875485,Penang,文教,89,,
槟城慕义校友会,Persatuan Bekas Penuntut Sekolah Moh Ghee Pulau Pinang,,"136, Jalan Jelutong, 11600 Pulau Pinang.",100.315454,5.3939499,Penang,文教,89,,
槟城韩江同学会,Persatuan Alumni Han Chiang Pulau Pinang,,"71-L, Jalan Terengganu, 10460 Penang.",100.3087347,5.4034211,Penang,文教,89,,
槟城留台师范大学校友会,,Taiwan Normal University Graduates' Association,"80, Jalan Siam, 10400 Pulau Pinang.",100.320941,5.4147597,Penang,文教,89,,
槟城菩提校友会,Persatuan Bekas Murid-Murid Sekolah Phor Tay,,"10-E, Jalan Dato Koyah,10050 Pulau Pinang.",100.3315521,5.4197633,Penang,文教,89,,
槟城华校教师会,"Persatuan Guru-Guru Sekolah China, Pulau Pinang",Penang Chinese School Teachers' Association,"25, Jalan Irawadi, 10050 Pulau Pinang.",100.3287399,5.4321233,Penang,文教,89,,
槟城留台同学会,,Penang Alumni Association Of Taiwan Universities & Colleges,"50-C, 3rd Floor, Argyll Road, 10050 Penang.",100.3287399,5.4321233,Penang,文教,89,,
槟城日间师训毕业教师会,Persatuan Guru-Guru Lepasan Maktab Penguruan Harian Pulau Pinang,P.T.C. Trained Teacher Association,"15, Jalan Trrawaddy, 10050 Pulau Pinang.",100.3287399,5.4321233,Penang,文教,89,,
,Pertubuhan Bahasa Jepun Pulau Pinang,Penang Japanese Language Society,"7-H-3, Gottlieb Road, 10350 Penang. P.O.Box 577, Penang.",100.3022418,5.4324391,Penang,文教,89,,
槟城励华校友会,Persatuan Siswazah Li Hua Pulau Pinang,Penang Li Hua Graduate Society,"21, Persiaran Makhoda, Taman Teluk Air Tawar, Butterworth.",100.3883931,5.4769299,Penang,文教,89,,
槟城音艺文化协会,,Penang Arts & Cultural Society,"AB-G-5, Taman Tun Sardon, 11700 Glugor, Pulau Pinang.",100.3060063,5.3690248,Penang,文教,90,,
槟城协和校友会,,Union School Alumni Association,"C/O 288, Gat Lebuh Macallum, 10300 Pulau Pinang.",100.3358436,5.4057879,Penang,文教,90,,
槟城同善校友会,,Tong Sian Ex-Pupils Association,"158, Jalan P. Ramlee 10460 Pualua Pinang.",100.3089798,5.4065371,Penang,文教,90,,
槟城三民校友会,Persatuan Murid-Murid Lepasan Sekolah Sum Min,,"1, Lebuh Tye Sin, 10300 Pulau Pinang.",100.3312472,5.4096609,Penang,文教,90,,
槟城中正校友会,,Penang Chung Cheng School Union,"30, Noordin Street 10300 Penang.",100.331126,5.411841,Penang,文教,90,,
槟城颖川校友会,Persatuan Murid-Murid Tua Sekolah Eng Chuan,,"24, Sek Tan Court Beach St., 10300 Pulau Pinang.",100.339043,5.415099,Penang,文教,90,,
槟城钟灵校友会,Persatuan Alumni Chung Ling Pulau Pinang,Penang Chung Ling High School Union,"No.46, Jalan Anson, 10400 Pulau Pinang.",100.3217903,5.4182668,Penang,文教,90,,
槟城艺术协会,Persatuan Kesenian Pulau Pinang,Penang Arts Society,"3rd Floor, room 307, 22 Jalan Masjid Kapitan Keling, 10200 Pulau Pinang.",100.3388467,5.4188249,Penang,文教,90,,
槟城商务校友会,"Persatuan Bekas Murid-Murid Sekolah Shang Wu, Pulau Pinang",Shang Wu School Ex-Students Association Penang,"407, Lebuh Chulia, 10200 Pulau Pinang.",100.3349686,5.4188582,Penang,文教,90,,
槟城时中校友会,,Shih Chung Sch. Ex-Students' Association,"72-A, Love Lane, 10200 Pulau Pinang.",100.3364696,5.4189741,Penang,文教,90,,
槟城益华校友会,Persatuan Bekas Murid-Murid Aik Hua,,"93 Lebuh Muntri, 10200 Pulau Pinang.",100.3347924,5.4200468,Penang,文教,90,,
槟城中华校友会,,Chung Hwa School Union,"No.80, Jalan Burma, 10350 Penang.",100.3169308,5.4268055,Penang,文教,90,,
槟州华校校友会联合会,P.P.P. Bekas Pelajar-Pelajar Sekolah Tiong Hua Pulau Pinang,,"63-B-01-07, University Heights, Jalan Sungai Dua, 11700 Pulau Pinang.",100.301863,5.352601,Penang,文教,91,,
槟榔屿明德校友会,,Beng Teik Ex-Pupils' Association,"40, Lebuh Presgrave 10300 Penang.",100.3309484,5.4107124,Penang,文教,91,,
槟榔屿南洋大学校友会,,Penang Nanyang University Alumni Association,"66, Weld Quay, 10300 Penang.",100.3365139,5.411439,Penang,文教,91,,
槟榔屿韩江校友会,,Han Chiang Ex-pupils Association Penang,"31-D, Sam Road, 10400 Penang.",100.320914,5.4148262,Penang,文教,91,,
槟州人民文化协会,Persatuan Kebudayaan Rakyat Pulau Pinang,Penang People's Culture Seciety,"No.15, Jalan Sungai Ujong, 10100 Pulau Pinang.",100.332121,5.4158929,Penang,文教,91,,
槟城钟灵校友童军协会,Persatuan Bekas Pengakap Chung Ling Pulau Pinang,"The Chung Ling Ex-scouts' Association, Penang","46, Jalan Anson, 10400 Penang.",100.3217903,5.4182668,Penang,文教,91,,
槟榔屿古物协会,Persatuan Pengumpul Barangan Antik Pulau Pinang,Penang Antique Collectors Association,"8, Jalan Pintal TalI, 10100 Pulau Pinang.",100.3351211,5.4183946,Penang,文教,91,,
槟威华校董事联合会,Gabungan Persatuan-Persatuan Lembaga Pengurus Sekolah-Sekolah Pulau Pinang & Seberang Perai,,"C/O Penang Chinese Town Hall Rooom 10-l(Top Floor), 22, Jalan Masjid Kapitan Keling, 10200 Penang.",100.3388467,5.4188249,Penang,文教,91,,
槟州歌乐协会,Pertubuhan Muzik Pulau Pinang,Penang Music Council,"93, Lebuh Muntai, l0200 Penang.",100.3347924,5.4200468,Penang,文教,91,,
槟华高师同学会,,Penang Chinese Senior Normal Students Union,"25, Jalan Irrawaddy, 10050 Pulau Pinang.",100.321497,5.4256629,Penang,文教,91,,
槟州华校临时教师公会,Persatuan Guru-Guru Sementara Sekolah China Pulau Pinang,,"25, Jalan Irrawaddy, 10050 Pulau Pinang.",100.321497,5.4256629,Penang,文教,91,,
槟州交响乐团协会,Persatuan Simfoni Pulau Pinang,Penang Symphony Society,,,,Penang,文教,91,,
高渊培德校友会,Persatuan Bekas Murid-Murid Sekolah Pai Teik,,"1185, Jalan Pintu Sepuluh, 14300 Nibong Tebal, Seberang Perai Selatan.",100.477254,5.1659776,Penang,文教,92,,
崇正校友会,Persatuan Bekas Murid-Murid Sekolah Chong Cheng Sg. Ara Pulau Pinang,,"SJK Chong Cheng (C), Sg. Ara, Pulau Pinang.",100.271169,5.324564,Penang,文教,92,,
浮罗山背崇德校友会,,Chong Teik School Old Boys' Association,"338, Jalan Quah Sin Khong, 11000 Balik Pulau, Pulau Pinang.",100.2039477,5.3400647,Penang,文教,92,,
槟州幼稚园教师公会,Persatuan Guru-Guru Tadika Pulau Pinang,,"D/a Jit Sin Kindergarten, 6, Johor Road, 10400 Pulau Pinang.",100.318312,5.414,Penang,文教,92,,
大山脚日新校友会,Persatuan Bekas Murid-Murid Sekolah Jit Sin,Jit Sin School Union,"462, Jalan Sri Bukit, 14000 Bukit Mertajam.",100.456941,5.363816,Penang,文教,92,,
槟州三国演义硏究协会,Persatuan San Guo Yan Yi Negeri Pulau Pinang,,"108, Jalan Bagan Serai, 11600 Penang.",100.3089797,5.3931113,Penang,文教,92,,
辅友社校友会,Pertubuhan Bekas Pelajar SRJK(C) Hu Yew Seh Pulau Pinang,,"Blok 46-7-7, Jalan Besi, Jelutong, Pulau Pinang.",100.3018192,5.3948342,Penang,文教,92,,
公民同学会,Persatuan Bekas Murid SJK(C) Kong Min Kong Min,School Old Pupils' Association,"No.39-A, Jalan Air Hitam, 11500 Pulau Pinang.",100.2779591,5.4015018,Penang,文教,92,,
高峇三方华侨校友会,,Oversea Chinese Sch. Old Boys' Association,"D/A 1148, Mk-20, Kubang Semang, 11400 Bukit Mertajam.",100.4637611,5.403828,Penang,文教,92,,
槟州舞蹈协会,Persatuan Tarian Desa Pulau Pinang,,"c/o 101-10-4, Menara Perdana, Jalan Gurdwara, 10300 Penang.",100.3268104,5.4060894,Penang,文教,92,,
槟州书艺学会,,The Calligraphy Association Of Penang,"184, Jalan CY Choy, 10300 Pulau Pinang.",100.330663,5.4086842,Penang,文教,92,,
槟属华校师资训练班同学会,,Penang Chinese School Teachers'Training Class Union,"25, Jalan Irrawaddy, 10050 Pulau Pinang.",100.321497,5.4256629,Penang,文教,92,,
敬群校友会,Persatuan Bekas Murid-Murid Sekolah Keng Koon Bukit Tambun Seberang Perai,,"No.13, Main Road, Bukit Tambu, Province Wellesley South.",100.459507,5.275221,Penang,文教,93,,
启新校友会,Persatuan Bekas Murid-Murid Kay Sin Machang Bubok Seberang Perai,,"No.1145, Jalan 9, Machang Bubok, Bukit Mertajam.",100.5082067,5.3324246,Penang,文教,93,,
马来西亚国民型华文中学校长理事会,Majlis Pengetua Sekolah Menengah Conforming Malaysia,,"SMJK Ji Sin, Jalan Binjal Taman Sri Rambai.",100.446163,5.3434669,Penang,文教,93,,
侨先校友会,Persatuan Bekas Murid-Murid Sekolah Keow Kuang,,"991, Sg. Rumbai, Bukit Mertajam.",100.4555806,5.3637953,Penang,文教,93,,
日落洞华小校友会,Persatuan Bekas Murid-Murid Sekolah Rendah Cina Jelutong,Primary Ex-pupils' Association Jelutong,"C/o 99A, Jalan Tan Sri The Ewe Lim, 11600 Penang.",100.310661,5.3916379,Penang,文教,93,,
恒毅校友会,,Heng Ee Ex-pupils' Association,"99, Jalan Hamil Ton, 11600 Pulau Pinang.",100.3086368,5.3996593,Penang,文教,93,,
马来西亚华人文化协会槟州分会,Pertubuhan Kebudayaan China Malaysia Negeri Pulau Pinang,,"15, Jalan Pahang ,10400 Pulau Pinang.",100.32047,5.414654,Penang,文教,93,,
丽泽校友会,Persatuan Bekas Murid Sekolah Li Tek,Li Tek School Ex-pupils' Association,"152, Lebuh Carnarvon, 10100 Pulau Pinang.",100.3347479,5.41556,Penang,文教,93,,
马来西亚韩江校友会总会,Persekutuan Alumni Han Chiang Malaysia,,"No.2, Lorong Ceri 6, Taman Aman Jaya, Off Jalan Raja Ulu, 12300 Butterworth.",100.380523,5.42188,Penang,文教,93,,
威北马华校友会,Persatuan Bekas Murid-Murid Sekolah Mah Hua,,"1807, Kampong Selamat, 11700 Tasek Glugo, Province Wellesley.",100.5202642,5.490955,Penang,文教,93,,
甲拋峇底培育校友会,"Pertubuhan Bekas Murid Sekolah Pei Yu Kepala Batas, Seberang Perai Utara.",,"31 Jalan Bertam, Kepala Batas, Seberang Perai Utara.",100.4311944,5.5170854,Penang,文教,93,,
威北甲抛峇底华侨校友会,Hwa Keow School Ex-Pupils' Association,,"31, Jalan Bertam Kepala Batas, 13200 Seberang Perai Utara.",100.4468691,5.5191121,Penang,文教,93,,
威省爪夷崇光校友会,Persatuan Bekas Murid-Murid Sekolah Chong Kuang,,"1177, Kampong Wellesley, 14200 Sg. Bakap, Seberang Perai Selatan.",100.51344,5.212015,Penang,文教,94,,
文开校友会,Persatuan Bekas Murid-Murid Sekolah Wan Khai Pulau Pinang,,"Sekolah Rendah Wan Khai, Jalan Batu Maung, Pulau Pinang.",100.2825709,5.282026,Penang,文教,94,,
文明校友会,Persatuan Murid-Murid Sekolah Boon Beng,,"1404, Jalan Besar, 14100 Simpang Ampat Seberang Perai Selatan.",100.4434112,5.3152789,Penang,文教,94,,
威省大山脚金星校友会,Persatuan Bekas Murid-Murid Sekolah Kim Sen,,"2422, Jalan Kulim, 14000 Bukit Mertajam.",100.474191,5.3525081,Penang,文教,94,,
威省平民校友会,Persatuan Bekas Murid-Murid School Peng Bin Bukit Tengah Seberang Perai,,"491, Sungai Rambai, 14000 Bukit Mertajam.",100.4512888,5.3645383,Penang,文教,94,,
威省韩江校友会,Persatuan Bekas Murid-Murid Han Chiang Seberang Prai,,"12, Jalan Ciku, 14000 Bukit Mertajam.",100.459926,5.3666913,Penang,文教,94,,
威中双溪仑武华小校友会,Persatuan Bekas Murid-Murid SJK(C) Kampung Sg. Lembu Bukit Mertajam ,,"No.347, Kampung Sg. Lembu, Bukit Mertajam.",100.522215,5.3679118,Penang,文教,94,,
醒侨校友会,Persatuan Bekas Murid Sekolah Seng Keow Kampung Pertama Seberang Perai Tengah,,SRJK (C) Seng Keow Kampung Pertama,100.412,5.39561,Penang,文教,94,,
威省峇东埔励侨校友会,Persatuan Bekas Murid-Murid Sekolah Lay Keow Pmtg Pauh,,"2, Tingkat Samagagah, 13500 Permatang Pauh, Province Wellesley.",100.4129196,5.4137778,Penang,文教,94,,
新江校友会,Persatuan Bekas Murid-Murid Sekolah Sin Kang Sin Kang School Union,,"181, Carnarvon Street 10100 Penang.",100.335918,5.417474,Penang,文教,94,,
威省钟灵校友会,Persatuan Alumni Chung Ling Seberang Perai,,"4, Jalan Teratai, Off Jalan Raja Uda, 13000 Butterworth, Seberang Perai.",100.3867679,5.438186,Penang,文教,94,,
威省励志校友会,,Lee Chee School Ex-Pupils Association,"2281, Jalan Raya, Tasek Gelugor, 13300 Seberang Perai.",100.5127381,5.494767,Penang,文教,94,,
真光校友会,Persatuan Murid-Murid Tua Sekolah True Light Kg. Juru Seberang Perai,,"SRJK(C) True Light Kg. Juru, Simpang Ampat.",100.4460859,5.3157109,Penang,文教,95,,
中山校友会,,Chang Shan School Union,"564, Bayan Lepas, 11900 Pulau Pinang.",100.2901349,5.321008,Penang,文教,95,,
爱莲玉宝石仙岩大伯公广福庙,Poh Cheok Sian Gum Tua Peh Kong Kung Hock Temple,,"C/o 2-A, Lorong Delima 6, 11700 Island Glades, Pulau Pinang.",100.3042103,5.3820388,Penang,宗教,95,,
育才校友会,Persatuan Bekas Murid-Murid Sekolah Yu Chye,,"490, Kuala Sungai Pinang, 11000 Balik Pulau, Pulau Pinang.",100.1981327,5.3912303,Penang,文教,95,,
板厂面大伯公,Pertubuhan Penganut Dewa Tua Peh Kong (Ban Chang Mien),,"No.545, MK16, Jalan Balik Pulau, 11500 Ayer Itam, Pulau Pinang.",100.2736126,5.3996413,Penang,宗教,95,,
修道院华校校友会,Persatuan Bekas Murid-Murid Convent(China) : Dato Kramat,,"421 Dato Kramat Road, Pulau Pinang.",100.3181249,5.412028,Penang,文教,95,,
宝德社,Poh Teik Seah,,"8 Armenian street, Pulau Pinang.",100.338195,5.4147349,Penang,宗教,95,,
英华学校校友会,,Anglo Chinese School Union,"495-J, Penang Road.",100.3296607,5.4161761,Penang,文教,95,,
颍川校友会,Persatuan Murid-Murid Tua Sekolah Eng Chuan Pulau Pinang,,"No.24, Seh Tan Court, Pulau Pinang.",100.3326786,5.4163935,Penang,文教,95,,
中华校友会,Persekutuan Persatuan-Persatuan Bekas Pelajar Pelajar Sekolah Tiong Hua Negeri Pulau Pinang,,"No.46, Jalan Anson, Pulau Pinang.",100.3217903,5.4182668,Penang,文教,95,,
中华公校校友会,,Chung Hwa Public School Ex-Students' Association Butterworth,"No.47, Tingkat Molek, Bagan Ajam, Butterworth, Seberang Perai.",100.3797403,5.4366948,Penang,文教,95,,
北海德教会紫道阁,Persatuan Pendidikan Akhlak Che Tao Khor Butterworth,,"12, Jalan Bagan Baru Satu, 12000 Butterworth.",100.371782,5.405812,Penang,宗教,96,,
北海凤山寺包公,Pertubuhan Penganut Dewa Feng Shan Si Bao Gong Butterworth,,"No.1135, Kg. Jawa, 12000 Butterworth, Seberang Perai Utara.",100.3699958,5.40678,Penang,宗教,96,,
宝福社,Poh Hock Seah,,"57, Lebuh Armenian, 10200 Pulau Pinang.",100.3369036,5.4153922,Penang,宗教,96,,
宝珠社,Poe Choo Seah,,"No.51, King Street, Pulau Pinang.",100.340016,5.4183768,Penang,宗教,96,,
北海佛教会,Persatuan Ugama Buddha Butterworth,Butterworth Buddhist Association,"7156, Tingkat Mak Mandin 3, Mak Mandin, 13400 Butterworth, Pulau Pinang.",100.3924299,5.423766,Penang,宗教,96,,
北海甘光新芭福德宫,Persatuan Penganut Dewa Hock Teik Kong Kg. Simpah Butterworth,,"773 Kg. Simpah, 12300 Butterworth.",100.3904626,5.4273855,Penang,宗教,96,,
