所属州,所属区域,所属行政单位类型,所属行政单位名称,年份 (1),年份 (2),单位名称,主神,Longitude,Latitude
雪兰莪 Selangor,鹅唛  Gombak,重整村,煤炭山 Batu Arang,1913,,玉皇宫（玉皇大帝庙）,玉皇大帝,,
雪兰莪 Selangor,鹅唛  Gombak,重整村,煤炭山 Batu Arang,1913,,释迦殿,,3.314882,101.475254
雪兰莪 Selangor,鹅唛  Gombak,重整村,煤炭山 Batu Arang,1913,,广明亭,,3.319183,101.476718
雪兰莪 Selangor,鹅唛  Gombak,重整村,拿督李金狮村 Dato' Lee Kim Sai,,,佛法仙坛,,3.308535,101.578384
雪兰莪 Selangor,鹅唛  Gombak,重整村,太平村 Desa Aman,,,刘氏佛堂,,3.204126,101.595399
雪兰莪 Selangor,鹅唛  Gombak,重整村,太平村 Desa Aman,,,聚山庙,,3.205157,101.595834
雪兰莪 Selangor,鹅唛  Gombak,重整村,太平村 Desa Aman,,,福灵宫,,3.206118,101.595244
雪兰莪 Selangor,鹅唛  Gombak,重整村,瓜拉加冷南区 Kuala Garing Selatan,,,三山法主坛,,3.32125,101.564878
雪兰莪 Selangor,鹅唛  Gombak,重整村,甘榜拉惹 Kampung Rajah,,1865,感应亭 Kam Yin Teng,观音菩萨,3.323344,101.573892
雪兰莪 Selangor,鹅唛  Gombak,重整村,甘榜拉惹 Kampung Rajah,,,桂南道堂,,3.322841,101.573707
雪兰莪 Selangor,鹅唛  Gombak,重整村,甘榜拉惹 Kampung Rajah,,,興義殿,,3.322727,101.574535
雪兰莪 Selangor,鹅唛  Gombak,重整村,甘榜拉惹 Kampung Rajah,,,万挠济公坛,,3.324413,101.572546
雪兰莪 Selangor,鹅唛  Gombak,重整村,美丽村 Sri Indah,,,慈航讲堂,,3.229551,101.576298
雪兰莪 Selangor,巴生  Klang,重整村,海南村 Bagan Hailam,,,天后庙,,3.002609,101.38647
雪兰莪 Selangor,巴生  Klang,重整村,海南村 Bagan Hailam,,,昭应祠,,3.002008,101.386942
雪兰莪 Selangor,巴生  Klang,重整村,五条港 Bagan Sungai Lima,,,旌阳宫,,3.041607,101.278754
雪兰莪 Selangor,巴生  Klang,重整村,五条港 Bagan Sungai Lima,,,五条港三魂公,,3.042935,101.279626
雪兰莪 Selangor,巴生  Klang,重整村,五条港 Bagan Sungai Lima,,,五条港拿督公,,3.04301,101.279739
雪兰莪 Selangor,巴生  Klang,重整村,吉胆岛 Pulau Ketam,,1968,协天宫Hiap Tian Kiong,关圣大帝,3.024394,101.250954
雪兰莪 Selangor,巴生  Klang,重整村,吉胆岛 Pulau Ketam,,1997,济仙洞关帝宫 Chee Sian Tong,关帝圣君,3.020613,101.251027
雪兰莪 Selangor,巴生  Klang,重整村,吉胆岛 Pulau Ketam,,1972之前,太上老君仙法师公古庙 Xian Fa Shi Gong,仙法师公,3.0334114,101.2467116
雪兰莪 Selangor,巴生  Klang,重整村,吉胆岛 Pulau Ketam,,1995,拿督娘娘宫Dato Neo-Neo Temple,拿督娘娘,3.022873,101.251885
雪兰莪 Selangor,巴生  Klang,重整村,吉胆岛 Pulau Ketam,,,阴应宫Yin Ying Kong,灵应公,3.026768,101.253856
雪兰莪 Selangor,巴生  Klang,重整村,吉胆岛 Pulau Ketam,,1966,宝圣宫Po Seng Keng,玄天上帝,3.023272,101.254639
雪兰莪 Selangor,巴生  Klang,重整村,吉胆岛 Pulau Ketam,,,白虎宫 Bai Hu Gong,白虎将军,3.020668,101.250506
雪兰莪 Selangor,巴生  Klang,重整村,吉胆岛 Pulau Ketam,,1978之前,南海观音亭Nan Hai Guan Yin Ting,南海观音,3.020844,101.249087
雪兰莪 Selangor,巴生  Klang,重整村,吉胆岛 Pulau Ketam,,1894,福龙宫 Hock Leng Keng,李府童子爷,3.022577,101.253344
雪兰莪 Selangor,巴生  Klang,重整村,吉胆岛 Pulau Ketam,,1872,昭应庙天后宫 Chiau Eng Bio Thiam Houh Kong,天上圣母,3.020996,101.255422
雪兰莪 Selangor,巴生  Klang,重整村,吉胆岛 Pulau Ketam,,,达摩祖师庙,,3.020287,101.248059
雪兰莪 Selangor,巴生  Klang,重整村,吉胆岛 Pulau Ketam,,,拿督公庙,,3.020292,101.248191
雪兰莪 Selangor,巴生  Klang,重整村,吉胆岛 Pulau Ketam,,,源順興綾厝,,3.020392,101.248963
雪兰莪 Selangor,巴生  Klang,重整村,吉胆岛 Pulau Ketam,,,吉胆岛海上拿督公,,3.026784,101.266199
雪兰莪 Selangor,巴生  Klang,重整村,吉胆岛 Pulau Ketam,,1954,南天宫 Nan Thian Keng,齐天大圣,3.02335,101.254882
雪兰莪 Selangor,巴生  Klang,重整村,吉胆岛 Pulau Ketam,,1964,白鹤仙法师公古庙Pek Hoh Siang Huat Sze Kong,达摩祖师,3.023235,101.26139
雪兰莪 Selangor,八打灵  Petaling,重整村,千百家村Kampung Cempaka,,1970,圣灵宫 Seng Leng Kong,关圣帝君,3.122929,101.601014
雪兰莪 Selangor,八打灵  Petaling,重整村,千百家村Kampung Cempaka,,1986,玄天上帝宫 Hean Tian Siong Teh Kiong,玄天上帝,3.127633,101.600028
雪兰莪 Selangor,八打灵  Petaling,重整村,千百家村Kampung Cempaka,,1920,阮梁圣佛宫 Yuen Leong Sing Fatt Temple,阮梁公圣佛,3.116805,101.597644
雪兰莪 Selangor,乌鲁冷岳  Hulu Langat,重整村,仙水港Bukit Angkat,,,加影瑶池宫,,2.996015,101.769281
雪兰莪 Selangor,乌鲁冷岳  Hulu Langat,重整村,仙水港Bukit Angkat,,1960,利安庙 Lee Onn Temple,三保公,2.996,101.770778
雪兰莪 Selangor,乌鲁冷岳  Hulu Langat,重整村,仙水港Bukit Angkat,,,菩提净宗学会Amitabha,,2.995087,101.768735
雪兰莪 Selangor,乌鲁冷岳  Hulu Langat,重整村,仙水港Bukit Angkat,,,三宝宫,,2.990668,101.767749
雪兰莪 Selangor,"鹅唛  Gombak,,",新村,甲洞乌鲁 Kepong Ulu,1950,1979,甲洞福庆堂观音庙,观音菩萨,3.22455,101.633173
雪兰莪 Selangor,"鹅唛  Gombak,,",新村,淡江 Kuala Ampang,1951,,淡江关帝庙,關帝聖君,3.165158,101.747812
雪兰莪 Selangor,"鹅唛  Gombak,,",新村,根登 Kundang,1951,,根登三殿大二伯爷府,大伯爷，二伯爷,3.276293,101.516233
雪兰莪 Selangor,"鹅唛  Gombak,,",新村,根登 Kundang,1952,二战时期（或更早）,根登三山国王庙,,3.277459,101.512857
雪兰莪 Selangor,"鹅唛  Gombak,,",新村,万挠 Sungai Terentang,1951,1963,金英坛 Kim Ying Tan,金英祖师,3.309114,101.589342
雪兰莪 Selangor,"鹅唛  Gombak,,",新村,万挠 Sungai Terentang,1951,,Chinese Temple Lks 10,,3.315405,101.575353
雪兰莪 Selangor,巴生 Klang,新村,班达马兰 Pendamaran,1952,1912,观南宫 Guan Nan Gong,哪督娘娘,3.00273,101.413061
雪兰莪 Selangor,巴生 Klang,新村,班达马兰 Pendamaran,1952,1937,慈竹庙,南海观音,3.001467,101.420936
雪兰莪 Selangor,巴生 Klang,新村,班达马兰 Pendamaran,1952,1950,班达马兰灵宝宫 Ling Bao Gong,田公元帅,3.007448,101.416504
雪兰莪 Selangor,巴生 Klang,新村,班达马兰 Pendamaran,1952,1950,天宝宫,玄天上帝,3.006707,101.412137
雪兰莪 Selangor,巴生 Klang,新村,班达马兰 Pendamaran,1952,1954,福进宫 Hock Chin Kong,张公圣君,3.013494,101.424185
雪兰莪 Selangor,巴生 Klang,新村,班达马兰 Pendamaran,1952,1954,菩提林,观音,3.007584,101.416388
雪兰莪 Selangor,巴生 Klang,新村,班达马兰 Pendamaran,1952,1955,广福宫,铁府元帅爷,,
雪兰莪 Selangor,巴生 Klang,新村,班达马兰 Pendamaran,1952,1962,观合宫,拿督公,3.004295，101.418887,
雪兰莪 Selangor,巴生 Klang,新村,班达马兰 Pendamaran,1952,1965,班达马兰再也二路尾关庆宫 Kwan Kheng Keng,拿督哈山比李,3.010748,101.424683
雪兰莪 Selangor,巴生 Klang,新村,班达马兰 Pendamaran,1952,1966,天恩道堂,-,3.039716,101.452558
雪兰莪 Selangor,巴生 Klang,新村,班达马兰 Pendamaran,1952,1967,班达马兰梨山圣母宫 Lai Suan Siah Boh Temple,众位仙法师公,3.006994,101.409313
雪兰莪 Selangor,巴生 Klang,新村,班达马兰 Pendamaran,1952,1970,班达马兰后尾芭清林寺 Qing Lin Si,释迦牟尼佛,2.999628,101.42084
雪兰莪 Selangor,巴生 Klang,新村,班达马兰 Pendamaran,1952,1970,班达马兰玉皇庙 Giok Hong Temple,玉皇大帝,3.007642,101.416296
雪兰莪 Selangor,巴生 Klang,新村,班达马兰 Pendamaran,1952,1975,观天宫 Kuan Tien Keng,哪啅哈芝莫哈曼,3.012525,101.417635
雪兰莪 Selangor,巴生 Klang,新村,班达马兰 Pendamaran,1952,1979,班达马兰东南宫 Tong Lam Gong,如来佛祖,3.002435,101.416094
雪兰莪 Selangor,巴生 Klang,新村,班达马兰 Pendamaran,1952,1980,班达马兰一区关顺宫 Guan Shun Gong,协天大帝,3.004896,101.410368
雪兰莪 Selangor,巴生 Klang,新村,班达马兰 Pendamaran,1952,1982,班达马兰二区天和宫 Tian He Gong,张公圣君,3.007564,101.410046
雪兰莪 Selangor,巴生 Klang,新村,班达马兰 Pendamaran,1952,1982,班达马兰咸水芭宝圣宫 Poh Seng Keng,北极玄天上帝,3.003635,101.416965
雪兰莪 Selangor,巴生 Klang,新村,班达马兰 Pendamaran,1952,1985,班达马兰一区尾张公坛 Tiew Kong Tuah,张公圣君,3.007824,101.465041
雪兰莪 Selangor,巴生 Klang,新村,班达马兰 Pendamaran,1952,1985,泗灵宫,拿督公,3.007521，101.414094,
雪兰莪 Selangor,巴生 Klang,新村,班达马兰 Pendamaran,1952,1985,观福宫,拿督公,3.004075，101.419147,
雪兰莪 Selangor,巴生 Klang,新村,班达马兰 Pendamaran,1952,1986,联福庙 Lian Fu Miao,拿督丹斯灵,3.007629,101.416598
雪兰莪 Selangor,巴生 Klang,新村,班达马兰 Pendamaran,1952,1989,莲花清人寺 Buddha Lotus,如来佛祖,3.012306,101.418058
雪兰莪 Selangor,巴生 Klang,新村,班达马兰 Pendamaran,1952,1993,班达马兰咸水芭莲安宫 Lian Ann Kong,莲花三太子,2.999696,101.412166
雪兰莪 Selangor,巴生 Klang,新村,班达马兰 Pendamaran,1952,1994,观灵宫,拿督克拉迈,,
雪兰莪 Selangor,巴生 Klang,新村,班达马兰 Pendamaran,1952,1997,班达马兰万津路妈祖庙 Mah Chor Temple,天后圣母,3.001314,101.420073
雪兰莪 Selangor,巴生 Klang,新村,班达马兰 Pendamaran,1952,1998,福德祠,福德正神,3.045987,101.440126
雪兰莪 Selangor,巴生 Klang,新村,班达马兰 Pendamaran,1952,1999,天法宫,章公圣君,3.015671，101.418431,
雪兰莪 Selangor,巴生 Klang,新村,班达马兰 Pendamaran,1952,2004,船头拿督公新宫,拿督公哈芝山,3.000928，101.420054,
雪兰莪 Selangor,巴生 Klang,新村,班达马兰 Pendamaran,1952,2007,班达马兰善童坛 Sin Thong Tuah,善才爷公,3.015594,101.424341
雪兰莪 Selangor,巴生 Klang,新村,班达马兰 Pendamaran,1952,-,靔宝宫,释迦摩尼,3.010751,101.424371
雪兰莪 Selangor,巴生 Klang,新村,班达马兰 Pendamaran,1952,-,万寿宫,大伯爷，二伯爷，牛头马面鬼卒,3.003154，101.416285,
雪兰莪 Selangor,巴生 Klang,新村,班达马兰 Pendamaran,1952,1950年代,顺天宫,惠泽尊王,,
雪兰莪 Selangor,巴生 Klang,新村,班达马兰 Pendamaran,1952,1953之前,班达马兰观西宫 Kuan Seh Keong,拿督翁,3.009866,101.417804
雪兰莪 Selangor,巴生 Klang,新村,班达马兰 Pendamaran,1952,1953之前,靔寿宫 Thian Siew Keng,齐天大圣,3.010808,101.424297
雪兰莪 Selangor,巴生 Klang,新村,班达马兰 Pendamaran,1952,1970年左右,孙福宫,大圣爷（齐天大圣），哪吒三太子,3.004416,101.413214
雪兰莪 Selangor,巴生 Klang,新村,班达马兰 Pendamaran,1952,1990年代,港口班达马兰师公坛,张天师,3.010078,101.41338
雪兰莪 Selangor,瓜拉冷岳 Kuala Langat,新村,仁嘉隆 Jenjarom,1950,1980,南海观音寺,南海观音,2.8808909,101.4938193
雪兰莪 Selangor,瓜拉冷岳 Kuala Langat,新村,仁嘉隆 Jenjarom,1950,1986,铜锣庙,关帝爷,2.874,101.4999
雪兰莪 Selangor,瓜拉冷岳 Kuala Langat,新村,仁嘉隆 Jenjarom,1950,1996,东禅寺,释迦摩尼佛,2.86865,101.49095
雪兰莪 Selangor,瓜拉冷岳 Kuala Langat,新村,仁嘉隆 Jenjarom,1950,2012,中元公会,城隍爷,-,
雪兰莪 Selangor,瓜拉冷岳 Kuala Langat,新村,仁嘉隆 Jenjarom,1950,-,仁嘉隆华光大帝祖师庙,华光大帝,2.871,101.495611
雪兰莪 Selangor,瓜拉冷岳 Kuala Langat,新村,仁嘉隆 Jenjarom,1950,-,雪兰莪仁嘉隆显威灵,张公圣君,,
雪兰莪 Selangor,瓜拉冷岳 Kuala Langat,新村,仁嘉隆 Jenjarom,1950,-,天宝安,萧公圣君,2.867889,101.492889
雪兰莪 Selangor,瓜拉冷岳 Kuala Langat,新村,仁嘉隆 Jenjarom,1950,-,三宝佛堂,大梵天皇,2.8665,101.492694
雪兰莪 Selangor,瓜拉冷岳 Kuala Langat,新村,仁嘉隆 Jenjarom,1950,-,阴府坛,大二伯爷,2.869361,101.494139
雪兰莪 Selangor,瓜拉冷岳 Kuala Langat,新村,仁嘉隆 Jenjarom,1950,-,仁嘉隆新村大地阴府坛,城隍爷,2.878111,101.490278
雪兰莪 Selangor,瓜拉冷岳 Kuala Langat,新村,仁嘉隆 Jenjarom,1950,1963之前,太保凤山寺,徐吴真仙,2.81557,101.49676
雪兰莪 Selangor,瓜拉冷岳 Kuala Langat,新村,仁嘉隆 Jenjarom,1950,1965之前,万寿宫,佘府大人,2.871944,101.496667
雪兰莪 Selangor,瓜拉冷岳 Kuala Langat,新村,仁嘉隆 Jenjarom,1950,1973之前,莲花宫,莲花三太子,2.82585,101.50732
雪兰莪 Selangor,瓜拉冷岳 Kuala Langat,新村,仁嘉隆 Jenjarom,1950,1978之前,忠义庙,协天大帝,2.82126,101.50302
雪兰莪 Selangor,瓜拉冷岳 Kuala Langat,新村,仁嘉隆 Jenjarom,1950,1999年迁入新宫,乾坤宫,金吒太子,2.8757049,101.4898887
雪兰莪 Selangor,瓜拉冷岳 Kuala Langat,新村,仁嘉隆 Jenjarom,1950,2004之前,天福宫,张公圣君,-,
雪兰莪 Selangor,瓜拉冷岳 Kuala Langat,新村,仁嘉隆 Jenjarom,1950,2008之前,罗汉宫,张公圣君,2.81689,101.49544
雪兰莪 Selangor,瓜拉冷岳 Kuala Langat,新村,仁嘉隆 Jenjarom,1950,,联军庙,,2.81665,101.49588
雪兰莪 Selangor,瓜拉雪兰莪 Kuala Selangor,新村,依约 Ijok Baru,1951,1978,振龙宫,哪吒三太子,3.3478,101.4126
雪兰莪 Selangor,瓜拉雪兰莪 Kuala Selangor,新村,依约 Ijok Baru,1951,,依约联合拿督公,,3.31625,101.416534
雪兰莪 Selangor,瓜拉雪兰莪 Kuala Selangor,新村,依约 Ijok Baru,1951,,依约天德宮,张公圣君,3.315623,101.41148
雪兰莪 Selangor,瓜拉雪兰莪 Kuala Selangor,新村,依约 Ijok Baru,1951,,明德佛堂,,3.316239,101.414022
雪兰莪 Selangor,瓜拉雪兰莪 Kuala Selangor,新村,八丁燕带 Batang Berjuntai,1956,1985重建,拿督公庙,法主公,3.3775,101.4092
雪兰莪 Selangor,瓜拉雪兰莪 Kuala Selangor,新村,峇东 Tiram Setia,1958,,峇东新村众位仙法师公古庙,,3.427292,101.24385
雪兰莪 Selangor,瓜拉雪兰莪 Kuala Selangor,新村,峇东 Tiram Setia,1958,,南天宫,,3.427459,101.24616
雪兰莪 Selangor,八打灵 Petaling,新村,史里肯邦安（沙登）Seri Kembangan (Serdang),1950,,法缘圣寺,,3.029269,101.70623
雪兰莪 Selangor,八打灵 Petaling,新村,史里肯邦安（沙登）Seri Kembangan (Serdang),1950,,佛爺庙,,3.029101,101.700365
雪兰莪 Selangor,八打灵 Petaling,新村,史里肯邦安（沙登）Seri Kembangan (Serdang),1950,,观音佛母,,3.026664,101.700503
雪兰莪 Selangor,八打灵 Petaling,新村,史里肯邦安（沙登）Seri Kembangan (Serdang),1950,,谭公廟,,3.021546,101.704754
雪兰莪 Selangor,八打灵 Petaling,新村,史里肯邦安（沙登）Seri Kembangan (Serdang),1950,,金佛精舍,,3.014655,101.699956
雪兰莪 Selangor,八打灵 Petaling,新村,史里肯邦安（沙登）Seri Kembangan (Serdang),1950,,天公亭,,3.012746,101.699568
雪兰莪 Selangor,八打灵 Petaling,新村,史里肯邦安（沙登）Seri Kembangan (Serdang),1950,,nalanda佛教会,,3.009886,101.713612
雪兰莪 Selangor,八打灵 Petaling,新村,史里肯邦安（沙登）Seri Kembangan (Serdang),1950,,Panku Ahkung Temple 盤古祖廟,,3.003738,101.735702
雪兰莪 Selangor,八打灵 Petaling,新村,双溪威 Seri Setia （Sungai Way）,1950,1973,灵应殿九皇大帝 Leng Eng Tian,九皇大帝,3.088491,101.620134
雪兰莪 Selangor,八打灵 Petaling,新村,双溪威 Seri Setia （Sungai Way）,1950,1950之前,桃园圣宫 Tho Guan Sen Temple,关圣帝君,3.088402,101.617255
雪兰莪 Selangor,八打灵 Petaling,新村,双溪威 Seri Setia （Sungai Way）,1950,1966,金英庙 Kam Ying Temple,三教老祖师 - 潮源洞师、金英祖师、茅山法主,3.088318,101.62175
雪兰莪 Selangor,八打灵 Petaling,新村,双溪毛糯 Sungai Buloh,1950,1962,观音庙 Kuan Yin Temple,观音菩萨,3.193875,101.569577
雪兰莪 Selangor,八打灵 Petaling,新村,双溪毛糯 Sungai Buloh,1950,1979,威灵宫 Wee Leng Keng,济公活佛,3.245105,101.565598
雪兰莪 Selangor,八打灵 Petaling,新村,双溪毛糯 Sungai Buloh,1950,-,福德正神 Fu De Zheng Shen,福德正神,3.234607,101.559938
雪兰莪 Selangor,雪邦 Sepang ,新村,沙叻 Salak,1952,1930多年,洛伽亭水尾圣娘庙,水尾圣娘,2.78172,101.75104
雪兰莪 Selangor,雪邦 Sepang ,新村,雪邦 Sepang,1950,1957,天龙宫,拿督公,2.68596,101.74872
雪兰莪 Selangor,雪邦 Sepang ,新村,雪邦 Sepang,1950,1985,玄武宫,玄武大帝,2.6856,101.74724
雪兰莪 Selangor,雪邦 Sepang ,新村,雪邦 Sepang,1950,1987,将军府,黄将军/元帅,2.68477,101.74689
雪兰莪 Selangor,雪邦 Sepang ,新村,雪邦 Sepang,1950,-,顺天宫,关圣帝君,2.68854,101.74877
雪兰莪 Selangor,雪邦 Sepang ,新村,雪邦 Sepang,1950,1980之前,雪州佛学会,释迦摩尼佛,2.68945,101.74849
雪兰莪 Selangor,雪邦 Sepang ,新村,雪邦 Sepang,1950,2000之前,红花亭,七仙红花女,2.68507,101.74727
雪兰莪 Selangor,雪邦 Sepang ,新村,龙溪 Dengkil,1950,1963,龙溪阿依淡观音宫,观音,2.87625,101.67574
雪兰莪 Selangor,雪邦 Sepang ,新村,龙溪 Dengkil,1950,1968,天湖宫,保生大帝,2.85822,101.68026
雪兰莪 Selangor,雪邦 Sepang ,新村,龙溪 Dengkil,1950,1983,莲花三太子庙,三太子,2.85762,101.68219
雪兰莪 Selangor,雪邦 Sepang ,新村,龙溪 Dengkil,1950,2005,观音宫,观音娘娘,2.86145,101.6828
雪兰莪 Selangor,雪邦 Sepang ,新村,龙溪 Dengkil,1950,-,圣灵宫,三太子,2.85673,101.67832
雪兰莪 Selangor,雪邦 Sepang ,新村,双溪比力 Sungai Pelek,1950,-,玄天宫,-,2.64318,101.71755
雪兰莪 Selangor,雪邦 Sepang ,新村,双溪比力 Sungai Pelek,1950,百年历史,龙山亭大伯公庙,大伯公,2.64096,101.71224
雪兰莪 Selangor,雪邦 Sepang ,新村,双溪比力 Sungai Pelek,1950,-,青龙宫,-,2.6393,101.71354
雪兰莪 Selangor,雪邦 Sepang ,新村,双溪比力 Sungai Pelek,1950,-,三一教,三一教主,2.64078,101.71653
雪兰莪 Selangor,雪邦 Sepang ,新村,双溪比力 Sungai Pelek,1950,-,旺相堂,-,2.64151,101.71193
雪兰莪 Selangor,雪邦 Sepang ,新村,双溪比力 Sungai Pelek,1950,1988成立筹委会，1989成为合法宗教团体,双溪比力佛学会,-,2.6458,101.71634
雪兰莪 Selangor,乌鲁冷岳 Hulu Langat,新村,安邦 Ampang,1952,1862,南天宫九皇爷 Nan Tian Gong Kau Ong Yah,九皇大帝,3.14154,101.764498
雪兰莪 Selangor,乌鲁冷岳 Hulu Langat,新村,安邦 Ampang,1952,1973,三教庙 Sam Kau Temple,三山祖师 - 呂公、茅公、毛公,3.140979,101.76093
雪兰莪 Selangor,乌鲁冷岳 Hulu Langat,新村,安邦 Ampang,1952,1972,大圣堂 Thai Sin Thong,齐天大圣,3.13929,101.759258
雪兰莪 Selangor,乌鲁冷岳 Hulu Langat,新村,安邦 Ampang,1952,1991,伏英馆 Fu Ying Guan,六壬仙师,3.135609,101.76648
雪兰莪 Selangor,乌鲁冷岳 Hulu Langat,新村,无拉港 Balakong,1950,,无拉港玉皇庙 Balakong Yu Huang Temple,,3.030484,101.748986
雪兰莪 Selangor,乌鲁冷岳 Hulu Langat,新村,无拉港 Balakong,1950,,星安廟,,3.031878,101.765854
雪兰莪 Selangor,乌鲁冷岳 Hulu Langat,新村,万宜 Bangi,1952,,万泉宫,,2.90106,101.782832
雪兰莪 Selangor,乌鲁冷岳 Hulu Langat,新村,万宜 Bangi,1952,,玉皇庙,,2.903998,101.784036
雪兰莪 Selangor,乌鲁冷岳 Hulu Langat,新村,蕉赖九英里 Batu 9，Cheras,1950,,靈惠廟,,3.069722,101.771266
雪兰莪 Selangor,乌鲁冷岳 Hulu Langat,新村,蕉赖九英里 Batu 9，Cheras,1950,,天福坛,,3.071447,101.770709
雪兰莪 Selangor,乌鲁冷岳 Hulu Langat,新村,蕉赖九英里 Batu 9，Cheras,1950,,三元天尊坛,,3.073281,101.769841
雪兰莪 Selangor,乌鲁冷岳 Hulu Langat,新村,锡米山 Sungai Chua,1950,,加影净妙佛教协会,,2.987517,101.772574
雪兰莪 Selangor,乌鲁冷岳 Hulu Langat,新村,锡米山 Sungai Chua,1950,,般若人文空间,,2.992651,101.777346
雪兰莪 Selangor,乌鲁冷岳 Hulu Langat,新村,武来岸（打仑）Broga（Tarun）,1950,,石哪督庙,,2.932009,101.924157
雪兰莪 Selangor,乌鲁雪兰莪 Hulu Selangor,新村,热水湖 Air Panas,1950,1975,观音堂,金华夫人，观音菩萨，关帝,3.593,101.6125
雪兰莪 Selangor,乌鲁雪兰莪 Hulu Selangor,新村,亚山公邦 Asam Kumbang，KKB,1950,,Yu Xu Gong Temple - Lot 736, KKB,3.520289,101.652656
雪兰莪 Selangor,乌鲁雪兰莪 Hulu Selangor,新村,峇冬加里 Batang Kali,1950,,觉静精舍,,3.4607,101.667631
雪兰莪 Selangor,乌鲁雪兰莪 Hulu Selangor,新村,峇冬加里 Batang Kali,1950,,四面佛,,3.464765,101.640473
雪兰莪 Selangor,乌鲁雪兰莪 Hulu Selangor,新村,峇冬加里 Batang Kali,1950,,福泉东山,,3.465642,101.640229
雪兰莪 Selangor,乌鲁雪兰莪 Hulu Selangor,新村,双文丹 Serendah,1950,1869,双文丹福灵宫 Hock Leng Keng Temple,关帝,3.366857,101.607017
雪兰莪 Selangor,乌鲁雪兰莪 Hulu Selangor,新村,双文丹 Serendah,1950,,妈祖庙,,3.36634,101.607028
雪兰莪 Selangor,乌鲁雪兰莪 Hulu Selangor,新村,叻思 Rasa,1950,,叻思天公坛,,3.491994,101.632567
雪兰莪 Selangor,乌鲁雪兰莪 Hulu Selangor,新村,叻思 Rasa,1950,,雷皇爷宫,,3.500407,101.631963
雪兰莪 Selangor,乌鲁雪兰莪 Hulu Selangor,新村,乌鲁音峇鲁 Ulu Yam Baru,1950,,Then Lam Keong Temple Ulu Yam Bharu,,3.43244,101.657406
雪兰莪 Selangor,瓜拉雪兰莪 Kuala Selangor,漁村,峇眼巴西Bagan Pasir,,,巴眼巴西众位仙法师公庙,,3.404149,101.170703
雪兰莪 Selangor,瓜拉雪兰莪 Kuala Selangor,漁村,巴西不南邦Bagan Pasir Penambang,,1983之前,七剑仙师佛祖古庙 Qi Jian Xian Shi Fo Zu Temple,七剑仙师佛祖,3.344003,101.253832
雪兰莪 Selangor,瓜拉雪兰莪 Kuala Selangor,漁村,巴西不南邦Bagan Pasir Penambang,,1925,凤山寺 Feng San Si,李府童子,3.350607,101.252167
雪兰莪 Selangor,瓜拉雪兰莪 Kuala Selangor,漁村,巴西不南邦Bagan Pasir Penambang,,1934,西灵宫 Xi Ling Gong,齐天大圣,3.34332,101.253944
雪兰莪 Selangor,瓜拉雪兰莪 Kuala Selangor,漁村,巴西不南邦Bagan Pasir Penambang,,,万佛寺,,,
雪兰莪 Selangor,瓜拉雪兰莪 Kuala Selangor,漁村,沙沙兰Bagan Sasaran (Sungai Buloh),,1973之前,仙法师公古庙 Sin Fatt Si Kong Temple,众位仙法师公,3.2595,101.303838
雪兰莪 Selangor,瓜拉雪兰莪 Kuala Selangor,漁村,沙沙兰Bagan Sasaran (Sungai Buloh),,1975,天圣宫 Tian Sheng Gong,张公圣君,3.260239,101.307214
雪兰莪 Selangor,瓜拉雪兰莪 Kuala Selangor,漁村,沙沙兰Bagan Sasaran (Sungai Buloh),,2000之前,南音堂 Nam Yin Tong,南海观音佛祖,3.261911,101.308624
雪兰莪 Selangor,瓜拉雪兰莪 Kuala Selangor,漁村,东姑腊Bagan Sungai Tengkorak,,,仙法师公古庙,,3.448813,101.134436
雪兰莪 Selangor,瓜拉雪兰莪 Kuala Selangor,漁村,东姑腊Bagan Sungai Tengkorak,,,八仙古庙,,3.451243,101.136895
雪兰莪 Selangor,瓜拉雪兰莪 Kuala Selangor,漁村,双溪由Bagan Sungai Yu Baru,,,孫太祖師壇,,3.354737,101.247455
雪兰莪 Selangor,沙白安南 Sabak Bernam,漁村,乌暹Bagan Nakhoda Omar (Simpang BNO),,,港口仙法師公古廟,,3.77051,100.874909
雪兰莪 Selangor,沙白安南 Sabak Bernam,漁村,新沟Bagan Parit Baru,,1969,港口仙法師公古廟,仙法师公,3.845545,100.845935
雪兰莪 Selangor,沙白安南 Sabak Bernam,漁村,水柳头Bagan Sungai Lang,,1943或更久,忠义庙,,3.845211,100.824696
雪兰莪 Selangor,沙白安南 Sabak Bernam,漁村,水柳头Bagan Sungai Lang,,1943或更久,扶保宫（拿督公庙）,拿督公,3.845165,100.824739
雪兰莪 Selangor,沙白安南 Sabak Bernam,漁村,浅顶Bagan Sungai Pulai,,,仙法師公古廟,达摩祖师,3.728036,100.920017
雪兰莪 Selangor,沙白安南 Sabak Bernam,漁村,浅顶Bagan Sungai Pulai,,,拿督公庙,拿督公,3.726449,100.916408
雪兰莪 Selangor,沙白安南 Sabak Bernam,漁村,浅顶Bagan Sungai Pulai,,,将军爷,将军爷,3.72814,100.919792
雪兰莪 Selangor,沙白安南 Sabak Bernam,漁村,直古鲁Bagan Teluk Rhu,,,德古魯港口仙法師公古廟,,,
雪兰莪 Selangor,巴生縣 Klang,城鎮,巴生市 Klang,1643,1911,五条路观音亭 Kwan Imm Temple,观音菩萨,3.037828,101.442767
雪兰莪 Selangor,巴生縣 Klang,城鎮,巴生市 Klang,1643,1913,宗孔堂 Chong Kong Tong,三一教主,3.052039,101.447674
雪兰莪 Selangor,巴生縣 Klang,城鎮,巴生市 Klang,1643,1940,椰脚紫云亭 Chee Hong Teng,乌髻观音佛祖,3.051535,101.444215
雪兰莪 Selangor,巴生縣 Klang,城鎮,巴生市 Klang,1643,1945,直落玻璃郑和三宝宫 Chen Her Sam Poh Temple,郑和三宝公,3.050771,101.421726
雪兰莪 Selangor,巴生縣 Klang,城鎮,巴生市 Klang,1643,1949,八宝宫 Put Poh King,张公圣君,3.135211,101.442245
雪兰莪 Selangor,巴生縣 Klang,城鎮,巴生市 Klang,1643,1950,天云宫 Tian Hoon Kong,张公圣君,3.060669,101.455402
雪兰莪 Selangor,巴生縣 Klang,城鎮,巴生市 Klang,1643,1951,中路张圣宫 Tew Seng Keng,张公圣君,3.063888,101.451384
雪兰莪 Selangor,巴生縣 Klang,城鎮,巴生市 Klang,1643,1952,河天宫 Hoh Thian Kiong,哪啅王祖宝贝,3.084919,101.399637
雪兰莪 Selangor,巴生縣 Klang,城鎮,巴生市 Klang,1643,1953,直落玻璃凤山寺公会 Hong San Si,广泽尊王,3.044205,101.432012
雪兰莪 Selangor,巴生縣 Klang,城鎮,巴生市 Klang,1643,1953,二支南山洞威灵宫 Nan Shan Dong Wei Ling Gong,金府元帅,3.06842,101.43387
雪兰莪 Selangor,巴生縣 Klang,城鎮,巴生市 Klang,1643,1956,福天宫 Hock Tian Keng,张公圣君,3.130982,101.440756
雪兰莪 Selangor,巴生縣 Klang,城鎮,巴生市 Klang,1643,1960,许大宫 Khor Tat Kong,许府大人,3.046007,101.450131
雪兰莪 Selangor,巴生縣 Klang,城鎮,巴生市 Klang,1643,1961,加埔路一支川童宫 Chung Tong Keng,萧公圣君,3.05706,101.444904
雪兰莪 Selangor,巴生縣 Klang,城鎮,巴生市 Klang,1643,1962,南阳宫 Nan Yoong Keong,惠泽尊王,3.070775,101.437057
雪兰莪 Selangor,巴生縣 Klang,城鎮,巴生市 Klang,1643,1962,永安园电線路顺福宫 Klang Soon Hock Kong,张公圣君,3.052249,101.458521
雪兰莪 Selangor,巴生縣 Klang,城鎮,巴生市 Klang,1643,1962,永安镇通圣洞 Tong Sheng Dong,哪督毛哈挽,3.05885,101.45634
雪兰莪 Selangor,巴生縣 Klang,城鎮,巴生市 Klang,1643,1963,沿海宫 Yan Hai Gong,拿督马鲁令,3.046427,101.449668
雪兰莪 Selangor,巴生縣 Klang,城鎮,巴生市 Klang,1643,1963,龙礼寺 Long Lye Sye,拿督马哈芝,3.046162,101.450154
雪兰莪 Selangor,巴生縣 Klang,城鎮,巴生市 Klang,1643,1967,北辰宫 Bei Chen Gong,大宋三忠王 - 陸秀夫，文天祥，张世傑,3.050495,101.441177
雪兰莪 Selangor,巴生縣 Klang,城鎮,巴生市 Klang,1643,1968,中路一支巴生园南天宫万寿坛 Nan Tian Gong Ban Siew Tan,张公圣君,3.065427,101.447735
雪兰莪 Selangor,巴生縣 Klang,城鎮,巴生市 Klang,1643,1968,加埔路六哩张福宫 Klang Tew Hock Kiong,张公圣君,3.088795,101.394652
雪兰莪 Selangor,巴生縣 Klang,城鎮,巴生市 Klang,1643,1970,中路中川宫 Zhong Chuan Gong,拿督哈芝甘曼,3.063447,101.452217
雪兰莪 Selangor,巴生縣 Klang,城鎮,巴生市 Klang,1643,1972,协天宫 Siah Tian Kong,关帝圣君,3.074097,101.434582
雪兰莪 Selangor,巴生縣 Klang,城鎮,巴生市 Klang,1643,1973,七玉殿 Qi Yu Dian,老七老八,3.045888,101.450045
雪兰莪 Selangor,巴生縣 Klang,城鎮,巴生市 Klang,1643,1975,龙和宫 Long He Kong,哪督亚巫峇甲依沙,3.061395,101.455252
雪兰莪 Selangor,巴生縣 Klang,城鎮,巴生市 Klang,1643,1977,莲亭寺 Lean Teng Sze,中坛元帅,3.060457,101.455787
雪兰莪 Selangor,巴生縣 Klang,城鎮,巴生市 Klang,1643,1978,河边路北極玄武殿 Bei Ji Xuan Wu Dian,玄天上帝公,3.053897,101.438292
雪兰莪 Selangor,巴生縣 Klang,城鎮,巴生市 Klang,1643,1978,甘榜爪哇九天庭 Kiew Tian Teng,玉皇大帝,3.028776,101.479421
雪兰莪 Selangor,巴生縣 Klang,城鎮,巴生市 Klang,1643,1979,汉寿亭侯关帝庙 Hon Sao Teng Hau Guan Di Temple,关圣帝君,3.060025,101.454763
雪兰莪 Selangor,巴生縣 Klang,城鎮,巴生市 Klang,1643,1980,张天宫 Zhang Tian Gong,张公圣君,3.050241,101.441228
雪兰莪 Selangor,巴生縣 Klang,城鎮,巴生市 Klang,1643,1981,加埔路二支凤山寺 Feng Shan Si,广泽大尊王,3.062222,101.439614
雪兰莪 Selangor,巴生縣 Klang,城鎮,巴生市 Klang,1643,1982,直落玻璃河边路天福宫 Tian Hock Kung,萧君二副,3.050257,101.427526
雪兰莪 Selangor,巴生縣 Klang,城鎮,巴生市 Klang,1643,1983,中路一支吧生园华光宝殿 Hua Guang Bao Dian,华光大帝,3.064345,101.445634
雪兰莪 Selangor,巴生縣 Klang,城鎮,巴生市 Klang,1643,1983,中路一支巴生园天福坛 Tien Hock Tua,关帝圣君,3.099475,101.442565
雪兰莪 Selangor,巴生縣 Klang,城鎮,巴生市 Klang,1643,1986,戩帅宫 Chin Swee Keng,杨戩大元帅,3.058014,101.454085
雪兰莪 Selangor,巴生縣 Klang,城鎮,巴生市 Klang,1643,1987,万寿宫 Wan Shou Gong,玉凤娘娘,3.100652,101.409037
雪兰莪 Selangor,巴生縣 Klang,城鎮,巴生市 Klang,1643,1988,木吒宫李府二太子 Li Fu Erh Tau Tze,木吒,3.050179,101.459804
雪兰莪 Selangor,巴生縣 Klang,城鎮,巴生市 Klang,1643,1991,双溪槟榔二支半马山灵宫 Ma San Ling Gong,洪公圣君,3.064329,101.428026
雪兰莪 Selangor,巴生縣 Klang,城鎮,巴生市 Klang,1643,1991,竹林观音庙 Choo Lian Kwan Yin Temple,关圣帝君,3.060533,101.455683
雪兰莪 Selangor,巴生縣 Klang,城鎮,巴生市 Klang,1643,1992,永安镇二副天福宫 Tian Hock Gong,法主公,3.059017,101.455902
雪兰莪 Selangor,巴生縣 Klang,城鎮,巴生市 Klang,1643,1993,圣福宫 Sheng Hock Gong,张公圣君,3.130733,101.440768
雪兰莪 Selangor,巴生縣 Klang,城鎮,巴生市 Klang,1643,1993,河边路石山哪督爷公 Shi Shan Dato Temple,哪督玛芝立,3.049489,101.431592
雪兰莪 Selangor,巴生縣 Klang,城鎮,巴生市 Klang,1643,1993,圣淘沙石壶宫 Cheok Wu Kong,张公圣君,3.003209,101.485894
雪兰莪 Selangor,巴生縣 Klang,城鎮,巴生市 Klang,1643,1996,良木宫 Liang Mu Kong,拿督哈芝华合,3.006912,101.444721
雪兰莪 Selangor,巴生縣 Klang,城鎮,巴生市 Klang,1643,1996,园拿督保灵宫 Poh Leng Keng,拿督东姑那希,3.062292,101.451072
雪兰莪 Selangor,巴生縣 Klang,城鎮,巴生市 Klang,1643,1998,紫林坛 Zi Lin Thang,南海观音,3.086687,101.414556
雪兰莪 Selangor,巴生縣 Klang,城鎮,巴生市 Klang,1643,1998,中路一支巴生园岩法坛 Yuen Fa Tham,洪公真人,3.092691,101.444169
雪兰莪 Selangor,巴生縣 Klang,城鎮,巴生市 Klang,1643,1999,圣淘沙北主宫 Bei Chu Gong,萧公法主,3.003626,101.465037
雪兰莪 Selangor,巴生縣 Klang,城鎮,巴生市 Klang,1643,2000,青龙宫 Ching Long Kong,南天雷震子元帅,3.057636,101.453588
雪兰莪 Selangor,巴生縣 Klang,城鎮,巴生市 Klang,1643,2000,中路六哩威灵宫 Wei Ling Keng,法主公,3.134233,101.442415
雪兰莪 Selangor,巴生縣 Klang,城鎮,巴生市 Klang,1643,2000,直落玻璃顺灵宫 Soon Leng Keng,哪督亚里,3.041996,101.429089
雪兰莪 Selangor,巴生縣 Klang,城鎮,巴生市 Klang,1643,2003,中路一支巴生园拿督公庙 Na Du Gong,拿督莫哈芝,3.098252,101.442802
雪兰莪 Selangor,巴生縣 Klang,城鎮,巴生市 Klang,1643,2003,圣淘沙哪督宫 Na Tok Keng,哪督哈山,3.009703,101.466084
雪兰莪 Selangor,巴生縣 Klang,城鎮,巴生市 Klang,1643,2004,圣淘沙石头宫 Chiok Tao Keng,哪督格拉曼,3.001168,101.469312
雪兰莪 Selangor,巴生縣 Klang,城鎮,巴生市 Klang,1643,2005,白音宫 Bai Yin Gong,白衣娘娘,3.005406,101.437709
雪兰莪 Selangor,巴生縣 Klang,城鎮,巴生市 Klang,1643,2005,直落玻璃阴府坛 Yin Hu Duan Temple,大二爷伯,3.046018,101.422507
雪兰莪 Selangor,巴生縣 Klang,城鎮,巴生市 Klang,1643,2005,崑崙坛 Kun Lun Than,萧公圣君,3.065365,101.41418
雪兰莪 Selangor,巴生縣 Klang,城鎮,巴生市 Klang,1643,2006,圣淘沙美华花园寿龟庙 Sou Gui Miao Temple,拿督黑面将军,3.015242,101.468284
雪兰莪 Selangor,巴生縣 Klang,城鎮,巴生市 Klang,1643,2006,加埔路二支半大伯公坛 Da Bo Gong Tang,大伯公,3.067882,101.436494
雪兰莪 Selangor,巴生縣 Klang,城鎮,巴生市 Klang,1643,2006,甘榜爪哇云峰坛 Yun Feng Tan,武功祖师,3.02164,101.480678
雪兰莪 Selangor,巴生縣 Klang,城鎮,巴生市 Klang,1643,2007,福德坛 Fu De Tan,福德正神,3.02135,101.4788
雪兰莪 Selangor,巴生縣 Klang,城鎮,巴生市 Klang,1643,2007,高阳苑中南庙 Zhong Nan Miao,哪督哈芝恩马士丁,3.006882,101.425829
雪兰莪 Selangor,巴生縣 Klang,城鎮,巴生市 Klang,1643,2008,天圣宫 Tian Shen Keng,张公圣君,3.131572,101.440671
雪兰莪 Selangor,巴生縣 Klang,城鎮,巴生市 Klang,1643,2008,河边路同心宫 Tong Xin Keng,哪督敦哈芝马斯淡,3.052315,101.431648
雪兰莪 Selangor,巴生縣 Klang,城鎮,巴生市 Klang,1643,2009,圣淘沙东岳坛 Dong Yue Than,大二爷伯,3.006555,101.461252
雪兰莪 Selangor,巴生縣 Klang,城鎮,巴生市 Klang,1643,2009,七星佛光真君坛 Qi Xing Fo Guang Zhen Jun Tan,西天茅山,3.000703,101.467489
雪兰莪 Selangor,巴生縣 Klang,城鎮,巴生市 Klang,1643,2011,圣淘沙福德宫 Fu De Gong,新加坡大伯公,2.996476,101.476412
雪兰莪 Selangor,巴生縣 Klang,城鎮,巴生市 Klang,1643,2011,河边路靔灵宫 Tian Leng Keng,莲花三太子,3.050193,101.431538
雪兰莪 Selangor,巴生縣 Klang,城鎮,巴生市 Klang,1643,1913之前,太和宫 Thai Hoe Kheng,拿督花蒂玛娘娘,3.049652,101.44266
雪兰莪 Selangor,巴生縣 Klang,城鎮,巴生市 Klang,1643,1950之前,青云洞 Ching Yun Tong,哪啅哥拉曼依爪,3.056278,101.44446
雪兰莪 Selangor,巴生縣 Klang,城鎮,巴生市 Klang,1643,1950之前,五条路开封府 Kai Hong Hoo,包公大人,3.037741,101.442447
雪兰莪 Selangor,巴生縣 Klang,城鎮,巴生市 Klang,1643,1955之前,太明宫 Tai Ming Gong,出巡将军,3.050807,101.441093
雪兰莪 Selangor,巴生縣 Klang,城鎮,巴生市 Klang,1643,1955之前,船头哪督 Chuan Tou Dato,馆港拿督,3.050828,101.440997
雪兰莪 Selangor,巴生縣 Klang,城鎮,巴生市 Klang,1643,1955之前,马基督哪卓公 Makitoh Temple,哪督马基督,3.051687,101.441641
雪兰莪 Selangor,巴生縣 Klang,城鎮,巴生市 Klang,1643,1955之前,镇海天后圣母宫 Zhen Hai Tian Hou Sheng Mu Temple,天后圣母,3.050522,101.44089
雪兰莪 Selangor,巴生縣 Klang,城鎮,巴生市 Klang,1643,1964 重建,椰脚联合庙 Lian He Temple,哪啅哈芝哥拉曼,3.050385,101.44703
雪兰莪 Selangor,巴生縣 Klang,城鎮,巴生市 Klang,1643,1975之前,进天宫 Jin Tian Gong,哪督赛澳士曼,3.046576,101.452035
雪兰莪 Selangor,巴生縣 Klang,城鎮,巴生市 Klang,1643,1995之前,直落玻璃东圣殿 Tong Shing Thien,东圣帝君,2.987901,101.429362
雪兰莪 Selangor,巴生縣 Klang,城鎮,巴生市 Klang,1643,,伍德宫 Ngoh Teck Keong,邱府王爷,2.999699,101.398596
雪兰莪 Selangor,巴生縣 Klang,城鎮,巴生市 Klang,1643,,大德壇,,3.076085,101.442617
雪兰莪 Selangor,巴生縣 Klang,城鎮,巴生市 Klang,1643,,镇安宫,天后娘娘,3.0251,101.4315
雪兰莪 Selangor,巴生縣 Klang,城鎮,巴生港 Pelabuhan Klang,1882,1918,巴生港口天福宫,李府童子,3.050227，101.427499,
雪兰莪 Selangor,巴生縣 Klang,城鎮,巴生港 Pelabuhan Klang,1882,1932,巴生港口天缘道堂（真空教）,,3.046179,101.45108
雪兰莪 Selangor,巴生縣 Klang,城鎮,巴生港 Pelabuhan Klang,1882,1953,直落昂全顺宫 Teluk Gong Quan Shun Gong,哪督亞里,2.950156,101.381265
雪兰莪 Selangor,巴生縣 Klang,城鎮,巴生港 Pelabuhan Klang,1882,1953,直落昂福灵宫 Teluk Gong Fu Ling Gong,张公圣君,2.921082,101.367048
雪兰莪 Selangor,巴生縣 Klang,城鎮,巴生港 Pelabuhan Klang,1882,1969,南山宫 Lam Suah Keng,金府元帅,3.007145,101.419165
雪兰莪 Selangor,巴生縣 Klang,城鎮,巴生港 Pelabuhan Klang,1882,1982,凤山寺 Hong Sun Si,广泽尊王,3.014074,101.426276
雪兰莪 Selangor,巴生縣 Klang,城鎮,巴生港 Pelabuhan Klang,1882,1983,月天宫 Geok Thian Keong,白兔娘娘,3.0093,101.399736
雪兰莪 Selangor,巴生縣 Klang,城鎮,巴生港 Pelabuhan Klang,1882,1988,直落昂慈德堂 Teluk Gong Ci De Tang,齐天大圣,2.958967,101.385532
雪兰莪 Selangor,巴生縣 Klang,城鎮,巴生港 Pelabuhan Klang,1882,1990,佛喃码万灵宫 Wan Ling Keng,哪督端敏地里,2.990201,101.402746
雪兰莪 Selangor,巴生縣 Klang,城鎮,巴生港 Pelabuhan Klang,1882,2002,直落昂八仙庙 Teluk Gong Pa Sien Meow,关帝圣君,2.956841,101.383808
雪兰莪 Selangor,巴生縣 Klang,城鎮,巴生港 Pelabuhan Klang,1882,2002,直落昂城隍庙 Teluk Gong Cheng Huang Meow,城隍爷,2.953076,101.38123
雪兰莪 Selangor,巴生縣 Klang,城鎮,巴生港 Pelabuhan Klang,1882,2004,直落昂西天宫 Teluk Gong Xi Tian Gong,西天大圣,2.949792,101.381077
雪兰莪 Selangor,巴生縣 Klang,城鎮,巴生港 Pelabuhan Klang,1882,2010,齐天门 Che Tian Men,西天大圣,3.009123,101.399553
雪兰莪 Selangor,巴生縣 Klang,城鎮,巴生港 Pelabuhan Klang,1882,2010,,蚶山哪督尊王,2.897545,101.47026
雪兰莪 Selangor,巴生縣 Klang,城鎮,加埔 Kapar,,1943,加埔路十四支天顺宫 Thian Soon Keng,拿督公,3.14458,101.351694
雪兰莪 Selangor,巴生縣 Klang,城鎮,加埔 Kapar,,1953,加埔路十二支三福宫 Sam Hock Temple,张公圣君,3.144586,101.351756
雪兰莪 Selangor,巴生縣 Klang,城鎮,加埔 Kapar,,1953,加埔路十支茅山法祖 Maoshan Fazo Temple,邱世开,3.120247,101.365229
雪兰莪 Selangor,巴生縣 Klang,城鎮,加埔 Kapar,,1954,九支天灵宫 Tian Leng Gong,拿督亚山,3.122749,101.366193
雪兰莪 Selangor,巴生縣 Klang,城鎮,加埔 Kapar,,1968,加埔路八支聚宝堂 Chi Poh Tong,福德正神,3.121287,101.365741
雪兰莪 Selangor,巴生縣 Klang,城鎮,加埔 Kapar,,1979,十一支兴化府 Heng Hua Foo,福主白马老师公,3.134501,101.364577
雪兰莪 Selangor,巴生縣 Klang,城鎮,加埔 Kapar,,1983,十五支天后宫 Kapar Tian Hor Kong,妈祖,3.172746,101.311216
雪兰莪 Selangor,巴生縣 Klang,城鎮,加埔 Kapar,,1993,横路茅山宫 Mau San Gong,茅山法祖,3.134669,101.383152
雪兰莪 Selangor,巴生縣 Klang,城鎮,加埔 Kapar,,1985之前,云天宫 Yun Tian Gong,张公圣君,3.14115,101.3741
雪兰莪 Selangor,鵝嘜縣 Gombak ,城鎮,萬撓 Rawang,1823,1869,师爷宫 See Yeah Kong,仙四师爷,3.321598,101.5769
雪兰莪 Selangor,鵝嘜縣 Gombak ,城鎮,萬撓 Rawang,1823,1945,三山国王庙 San Shan Guo Wang Temple,三山国王,3.277457,101.512858
雪兰莪 Selangor,鵝嘜縣 Gombak ,城鎮,萬撓 Rawang,1823,,三宝坛,,3.3247,101.5754
雪兰莪 Selangor,鵝嘜縣 Gombak ,城鎮,萬撓 Rawang,1823,,金龙山万佛寺 Jing Loong Shan Wan Fo Shih,,3.35542,101.58623
雪兰莪 Selangor,鵝嘜縣 Gombak ,城鎮,萬撓 Rawang,1823,,Liang Liang Temple 娘娘庙,,3.350045,101.589929
雪兰莪 Selangor,鵝嘜縣 Gombak ,城鎮,甲洞Kepong,,,甲洞帝沙齊孫宮,,3.212532,101.62476
雪兰莪 Selangor,鵝嘜縣 Gombak ,城鎮,甲洞Kepong,,,天万仙宫,,3.213182,101.631441
雪兰莪 Selangor,鵝嘜縣 Gombak ,城鎮,甲洞Kepong,,,大悲林,,3.215814,101.629085
雪兰莪 Selangor,鵝嘜縣 Gombak ,城鎮,黑风洞、峇都喼 Batu Caves,1860,1986,自在宫Chee Choy Kong,齐天大圣,3.252911,101.664482
雪兰莪 Selangor,鵝嘜縣 Gombak ,城鎮,黑风洞、峇都喼 Batu Caves,1860,1973之前,雪隆仙法师公古庙 Xian Fa Shi Gong Temple,仙法师公,3.251286,101.658145
雪兰莪 Selangor,鵝嘜縣 Gombak ,城鎮,黑风洞、峇都喼 Batu Caves,1860,1966,忠义庙 Tiong Yee Temple,关帝圣君,3.246139,101.667361
雪兰莪 Selangor,烏魯冷岳縣 Daerah Hulu Langat,城鎮,烏魯冷岳市Bandar Hulu Langat,,1890,仙四师爷庙 Sze Yah Temple,仙师爷、四师爷,3.117767,101.865865
雪兰莪 Selangor,烏魯冷岳縣 Daerah Hulu Langat,城鎮,烏魯冷岳市Bandar Hulu Langat,,1984,三清宫 Sam Ching Kong,元始天尊,3.114806,101.831605
雪兰莪 Selangor,烏魯冷岳縣 Daerah Hulu Langat,城鎮,烏魯冷岳市Bandar Hulu Langat,,,十八村桥边拿督公,,3.116865,101.828938
雪兰莪 Selangor,烏魯冷岳縣 Daerah Hulu Langat,城鎮,加影Kajang,1807,1897,师爷宫 Shen Sze She Yak Temple,仙四师爷,2.991821,101.786695
雪兰莪 Selangor,烏魯冷岳縣 Daerah Hulu Langat,城鎮,加影Kajang,1807,1943,丰天宫 Hong Tian Temple,九皇大帝,2.989152,101.774504
雪兰莪 Selangor,烏魯冷岳縣 Daerah Hulu Langat,城鎮,加影Kajang,1807,1958,观音亭 Kuan Yin Temple,观音菩萨,2.978734,101.79151
雪兰莪 Selangor,烏魯冷岳縣 Daerah Hulu Langat,城鎮,加影Kajang,1807,1971,南海观音神仙 Nan Hai Guan Yin Shen Xian,南海观音,2.98159,101.78749
雪兰莪 Selangor,烏魯冷岳縣 Daerah Hulu Langat,城鎮,加影Kajang,1807,1974,镇方寺 Tin Hong Sze,张天师,2.991407,101.786773
雪兰莪 Selangor,烏魯冷岳縣 Daerah Hulu Langat,城鎮,加影Kajang,1807,1953之前,魁镇庙 Kui Zhen Temple,田都元帅,2.978689,101.785849
雪兰莪 Selangor,烏魯冷岳縣 Daerah Hulu Langat,城鎮,加影Kajang,1807,1953之前,凤山寺 Feng Shan Si,广泽尊王,2.9725,101.790051
雪兰莪 Selangor,烏魯冷岳縣 Daerah Hulu Langat,城鎮,士毛月Semenyih,,1880,仙四师爷宫,四师爷，仙师爷,2.9487,101.8469
雪兰莪 Selangor,烏魯雪蘭莪縣 Hulu Selangor ,城鎮,烏魯音Bandar Ulu Yam,,1978,茅山法坛,茅山法主,3.4292,101.6587
雪兰莪 Selangor,烏魯雪蘭莪縣 Hulu Selangor ,城鎮,烏魯音Bandar Ulu Yam,,,南天宫,林府太师,3.4325,101.6572
雪兰莪 Selangor,烏魯雪蘭莪縣 Hulu Selangor ,城鎮,烏魯音Bandar Ulu Yam,,,南镇宫,法主公,3.4292,101.6585
雪兰莪 Selangor,烏魯雪蘭莪縣 Hulu Selangor ,城鎮,烏魯音Bandar Ulu Yam,,,蓬莱殿,清水祖师,3.4271,101.6605
雪兰莪 Selangor,烏魯雪蘭莪縣 Hulu Selangor ,城鎮,龍邦Kalumpang,,1902,龙邦古庙,观音菩萨,3.6399,101.5714
雪兰莪 Selangor,烏魯雪蘭莪縣 Hulu Selangor ,城鎮,新古毛Kuala Kubu Bharu,1780,2011,观音阁,观音菩萨,3.5602,101.6634
雪兰莪 Selangor,烏魯雪蘭莪縣 Hulu Selangor ,城鎮,新古毛Kuala Kubu Bharu,1780,1904,观音古寺,,3.537,101.6622
雪兰莪 Selangor,烏魯雪蘭莪縣 Hulu Selangor ,城鎮,新古毛Kuala Kubu Bharu,1780,1895,岳山古庙（岳山师爷宫）,阮公圣佛，梁公圣佛,3.5591,101.6612
雪兰莪 Selangor,烏魯雪蘭莪縣 Hulu Selangor ,城鎮,雙文丹Serendah,,1898,仙四师爷宫,仙师爷，四师爷,3.3665,101.6074
雪兰莪 Selangor,烏魯雪蘭莪縣 Hulu Selangor ,城鎮,峇冬加里Batang Kali,,1994,福泉庙,关帝,3.4656,101.6403
雪兰莪 Selangor,瓜拉冷岳縣 Kuala Langat ,城鎮,萬津Banting,,1897,天宝宫 Thean Poh Keong,蚶山哪督尊王,2.828343,101.41708
雪兰莪 Selangor,瓜拉冷岳縣 Kuala Langat ,城鎮,萬津Banting,,1988,新邦干宗福禄洞宫 Fu Lu Dong Gong,张公圣君,2.770802,101.472423
雪兰莪 Selangor,瓜拉冷岳縣 Kuala Langat ,城鎮,萬津Banting,,1990,新邦毛立碧云宫 Bi Yun Gong,太上老君,2.781063,101.466876
雪兰莪 Selangor,瓜拉冷岳縣 Kuala Langat ,城鎮,萬津Banting,,1999,天令坛 Tian Lin Tan,拿督公,2.835785,101.427914
雪兰莪 Selangor,瓜拉冷岳縣 Kuala Langat ,城鎮,萬津Banting,,2004,天圣坛 Tian Sheng Tan,齐天大圣,2.821012,101.500268
雪兰莪 Selangor,瓜拉冷岳縣 Kuala Langat ,城鎮,萬津Banting,,1943之前,三官庙 Sam Kuan Temple,三官大帝,2.822178,101.501225
雪兰莪 Selangor,瓜拉冷岳縣 Kuala Langat ,城鎮,萬津Banting,,1953之前,联军庙 Lian Jun Temple,玉皇大帝,2.816651,101.496052
雪兰莪 Selangor,瓜拉冷岳縣 Kuala Langat ,城鎮,萬津Banting,,1963之前,太保凤山寺 Tai Poh Hong San Si,徐吴真仙,2.81581,101.496491
雪兰莪 Selangor,瓜拉冷岳縣 Kuala Langat ,城鎮,萬津Banting,,1973之前,莲花宫 Lian Hua Gong,莲花三太子,2.824844,101.50594
雪兰莪 Selangor,瓜拉冷岳縣 Kuala Langat ,城鎮,萬津Banting,,1973之前,福圣宫 Hock Seng Geng,张公圣君,2.814484,101.500223
雪兰莪 Selangor,瓜拉冷岳縣 Kuala Langat ,城鎮,萬津Banting,,1983之前,忠义宫 Zhong Yi Gong,关帝圣君,2.813198,101.487753
雪兰莪 Selangor,瓜拉冷岳縣 Kuala Langat ,城鎮,萬津Banting,,1994之前,摩立慈航堂 Cheh Ang Tong,南海观音,2.770711,101.454096
雪兰莪 Selangor,瓜拉冷岳縣 Kuala Langat ,城鎮,萬津Banting,,,清兰宫 Qing Lan Gong,八仙,2.689893,101.4943
雪兰莪 Selangor,瓜拉冷岳縣 Kuala Langat ,城鎮,萬津Banting,,,新港顺天宫 Sun Tian Gong,元帅爷公,2.689818,101.4943
雪兰莪 Selangor,瓜拉冷岳縣 Kuala Langat ,城鎮,萬津Banting,,,峇东巴西顺天宫 Shun Tian Gong,玄天上帝,2.8277,101.41648
雪兰莪 Selangor,瓜拉冷岳縣 Kuala Langat ,城鎮,萬津Banting,,,摩立白马老师宫 Pak Mah Law See Kong,白马老师公,2.752262,101.443782
雪兰莪 Selangor,瓜拉冷岳縣 Kuala Langat ,城鎮,萬津Banting,,,龙仙宫,,2.812779,101.503806
雪兰莪 Selangor,瓜拉冷岳縣 Kuala Langat ,城鎮,丹绒士拔Tanjung Sepat,,1934,清龙宫 Cheng Leng Keng,乌鲁伯公 - 开山圣侯,2.658427,101.554141
雪兰莪 Selangor,瓜拉冷岳縣 Kuala Langat ,城鎮,丹绒士拔Tanjung Sepat,,1960,五雷仙法師公古廟,五雷仙法师公、达摩祖师、黄老仙师,2.65723,101.560413
雪兰莪 Selangor,瓜拉冷岳縣 Kuala Langat ,城鎮,丹绒士拔Tanjung Sepat,,1978,金经达摩祖师古庙,,,
雪兰莪 Selangor,瓜拉冷岳縣 Kuala Langat ,城鎮,丹绒士拔Tanjung Sepat,,2015,琉璃山药师佛寺,琉璃山药师佛,2.66251,101.59805
雪兰莪 Selangor,瓜拉冷岳縣 Kuala Langat ,城鎮,丹绒士拔Tanjung Sepat,,-,丹绒士拔佛学会,-,2.65875,101.56307
雪兰莪 Selangor,瓜拉冷岳縣 Kuala Langat ,城鎮,丹绒士拔Tanjung Sepat,,1913之前,顺天宫 Shun Tian Gong,铁元帅/元帅爷公,2.66005,101.561601
雪兰莪 Selangor,瓜拉冷岳縣 Kuala Langat ,城鎮,丹绒士拔Tanjung Sepat,,1963之前,风火院 Fong Huo Yuan,田府元帅,2.661322,101.556222
雪兰莪 Selangor,瓜拉冷岳縣 Kuala Langat ,城鎮,丹绒士拔Tanjung Sepat,,1973之前,玉封忠义宫 Choong Yee Temple,关圣帝君,2.661679,101.560355
雪兰莪 Selangor,瓜拉冷岳縣 Kuala Langat ,城鎮,丹绒士拔Tanjung Sepat,,1973之前,顺平宫 Shun Ping Gong,千手观音,2.692262,101.507229
雪兰莪 Selangor,瓜拉冷岳縣 Kuala Langat ,城鎮,丹绒士拔Tanjung Sepat,,,九龙堂 Jiu Long Tang,太史公,2.659939,101.561654
雪兰莪 Selangor,瓜拉冷岳縣 Kuala Langat ,城鎮,直落邦里瑪嘉朗 Telok Panglima Garang,,1897,岳福寿宫 Hock Siew Temple,张公圣君,2.897215,101.466351
雪兰莪 Selangor,瓜拉雪蘭莪縣 Kuala Selangor ,城鎮,瓜拉雪蘭莪Kuala Selangor,<1700,1888,天福宫 Tian Fu Gong,天上圣母,3.34256,101.24899
雪兰莪 Selangor,瓜拉雪蘭莪縣 Kuala Selangor ,城鎮,瓜拉雪蘭莪Kuala Selangor,<1700,1993之前,二支五祖庙 Wu Zu Temple,关帝圣君,3.318639,101.275434
雪兰莪 Selangor,瓜拉雪蘭莪縣 Kuala Selangor ,城鎮,瓜拉雪蘭莪Kuala Selangor,<1700,,关帝庙,,3.350577,101.249944
雪兰莪 Selangor,瓜拉雪蘭莪縣 Kuala Selangor ,城鎮,瓜拉雪蘭莪Kuala Selangor,<1700,,汶汀哥壩仙法師公古廟,,,
雪兰莪 Selangor,瓜拉雪蘭莪縣 Kuala Selangor ,城鎮,丹戎加弄Bandar Tanjong Karang,,1960,协天宫 Hiap Tien Gong,协天大帝,3.421553,101.183158
雪兰莪 Selangor,瓜拉雪蘭莪縣 Kuala Selangor ,城鎮,丹戎加弄Bandar Tanjong Karang,,1963,西天宫 Xi Tian Gong,齐天大圣,3.422553,101.18186
雪兰莪 Selangor,瓜拉雪蘭莪縣 Kuala Selangor ,城鎮,丹戎加弄Bandar Tanjong Karang,,1973,六支玉皇太子殿 Tai Zhi Temple,张公圣君,3.41245,101.192337
雪兰莪 Selangor,瓜拉雪蘭莪縣 Kuala Selangor ,城鎮,丹戎加弄Bandar Tanjong Karang,,1997,慈信坛 Chee Xin Tan,黄老仙师,3.423389,101.17776
雪兰莪 Selangor,瓜拉雪蘭莪縣 Kuala Selangor ,城鎮,丹戎加弄Bandar Tanjong Karang,,2004,平安宫 Ping Ann Keong,拿督公,3.4235,101.179389
雪兰莪 Selangor,瓜拉雪蘭莪縣 Kuala Selangor ,城鎮,丹戎加弄Bandar Tanjong Karang,,1913之前,六支副天福宫 Thian Hock Temple,妈祖,3.413331,101.193576
雪兰莪 Selangor,瓜拉雪蘭莪縣 Kuala Selangor ,城鎮,丹戎加弄Bandar Tanjong Karang,,,六支众位仙法师公古庙,,,
雪兰莪 Selangor,瓜拉雪蘭莪縣 Kuala Selangor ,城鎮,丹戎加弄Bandar Tanjong Karang,,,龙尾景众位仙法师公古庙,,,
雪兰莪 Selangor,瓜拉雪蘭莪縣 Kuala Selangor ,城鎮,而欖Pekan Jeram,,1955之前,天宝宫 Tian Poh Kong,白马老师公,3.186446,101.315349
雪兰莪 Selangor,瓜拉雪蘭莪縣 Kuala Selangor ,城鎮,而欖Pekan Jeram,,,天德宫 Tian De Gong,张公圣君,3.196911,101.314808
雪兰莪 Selangor,瓜拉雪蘭莪縣 Kuala Selangor ,城鎮,而欖Pekan Jeram,,1983,洪公宫 Ang Kong Temple,洪公真人,3.186047,101.316102
雪兰莪 Selangor,瓜拉雪蘭莪縣 Kuala Selangor ,城鎮,而欖Pekan Jeram,,1995,福顺宫 Hock Sun Keng,张公圣君,3.1742,101.3135
雪兰莪 Selangor,瓜拉雪蘭莪縣 Kuala Selangor ,城鎮,而欖Pekan Jeram,,1978之前,吉祥庵 Ji Xiang An,武功祖师,3.227252,101.314578
雪兰莪 Selangor,瓜拉雪蘭莪縣 Kuala Selangor ,城鎮,甘邦關丹Kampung Kuantan,,,天富宫,法主公,3.3604,101.3041
雪兰莪 Selangor,瓜拉雪蘭莪縣 Kuala Selangor ,城鎮,八丁燕帶Bestari Jaya,<1937,,天清法宫,,3.303491,101.411628
雪兰莪 Selangor,八打靈縣 Petaling ,城鎮,八打靈再也Petaling Jaya,,1963,山云宫 Sun Hoon Keong,广泽尊王,3.08272,101.647252
雪兰莪 Selangor,八打靈縣 Petaling ,城鎮,八打靈再也Petaling Jaya,,1973之前,五雷仙师坛 Wu Lei Xian Shi Temple,五雷仙师,3.083844,101.65199
雪兰莪 Selangor,八打靈縣 Petaling ,城鎮,八打靈再也Petaling Jaya,,1976之前,开封府龙图宫 Leng Toh Temple,包公大人,3.084207,101.651103
雪兰莪 Selangor,八打靈縣 Petaling ,城鎮,八打靈再也Petaling Jaya,,1953,阮梁圣公佛 Yeong Leong Beow,阮梁公圣佛,3.13027,101.631772
雪兰莪 Selangor,八打靈縣 Petaling ,城鎮,八打靈再也Petaling Jaya,,1969,斗母宫 Tow Boo Keong,九皇大帝,3.123905,101.629158
雪兰莪 Selangor,八打靈縣 Petaling ,城鎮,八打靈再也Petaling Jaya,,,佛光文教中心,,3.09675,101.611574
雪兰莪 Selangor,八打靈縣 Petaling ,城鎮,八打靈再也Petaling Jaya,,,观音亭,,3.091705,101.642305
雪兰莪 Selangor,八打靈縣 Petaling ,城鎮,莎阿南Shah Alam,,,西圣庙,孙悟空,3.127,101.5308
雪兰莪 Selangor,八打靈縣 Petaling ,城鎮,莎阿南Shah Alam,,1945之前,道济宫 Dao Ji Gong,济公仙师,3.132116,101.53784
雪兰莪 Selangor,八打靈縣 Petaling ,城鎮,莎阿南Shah Alam,,,九天庭,,3.029203,101.479863
雪兰莪 Selangor,八打靈縣 Petaling ,城鎮,蒲種Puchong,1900s,1960,凤仙寺 Feng Xian Si,七仙女,3.057677,101.624709
雪兰莪 Selangor,八打靈縣 Petaling ,城鎮,蒲種Puchong,1900s,1913之前,观音殿 Kuan Yin Tien,观音菩萨,3.057795，101.638494,
雪兰莪 Selangor,八打靈縣 Petaling ,城鎮,蒲種Puchong,1900s,1969之前,华光庙 Hua Guang Temple,华光太帝,2.962674,101.612769
雪兰莪 Selangor,八打靈縣 Petaling ,城鎮,蒲種Puchong,1900s,,蒲种英达花园拿督公庙,,3.012199,101.604649
雪兰莪 Selangor,八打靈縣 Petaling ,城鎮,沙登Seri Kembangan,1950,1960之前,玉皇庙 Yu Huang Temple,玉皇大帝,3.030502,101.748979
雪兰莪 Selangor,八打靈縣 Petaling ,城鎮,梳邦再也Subang Jaya,,,法炬山法藏寺,,3.051607,101.594346
雪兰莪 Selangor,八打靈縣 Petaling ,城鎮,梳邦再也Subang Jaya,,,首邦再也佛教會,,3.064038,101.593472
雪兰莪 Selangor,沙白安南縣 Sabak Bernam ,城鎮,六條溝Pekan Parit Enam,,1987,天法宫 Tian Fa Gong,天法师,3.726471,100.979704
雪兰莪 Selangor,沙白安南縣 Sabak Bernam ,城鎮,適耕莊Sekinchan,,1945,天福宫 Thean Hok Kion,张公圣君,3.50922,101.10544
雪兰莪 Selangor,沙白安南縣 Sabak Bernam ,城鎮,適耕莊Sekinchan,,1973,关帝庙 Kuan Ti Temple,关帝圣君,3.508004,101.105785
雪兰莪 Selangor,沙白安南縣 Sabak Bernam ,城鎮,適耕莊Sekinchan,,1978,南天宫九皇大帝 Nan Tian Gong Jiu Wang Ye,九皇大帝,3.523655,101.142049
雪兰莪 Selangor,沙白安南縣 Sabak Bernam ,城鎮,適耕莊Sekinchan,,1982,水尾圣娘庙 Hainam Swee Buey Ting Niang,水尾圣娘,3.508675,101.105392
雪兰莪 Selangor,沙白安南縣 Sabak Bernam ,城鎮,適耕莊Sekinchan,,1998,南海观音菩萨 Nan Hai Kuan Yin Temple,南海观世音菩萨,3.505549,101.098842
雪兰莪 Selangor,沙白安南縣 Sabak Bernam ,城鎮,適耕莊Sekinchan,,2004,德教會紫沛閣,,3.511728,101.097804
雪兰莪 Selangor,沙白安南縣 Sabak Bernam ,城鎮,適耕莊Sekinchan,,2007,广泽尊王坛 Guang Ze Zun Wang Tan（尊王庙）,广泽尊王,3.501388,101.097093
雪兰莪 Selangor,沙白安南縣 Sabak Bernam ,城鎮,適耕莊Sekinchan,,1960之前,保安宫 Bao An Gong,秀姑圣神,3.510808,101.099831
雪兰莪 Selangor,沙白安南縣 Sabak Bernam ,城鎮,適耕莊Sekinchan,,,镇龙宫 Zhen Long Gong,李府童子,3.508339,101.094427
雪兰莪 Selangor,沙白安南縣 Sabak Bernam ,城鎮,適耕莊Sekinchan,,,仙法师公古庙 Xian Fa Shi Gong Gu Miao,仙法师公,3.505065,101.098938
雪兰莪 Selangor,沙白安南縣 Sabak Bernam ,城鎮,適耕莊Sekinchan,,,济公活佛庙 Ji Gong Huo Fo Temple,济公活佛,3.504397,101.100726
雪兰莪 Selangor,沙白安南縣 Sabak Bernam ,城鎮,沙白鎮Sabak,,1890,河边街天福宫 Thien Hock Kong,张公圣君,3.769809,100.982199
雪兰莪 Selangor,沙白安南縣 Sabak Bernam ,城鎮,沙白鎮Sabak,,1962,河畔关帝庙 Guan Di Temple,关帝圣君,3.776629,100.987836
雪兰莪 Selangor,沙白安南縣 Sabak Bernam ,城鎮,沙白鎮Sabak,,2000,南佛光堂地母娘娘宫 Foh Guang Tang Di Mu Niang Niang Gong,地母娘娘,3.763333,100.96629
雪兰莪 Selangor,沙白安南縣 Sabak Bernam ,城鎮,沙白鎮Sabak,,2004,祖师宫 Zu Shi Gong,盘古帝皇,3.763769,100.988385
雪兰莪 Selangor,沙白安南縣 Sabak Bernam ,城鎮,沙白鎮Sabak,,1970之前,天福宫 Theam Hock Keong,张公圣君,3.767206,100.991558
雪兰莪 Selangor,沙白安南縣 Sabak Bernam ,城鎮,沙白鎮Sabak,,1975之前,释迦庵 Shi Jia An,释迦牟尼佛,3.765047,100.990879
雪兰莪 Selangor,沙白安南縣 Sabak Bernam ,城鎮,沙白鎮Sabak,,1983之前,白莲寺 Pek Lian Si,观音佛祖,3.77403,100.991554
雪兰莪 Selangor,沙白安南縣 Sabak Bernam ,城鎮,沙白鎮Sabak,,1983之前,仙法师公古庙 Xian Fa Shi Gong Temple,达摩祖师,3.6715,100.9842
雪兰莪 Selangor,沙白安南縣 Sabak Bernam ,城鎮,沙白鎮Sabak,,1983之前,云仙坛 Yun Xian Tan,洪法仙师,,
雪兰莪 Selangor,沙白安南縣 Sabak Bernam ,城鎮,沙白鎮Sabak,,,武圣坛 Wu Sheng Tan,协天大帝,3.768149,100.986731
雪兰莪 Selangor,沙白安南縣 Sabak Bernam ,城鎮,沙白鎮Sabak,,,派财四面佛天法宫,,3.72657,100.979714
雪兰莪 Selangor,沙白安南縣 Sabak Bernam ,城鎮,沙白鎮Sabak,,,仙法师公古庙2,达摩祖师,3.6694,100.9804
雪兰莪 Selangor,沙白安南縣 Sabak Bernam ,城鎮,大港Sungai Besar,,1967,白鹤仙法师宫 Bai He Xian Fa Shi Gong,五祖仙法师,3.673415,100.982336
雪兰莪 Selangor,沙白安南縣 Sabak Bernam ,城鎮,大港Sungai Besar,,1970,八仙古庙 Pak Sen Ko Bio,七剑仙师佛祖,3.674006,100.982792
雪兰莪 Selangor,沙白安南縣 Sabak Bernam ,城鎮,大港Sungai Besar,,1973,福顺宫 Hock Soon Keong,张公圣君,3.677504,100.984912
雪兰莪 Selangor,沙白安南縣 Sabak Bernam ,城鎮,大港Sungai Besar,,1985,天德堂 Tien Teck Tong,如来佛祖,3.671276,100.98467
雪兰莪 Selangor,沙白安南縣 Sabak Bernam ,城鎮,大港Sungai Besar,,1989,善财童子庙 Sian Chai Tong Zhi Temple,南海观世音菩萨,3.674304,100.980762
雪兰莪 Selangor,沙白安南縣 Sabak Bernam ,城鎮,大港Sungai Besar,,1996,永安宫 Eng Onn Kong,拿督南利,3.677592,100.984889
雪兰莪 Selangor,沙白安南縣 Sabak Bernam ,城鎮,大港Sungai Besar,,,篮啅庙,拿督公,3.6667,100.982
雪兰莪 Selangor,沙白安南縣 Sabak Bernam ,城鎮,大港Sungai Besar,,,四仙师公庙,达摩祖师,3.6704,100.9796
雪兰莪 Selangor,瓜拉冷岳縣 Kuala Langat ,城鎮,丹绒士拔Tanjung Sepat,,1938,陈氏宗祠,祖皇,2.65834,101.55889
雪兰莪 Selangor,瓜拉冷岳縣 Kuala Langat ,城鎮,丹绒士拔Tanjung Sepat,,1969,宝树堂/谢氏宗祠,,2.6572,101.56063
雪兰莪 Selangor,瓜拉冷岳縣 Kuala Langat ,城鎮,丹绒士拔Tanjung Sepat,,1959年（可能更早）,太阳庙,太阳星君,2.65926,101.55745
雪兰莪 Selangor,瓜拉冷岳縣 Kuala Langat ,城鎮,丹绒士拔Tanjung Sepat,,,坑口庙,田都元帅,2.65843,101.57113
雪兰莪 Selangor,瓜拉冷岳縣 Kuala Langat ,城鎮,丹绒士拔Tanjung Sepat,,1952,天后宫,天后圣母,2.65941,101.55987
雪兰莪 Selangor,瓜拉冷岳縣 Kuala Langat ,城鎮,丹绒士拔Tanjung Sepat,,,雪兰莪丹绒士拔石云宫,张公圣君,2.65098,101.58263
雪兰莪 Selangor,瓜拉冷岳縣 Kuala Langat ,城鎮,丹绒士拔Tanjung Sepat,,,Siamese Temple,,2.66321,101.56383
雪兰莪 Selangor,瓜拉冷岳縣 Kuala Langat ,城鎮,丹绒士拔Tanjung Sepat,,1960,五雷仙法師公古廟（天雷亭）,,2.6565893,101.5600762
雪兰莪 Selangor,瓜拉冷岳縣 Kuala Langat ,城鎮,丹绒士拔Tanjung Sepat,,,丹绒士拔林氏宗祠,,,
雪兰莪 Selangor,瓜拉冷岳縣 Kuala Langat ,城鎮,丹绒士拔Tanjung Sepat,,,,,,
