{
"type": "FeatureCollection",
"name": "Category_3",
"crs": { "type": "name", "properties": { "name": "urn:ogc:def:crs:OGC:1.3:CRS84" } },
"features": [
{ "type": "Feature", "properties": { "Name_CH": "福泉安公冢", "Name_ML": "Perkuburan Hock Chuan An Jerlun", "Name_EN": null, "Location": "Pekan Jerlun Mk, 01150 Jerlun, Kedah.", "Longitude": 103.3895446, "Latitude": 3.492095, "Region": "Kedah", "Category": "慈善福利", "PageNumber": "57" }, "geometry": { "type": "Point", "coordinates": [ 103.3895, 3.4921, 103.3895 ] } },
{ "type": "Feature", "properties": { "Name_CH": "福龙山坟山小组", "Name_ML": "Persatuan Hokkien Kedah Selatan", "Name_EN": null, "Location": "291, Jalan Pasar 09000 Kulim, Kedah.", "Longitude": 100.5556366, "Latitude": 5.3694705, "Region": "Kedah", "Category": "慈善福利", "PageNumber": "57" }, "geometry": { "type": "Point", "coordinates": [ 100.5556, 5.3695, 100.5556 ] } },
{ "type": "Feature", "properties": { "Name_CH": "高岭广东公冢", "Name_ML": "Persatuan Jawatankuasa Pengurusan Tanah Perkuburan Kwantung Kodiang Kedah", "Name_EN": null, "Location": "15, Taman Bahagia, Jalan Perlis, 06100 Kodiang, Kedah.", "Longitude": 100.354649, "Latitude": 6.108671, "Region": "Kedah", "Category": "慈善福利", "PageNumber": "57" }, "geometry": { "type": "Point", "coordinates": [ 100.3546, 6.1087, 100.3546 ] } },
{ "type": "Feature", "properties": { "Name_CH": "波各先那互助会", "Name_ML": "Persatuan Kebajikan Penduduk Kampung Baru Pokok Sena, Kedah", "Name_EN": null, "Location": "181-A, Lorong 4 Kiri, 06400 Pokok Sena, Kedah. ", "Longitude": 100.6872457, "Latitude": 6.1511113, "Region": "Kedah", "Category": "慈善福利", "PageNumber": "57" }, "geometry": { "type": "Point", "coordinates": [ 100.6872, 6.1511, 100.6872 ] } },
{ "type": "Feature", "properties": { "Name_CH": "浮罗玉及文曼华人义山理事会", "Name_ML": "Jawatankuasa Perkuburan Orang-Orang Cina", "Name_EN": null, "Location": "Pulau Nyior & Gemban, Jitra, Kedah.", "Longitude": 100.3946198, "Latitude": 6.2824821, "Region": "Kedah", "Category": "慈善福利", "PageNumber": "57" }, "geometry": { "type": "Point", "coordinates": [ 100.3946, 6.2825, 100.3946 ] } },
{ "type": "Feature", "properties": { "Name_CH": "端影义务消防队", "Name_ML": "Pasokan Bomba Sukarela Pekan Tunjang Kedah", "Name_EN": null, "Location": "36, Pekan Tunjang, 06000 Jitra, Kedah.", "Longitude": 100.3744613, "Latitude": 6.2868161, "Region": "Kedah", "Category": "慈善福利", "PageNumber": "57" }, "geometry": { "type": "Point", "coordinates": [ 100.3745, 6.2868, 100.3745 ] } },
{ "type": "Feature", "properties": { "Name_CH": "浮罗交怡中华会馆", "Name_ML": "Chung Hwa Hoay Kuan Kedah", "Name_EN": null, "Location": "12 Pekan Kuah, 07000 Langkawi, Kedah.", "Longitude": 99.8513461, "Latitude": 6.3186696, "Region": "Kedah", "Category": "慈善福利", "PageNumber": "57" }, "geometry": { "type": "Point", "coordinates": [ 99.8513, 6.3187, 99.8513 ] } },
{ "type": "Feature", "properties": { "Name_CH": "巴东昔拉义务消防队", "Name_ML": "Pasukan Bomba Sukarela Padang Sera", "Name_EN": null, "Location": "37, Padang Sera, 06100 Kodiang, Kedah.", "Longitude": 100.3389712, "Latitude": 6.3565963, "Region": "Kedah", "Category": "慈善福利", "PageNumber": "57" }, "geometry": { "type": "Point", "coordinates": [ 100.339, 6.3566, 100.339 ] } },
{ "type": "Feature", "properties": { "Name_CH": "吉打居林永爱之家", "Name_ML": "Persatuan Bakti Yong Ai Daerah Kulim Kedah", "Name_EN": null, "Location": "121 Lorong Semarak 1, Taman Semaeak, 09000 Kulim, Kedah.", "Longitude": 100.5422899, "Latitude": 5.3786261, "Region": "Kedah", "Category": "慈善福利", "PageNumber": "58" }, "geometry": { "type": "Point", "coordinates": [ 100.5423, 5.3786, 100.5423 ] } },
{ "type": "Feature", "properties": { "Name_CH": "吉北皂礼山华人公冢理事会", "Name_ML": "Persatuan Jawatankuasa Pengurusan Tanah Perkuburan Orang-Orang Awam Cina Bukit Choras Kedah", "Name_EN": null, "Location": "Seng Wor Ricemill, Bukit Besar, Kota Sarang Semut, 06800 Alor Star, Kedah.", "Longitude": 100.4133333, "Latitude": 5.9536111, "Region": "Kedah", "Category": "慈善福利", "PageNumber": "58" }, "geometry": { "type": "Point", "coordinates": [ 100.4133, 5.9536, 100.4133 ] } },
{ "type": "Feature", "properties": { "Name_CH": "华联公会第一及第二公冢", "Name_ML": "Persatuan Hwa Lian Pendang", "Name_EN": null, "Location": "Bangunan Persatuan Hwa Lian, 06700 Pendang, Kedah.", "Longitude": 100.5746224, "Latitude": 6.0072868, "Region": "Kedah", "Category": "慈善福利", "PageNumber": "58" }, "geometry": { "type": "Point", "coordinates": [ 100.5746, 6.0073, 100.5746 ] } },
{ "type": "Feature", "properties": { "Name_CH": "吉打多皆华人公冢", "Name_ML": "Tanah Perkuburan Orang-orang China Tokai", "Name_EN": null, "Location": "c\/o M.C.A. Cawangan Tokai, Pekan Tokai, 06660 Alor Star, Kedah.", "Longitude": 100.412112, "Latitude": 6.0272533, "Region": "Kedah", "Category": "慈善福利", "PageNumber": "58" }, "geometry": { "type": "Point", "coordinates": [ 100.4121, 6.0273, 100.4121 ] } },
{ "type": "Feature", "properties": { "Name_CH": "吉打十字港华联公会", "Name_ML": "Persatuan Kebajian Orang-orang Tionghua Simpang Kedah.", "Name_EN": null, "Location": "Dewan Tokong Kee Tian Kung, Jalan Tokai Simpang Empat, 06050 Alor Star, Kedah.", "Longitude": 100.4292749, "Latitude": 6.0283397, "Region": "Kedah", "Category": "慈善福利", "PageNumber": "58" }, "geometry": { "type": "Point", "coordinates": [ 100.4293, 6.0283, 100.4293 ] } },
{ "type": "Feature", "properties": { "Name_CH": "吉北老新港广东公冢理事会", "Name_ML": "Pertubuhan Perkuburan Kwang Tung Kedah Utara", "Name_EN": null, "Location": "67, Telagar Juan, Kubang Rotan, 06250 Alor Setar, Kedah.", "Longitude": 100.30198, "Latitude": 6.13564, "Region": "Kedah", "Category": "慈善福利", "PageNumber": "58" }, "geometry": { "type": "Point", "coordinates": [ 100.302, 6.1356, 100.302 ] } },
{ "type": "Feature", "properties": { "Name_CH": "吉打波各先那义务消防队", "Name_ML": "Persatuan Bomba Sukarela Pokok Sena", "Name_EN": null, "Location": "Lot 47, Kg. Jalan Pahchor, 06400 Pokok Sena, Alor Star, Kedah.", "Longitude": 100.469345, "Latitude": 6.155521, "Region": "Kedah", "Category": "慈善福利", "PageNumber": "58" }, "geometry": { "type": "Point", "coordinates": [ 100.4693, 6.1555, 100.4693 ] } },
{ "type": "Feature", "properties": { "Name_CH": "吉打高岭福建公冢理事会", "Name_ML": "Jawatankuasa Tanah Perkuburan Hokkien Kodiang Kedah", "Name_EN": null, "Location": "99, Railway Station, 06100 Kodiang, Kedah.", "Longitude": 100.3385624, "Latitude": 6.3779484, "Region": "Kedah", "Category": "慈善福利", "PageNumber": "58" }, "geometry": { "type": "Point", "coordinates": [ 100.3386, 6.3779, 100.3386 ] } },
{ "type": "Feature", "properties": { "Name_CH": "吉打高岭义务消防队", "Name_ML": "Pasukan Bomba Sukarela Mukim Keplu", "Name_EN": null, "Location": "99, Railway Station, 06100 Kodiang, Kedah.", "Longitude": 100.3385624, "Latitude": 6.3779484, "Region": "Kedah", "Category": "慈善福利", "PageNumber": "58" }, "geometry": { "type": "Point", "coordinates": [ 100.3386, 6.3779, 100.3386 ] } },
{ "type": "Feature", "properties": { "Name_CH": "瓜拉民浪华人义山", "Name_ML": "Perkubuhan Cina Kuala Nerang", "Name_EN": null, "Location": null, "Longitude": null, "Latitude": null, "Region": "Kedah", "Category": "慈善福利", "PageNumber": "58" }, "geometry": null },
{ "type": "Feature", "properties": { "Name_CH": "吉玻海南会馆公冢", "Name_ML": "Tanah Kubur Persatuan Hainan Kedah \/ Perlis Pokok Sena Mukim Jabi Lot 1342", "Name_EN": null, "Location": null, "Longitude": null, "Latitude": null, "Region": "Kedah", "Category": "慈善福利", "PageNumber": "58" }, "geometry": null },
{ "type": "Feature", "properties": { "Name_CH": "吉打莪仑华人公冢理事会", "Name_ML": "Perkuburan Perkuburan Cina Gurun Kedah", "Name_EN": null, "Location": null, "Longitude": null, "Latitude": null, "Region": "Kedah", "Category": "慈善福利", "PageNumber": "58" }, "geometry": null },
{ "type": "Feature", "properties": { "Name_CH": "吉南拉岸华人义山", "Name_ML": "Perkuburan Orang Cina Karangan", "Name_EN": null, "Location": "88-A, Dewan Orang Ramai, Karangan, 09700 Kulim, Kedah.", "Longitude": 100.5387767, "Latitude": 5.3337673, "Region": "Kedah", "Category": "慈善福利", "PageNumber": "59" }, "geometry": { "type": "Point", "coordinates": [ 100.5388, 5.3338, 100.5388 ] } },
{ "type": "Feature", "properties": { "Name_CH": "吉南韩江公会", "Name_ML": null, "Name_EN": "Hang Kang Association& Kedah", "Location": "29, Jalan Raya, 09000 Kulim, Kedah.", "Longitude": 100.5552646, "Latitude": 5.3680671, "Region": "Kedah", "Category": "慈善福利", "PageNumber": "59" }, "geometry": { "type": "Point", "coordinates": [ 100.5553, 5.3681, 100.5553 ] } },
{ "type": "Feature", "properties": { "Name_CH": "加拉岸义务消防队", "Name_ML": "Persatuan Pasukan Bomba Sukarela Karangan", "Name_EN": null, "Location": "101, Pekan Karangan, 09700 Karangan, Kedah.", "Longitude": 100.6674156, "Latitude": 5.4205609, "Region": "Kedah", "Category": "慈善福利", "PageNumber": "59" }, "geometry": { "type": "Point", "coordinates": [ 100.6674, 5.4206, 100.6674 ] } },
{ "type": "Feature", "properties": { "Name_CH": "明修善社", "Name_ML": "Beng Slew Sean Siah", "Name_EN": null, "Location": "68, Jalan Kuala Ketil Pekan Lama, 08000 Sungai Petani, Kedah.", "Longitude": 100.4923196, "Latitude": 5.6391983, "Region": "Kedah", "Category": "慈善福利", "PageNumber": "59" }, "geometry": { "type": "Point", "coordinates": [ 100.4923, 5.6392, 100.4923 ] } },
{ "type": "Feature", "properties": { "Name_CH": "吉中善行会", "Name_ML": "Pertubuhan Derma Bakti Kedah Tengah", "Name_EN": null, "Location": "21, Jalan Merbok, 08000 Sungai Petani, Kedah.", "Longitude": 100.486279, "Latitude": 5.6404689, "Region": "Kedah", "Category": "慈善福利", "PageNumber": "59" }, "geometry": { "type": "Point", "coordinates": [ 100.4863, 5.6405, 100.4863 ] } },
{ "type": "Feature", "properties": { "Name_CH": "仁岭福德祠华人公冢", "Name_ML": "Perkuburan Cina Tokong Hock Teik Soo Jeniang", "Name_EN": null, "Location": "Tokong Hock Teik Soo, Jeniang, 08700 Jeniang, Kedah.", "Longitude": 100.5114658, "Latitude": 5.7008751, "Region": "Kedah", "Category": "慈善福利", "PageNumber": "59" }, "geometry": { "type": "Point", "coordinates": [ 100.5115, 5.7009, 100.5115 ] } },
{ "type": "Feature", "properties": { "Name_CH": "吉打新文英玉帝宫华人公冢暨篮督公理事会", "Name_ML": "Rumah Berhala Yok Teh Keong Dan TanahPerkuburan", "Name_EN": null, "Location": "Awam China Serta Keramat Semeling, Kedah.", "Longitude": 100.457528, "Latitude": 5.706851, "Region": "Kedah", "Category": "慈善福利", "PageNumber": "59" }, "geometry": { "type": "Point", "coordinates": [ 100.4575, 5.7069, 100.4575 ] } },
{ "type": "Feature", "properties": { "Name_CH": "稜幹社", "Name_ML": "Leng Kan Seah", "Name_EN": null, "Location": "189, Jalan Penjara Lamaz 05000 Alor Star, Kedah.", "Longitude": 100.3636117, "Latitude": 6.1177151, "Region": "Kedah", "Category": "慈善福利", "PageNumber": "59" }, "geometry": { "type": "Point", "coordinates": [ 100.3636, 6.1177, 100.3636 ] } },
{ "type": "Feature", "properties": { "Name_CH": "弥勒爱心会", "Name_ML": "Pertubuhan Penyokong Mi Leh Aixin", "Name_EN": null, "Location": "25-A, Lorong Lintang Off Jalan Merpati, 05200 Alor Star, Kedah.", "Longitude": 100.3742118, "Latitude": 6.1195635, "Region": "Kedah", "Category": "慈善福利", "PageNumber": "59" }, "geometry": { "type": "Point", "coordinates": [ 100.3742, 6.1196, 100.3742 ] } },
{ "type": "Feature", "properties": { "Name_CH": "吉打武吉槟榔弄拐山华人公冢理事会", "Name_ML": "Jawatankuasa Pengurus Tanah Perkuburan Orang Orang Awam Cina Bukit Pinang Kedah", "Name_EN": null, "Location": "245 Bukit Pinang, Kedah.", "Longitude": 100.4227992, "Latitude": 6.192955, "Region": "Kedah", "Category": "慈善福利", "PageNumber": "59" }, "geometry": { "type": "Point", "coordinates": [ 100.4228, 6.193, 100.4228 ] } },
{ "type": "Feature", "properties": { "Name_CH": "吉打双弄广东华人公冢", "Name_ML": "Persaluon Pengurusan Tanah Perkuburan", "Name_EN": null, "Location": "150 Kuala Sanglang, Sing Cheong Chong, 06150 Kualo Sanglang, Kedah.", "Longitude": 100.1990716, "Latitude": 6.2594019, "Region": "Kedah", "Category": "慈善福利", "PageNumber": "59" }, "geometry": { "type": "Point", "coordinates": [ 100.1991, 6.2594, 100.1991 ] } },
{ "type": "Feature", "properties": { "Name_CH": "吉南双溪吉舌於列华人公冢", "Name_ML": null, "Name_EN": "Sungai Kecil llir Chinese Cemetery", "Location": null, "Longitude": null, "Latitude": null, "Region": "Kedah", "Category": "慈善福利", "PageNumber": "59" }, "geometry": null },
{ "type": "Feature", "properties": { "Name_CH": "西领华人义山委员会", "Name_ML": "Pertubuhan Jawatankuasa Pengurusan Tanah Perku-buran Cina Serdang Kedah", "Name_EN": null, "Location": "93 Main Road, 09800 Serdang, Kedah.", "Longitude": 100.6421799, "Latitude": 5.2399823, "Region": "Kedah", "Category": "慈善福利", "PageNumber": "60" }, "geometry": { "type": "Point", "coordinates": [ 100.6422, 5.24, 100.6422 ] } },
{ "type": "Feature", "properties": { "Name_CH": "曾乃福德祠义山", "Name_ML": "Perkuburan Hock Teik Soo Lunas", "Name_EN": null, "Location": "No.286, Jalan Sungai Lunas, Kedah.", "Longitude": 100.5318426, "Latitude": 5.4269426, "Region": "Kedah", "Category": "慈善福利", "PageNumber": "60" }, "geometry": { "type": "Point", "coordinates": [ 100.5318, 5.4269, 100.5318 ] } },
{ "type": "Feature", "properties": { "Name_CH": "巴东色海华人义山理事会", "Name_ML": "Pawatankuasa Perkuburan Orang-Orang Cina Padang Serai Kedah", "Name_EN": null, "Location": "D\/A L. C. 36 Jalan Lunas, Padang Serai, Kedah.", "Longitude": 100.554122, "Latitude": 5.511538, "Region": "Kedah", "Category": "慈善福利", "PageNumber": "60" }, "geometry": { "type": "Point", "coordinates": [ 100.5541, 5.5115, 100.5541 ] } },
{ "type": "Feature", "properties": { "Name_CH": "武吉茹椒华人理事会", "Name_ML": "Persatuan Joo Hua Bukit Junun Kedah", "Name_EN": null, "Location": "Jalan Kilang Kecil, Bukit Junun, 06720 Kedah.", "Longitude": 100.4774178, "Latitude": 5.9035371, "Region": "Kedah", "Category": "慈善福利", "PageNumber": "60" }, "geometry": { "type": "Point", "coordinates": [ 100.4774, 5.9035, 100.4774 ] } },
{ "type": "Feature", "properties": { "Name_CH": "亚罗士打泾慈善福利中心", "Name_ML": "Pertubuhan Kebajikan San Sheng Alor Star", "Name_EN": null, "Location": "16, Taman Putra Jaya, Jalan Tanjung Bebdahara, 05300 Alor Star, Kedah.", "Longitude": 100.3777326, "Latitude": 6.1115868, "Region": "Kedah", "Category": "慈善福利", "PageNumber": "60" }, "geometry": { "type": "Point", "coordinates": [ 100.3777, 6.1116, 100.3777 ] } },
{ "type": "Feature", "properties": { "Name_CH": "亚罗士打默贡珍珠园华裔居民协会", "Name_ML": "Persatuan Penduduk-Penduduk Cina Taman Mutiara Mergong", "Name_EN": null, "Location": "58, Taman Mutiara Mergong 05150 Alor Star, Kedah.", "Longitude": 100.346504, "Latitude": 6.132868, "Region": "Kedah", "Category": "慈善福利", "PageNumber": "60" }, "geometry": { "type": "Point", "coordinates": [ 100.3465, 6.1329, 100.3465 ] } },
{ "type": "Feature", "properties": { "Name_CH": "亚罗士打PKNK园华人福利组", "Name_ML": "Persatuan Kebajaka Tiong Hua Taman PKNK Alor Setar", "Name_EN": null, "Location": "2150 Taman PKNK, Alor Malai, 05200 Alor Setar, Kedah.", "Longitude": 100.3854925, "Latitude": 6.1358285, "Region": "Kedah", "Category": "慈善福利", "PageNumber": "60" }, "geometry": { "type": "Point", "coordinates": [ 100.3855, 6.1358, 100.3855 ] } },
{ "type": "Feature", "properties": { "Name_CH": "巴东昔拉华人义山公会", "Name_ML": "Persatuan Pengurusan Tanah Perkubuhan Cina Padang Sera", "Name_EN": null, "Location": "10 Padang Sera 06100 Kodiang, Kedah.", "Longitude": 100.3389712, "Latitude": 6.3565963, "Region": "Kedah", "Category": "慈善福利", "PageNumber": "60" }, "geometry": { "type": "Point", "coordinates": [ 100.339, 6.3566, 100.339 ] } },
{ "type": "Feature", "properties": { "Name_CH": "樟仑义务消防队", "Name_ML": "Pasukan Bomba Sukarela Changlun", "Name_EN": null, "Location": "4, Jalan Kodiang, Pekan Baru, 06010 Changlun, Kedah.", "Longitude": 100.30572, "Latitude": 6.393317, "Region": "Kedah", "Category": "慈善福利", "PageNumber": "60" }, "geometry": { "type": "Point", "coordinates": [ 100.3057, 6.3933, 100.3057 ] } },
{ "type": "Feature", "properties": { "Name_CH": "樟仑福建义冢", "Name_ML": "Lembaga Pengurus Kubor Orang-orang Hokian Changlun, Kedah", "Name_EN": null, "Location": "34, Pekan Lama Changlun, 06010, Jitra, Kedah.", "Longitude": 100.4285286, "Latitude": 6.4284842, "Region": "Kedah", "Category": "慈善福利", "PageNumber": "60" }, "geometry": { "type": "Point", "coordinates": [ 100.4285, 6.4285, 100.4285 ] } },
{ "type": "Feature", "properties": { "Name_CH": "樟仑天主堂理事会", "Name_ML": "Jawatan Kuasa Gereja Katholik Changloon, Kedah Ng Ngen Fatt", "Name_EN": "Parish Church Council", "Location": "No.69 A, Kg. Baru, Pekan Baru, 06010 Changlun, Kedah.", "Longitude": 100.429997, "Latitude": 6.43183, "Region": "Kedah", "Category": "慈善福利", "PageNumber": "60" }, "geometry": { "type": "Point", "coordinates": [ 100.43, 6.4318, 100.43 ] } },
{ "type": "Feature", "properties": { "Name_CH": "武吉槟榔华人公冢", "Name_ML": "Jawatankuasa Pengurus Tanah Perkuburan Orang-orang Awam China Bkt Pinang, Kedah", "Name_EN": null, "Location": null, "Longitude": null, "Latitude": null, "Region": "Kedah", "Category": "慈善福利", "PageNumber": "60" }, "geometry": null },
{ "type": "Feature", "properties": { "Name_CH": "巴东伦武华人公冢理事会", "Name_ML": "Pertubuhan Perkuburan Orang-Orang Cina Padang Lembu", "Name_EN": null, "Location": "18K, Padang Lembu, 08330 Gurun, Kedah.", "Longitude": 100.533086, "Latitude": 5.837977, "Region": "Kedah", "Category": "慈善福利", "PageNumber": "61" }, "geometry": { "type": "Point", "coordinates": [ 100.5331, 5.838, 100.5331 ] } },
{ "type": "Feature", "properties": { "Name_CH": "爪美福建公冢", "Name_ML": "Perkuburan Orang-orang Cina Hokkien", "Name_EN": null, "Location": null, "Longitude": null, "Latitude": null, "Region": "Kedah", "Category": "慈善福利", "PageNumber": "61" }, "geometry": null }
]
}
