{
"type": "FeatureCollection",
"name": "Category_7",
"crs": { "type": "name", "properties": { "name": "urn:ogc:def:crs:OGC:1.3:CRS84" } },
"features": [
{ "type": "Feature", "properties": { "Name_CH": "爱莲玉宝石仙岩大伯公广福庙", "Name_ML": "Poh Cheok Sian Gum Tua Peh Kong Kung Hock Temple", "Name_EN": null, "Location": "C\/o 2-A, Lorong Delima 6, 11700 Island Glades, Pulau Pinang.", "Longitude": 100.3042103, "Latitude": 5.3820388, "Region": "Penang", "Category": "宗教", "PageNumber": "95" }, "geometry": { "type": "Point", "coordinates": [ 100.3042, 5.382, 100.3042 ] } },
{ "type": "Feature", "properties": { "Name_CH": "板厂面大伯公", "Name_ML": "Pertubuhan Penganut Dewa Tua Peh Kong (Ban Chang Mien)", "Name_EN": null, "Location": "No.545, MK16, Jalan Balik Pulau, 11500 Ayer Itam, Pulau Pinang.", "Longitude": 100.2736126, "Latitude": 5.3996413, "Region": "Penang", "Category": "宗教", "PageNumber": "95" }, "geometry": { "type": "Point", "coordinates": [ 100.2736, 5.3996, 100.2736 ] } },
{ "type": "Feature", "properties": { "Name_CH": "宝德社", "Name_ML": "Poh Teik Seah", "Name_EN": null, "Location": "8 Armenian street, Pulau Pinang.", "Longitude": 100.338195, "Latitude": 5.4147349, "Region": "Penang", "Category": "宗教", "PageNumber": "95" }, "geometry": { "type": "Point", "coordinates": [ 100.3382, 5.4147, 100.3382 ] } },
{ "type": "Feature", "properties": { "Name_CH": "北海德教会紫道阁", "Name_ML": "Persatuan Pendidikan Akhlak Che Tao Khor Butterworth", "Name_EN": null, "Location": "12, Jalan Bagan Baru Satu, 12000 Butterworth.", "Longitude": 100.371782, "Latitude": 5.405812, "Region": "Penang", "Category": "宗教", "PageNumber": "96" }, "geometry": { "type": "Point", "coordinates": [ 100.3718, 5.4058, 100.3718 ] } },
{ "type": "Feature", "properties": { "Name_CH": "北海凤山寺包公", "Name_ML": "Pertubuhan Penganut Dewa Feng Shan Si Bao Gong Butterworth", "Name_EN": null, "Location": "No.1135, Kg. Jawa, 12000 Butterworth, Seberang Perai Utara.", "Longitude": 100.3699958, "Latitude": 5.40678, "Region": "Penang", "Category": "宗教", "PageNumber": "96" }, "geometry": { "type": "Point", "coordinates": [ 100.37, 5.4068, 100.37 ] } },
{ "type": "Feature", "properties": { "Name_CH": "宝福社", "Name_ML": "Poh Hock Seah", "Name_EN": null, "Location": "57, Lebuh Armenian, 10200 Pulau Pinang.", "Longitude": 100.3369036, "Latitude": 5.4153922, "Region": "Penang", "Category": "宗教", "PageNumber": "96" }, "geometry": { "type": "Point", "coordinates": [ 100.3369, 5.4154, 100.3369 ] } },
{ "type": "Feature", "properties": { "Name_CH": "宝珠社", "Name_ML": "Poe Choo Seah", "Name_EN": null, "Location": "No.51, King Street, Pulau Pinang.", "Longitude": 100.340016, "Latitude": 5.4183768, "Region": "Penang", "Category": "宗教", "PageNumber": "96" }, "geometry": { "type": "Point", "coordinates": [ 100.34, 5.4184, 100.34 ] } },
{ "type": "Feature", "properties": { "Name_CH": "北海佛教会", "Name_ML": "Persatuan Ugama Buddha Butterworth", "Name_EN": "Butterworth Buddhist Association", "Location": "7156, Tingkat Mak Mandin 3, Mak Mandin, 13400 Butterworth, Pulau Pinang.", "Longitude": 100.3924299, "Latitude": 5.423766, "Region": "Penang", "Category": "宗教", "PageNumber": "96" }, "geometry": { "type": "Point", "coordinates": [ 100.3924, 5.4238, 100.3924 ] } },
{ "type": "Feature", "properties": { "Name_CH": "北海甘光新芭福德宫", "Name_ML": "Persatuan Penganut Dewa Hock Teik Kong Kg. Simpah Butterworth", "Name_EN": null, "Location": "773 Kg. Simpah, 12300 Butterworth.", "Longitude": 100.3904626, "Latitude": 5.4273855, "Region": "Penang", "Category": "宗教", "PageNumber": "96" }, "geometry": { "type": "Point", "coordinates": [ 100.3905, 5.4274, 100.3905 ] } },
{ "type": "Feature", "properties": { "Name_CH": "北海财帛星君庙", "Name_ML": " Persatuan Penganut Dewa Cai Bo Xing Xing Jun Butterworth ", "Name_EN": null, "Location": "5660-C, Tingkat Melur Satu, Taman Sin Taff off Jalan Raja Uda, Butterworth, Seberang Perai.", "Longitude": 100.3834598, "Latitude": 5.4335974, "Region": "Penang", "Category": "宗教", "PageNumber": "96" }, "geometry": { "type": "Point", "coordinates": [ 100.3835, 5.4336, 100.3835 ] } },
{ "type": "Feature", "properties": { "Name_CH": "北海福德祠暨中元盂兰胜会", "Name_ML": "Persatuan Penganut Dewa Hock Teik Soo Dan Tiong Guan Butterworth Section", "Name_EN": null, "Location": "Lot 3214, Lorong Bulan l, Taman Bagan Ajam, Butterworth.", "Longitude": 100.3811298, "Latitude": 5.4361964, "Region": "Penang", "Category": "宗教", "PageNumber": "96" }, "geometry": { "type": "Point", "coordinates": [ 100.3811, 5.4362, 100.3811 ] } },
{ "type": "Feature", "properties": { "Name_CH": "北海福德正神", "Name_ML": "Persatuan Penganut-Penganut Hock Teik Cheah Sin Butterworth", "Name_EN": null, "Location": "No.6, Jalan Cantik, Butterworth.", "Longitude": 100.388192, "Latitude": 5.4380309, "Region": "Penang", "Category": "宗教", "PageNumber": "96" }, "geometry": { "type": "Point", "coordinates": [ 100.3882, 5.438, 100.3882 ] } },
{ "type": "Feature", "properties": { "Name_CH": "北海斗母宫(1985)", "Name_ML": "Rumah Berhala Tow Boo Kong (1985) Butterworth Seberang Perai", "Name_EN": null, "Location": "Lot 896 MK14, Jalan Raja Uda, Butterworth.", "Longitude": 100.3875169, "Latitude": 5.4402723, "Region": "Penang", "Category": "宗教", "PageNumber": "96" }, "geometry": { "type": "Point", "coordinates": [ 100.3875, 5.4403, 100.3875 ] } },
{ "type": "Feature", "properties": { "Name_CH": "北海船仔头天福宫", "Name_ML": "Rumah Berhala Thean Hock Keong", "Name_EN": "Thean Hock Keong Temple", "Location": "Jalan Pantai Bersih, Bagan Ajam, 13000 Butterworth, Pulau Pinang.", "Longitude": 100.380792, "Latitude": 5.4442611, "Region": "Penang", "Category": "宗教", "PageNumber": "96" }, "geometry": { "type": "Point", "coordinates": [ 100.3808, 5.4443, 100.3808 ] } },
{ "type": "Feature", "properties": { "Name_CH": "北海福德祠", "Name_ML": "Pertubuhan Penganut Hock Teik Su Butterworth Seberang Perai", "Name_EN": null, "Location": "No.l63, Permatang Tengah Mukim 9, Butterworth.", "Longitude": 100.38811, "Latitude": 5.448892, "Region": "Penang", "Category": "宗教", "PageNumber": "96" }, "geometry": { "type": "Point", "coordinates": [ 100.3881, 5.4489, 100.3881 ] } },
{ "type": "Feature", "properties": { "Name_CH": "北海灵应社", "Name_ML": "Persatuan Leng Eng Seah Butterworth", "Name_EN": null, "Location": "Lot 2227, Mk 14, Jalan Raja Uda, 13000 Butterworth.", "Longitude": 100.3794346, "Latitude": 5.4152096, "Region": "Penang", "Category": "宗教", "PageNumber": "97" }, "geometry": { "type": "Point", "coordinates": [ 100.3794, 5.4152, 100.3794 ] } },
{ "type": "Feature", "properties": { "Name_CH": "北海麦曼珍组屋盂兰胜会", "Name_ML": "Pertubuhan Perayaan Teong Guan Yee Lan Sen Hoay Rumah Pangsa Mak Mandin Butterworth", "Name_EN": null, "Location": "Bilik Perpaduan Rumah Pangsa Mak Mandin Butterworth, Seberang Perai Utara.", "Longitude": 100.395955, "Latitude": 5.420697, "Region": "Penang", "Category": "宗教", "PageNumber": "97" }, "geometry": { "type": "Point", "coordinates": [ 100.396, 5.4207, 100.396 ] } },
{ "type": "Feature", "properties": { "Name_CH": "北海麦曼珍福徳祠", "Name_ML": "Pertubuhan Penganut Hock Teik Soo Mak Mandin Butterworth Seberang Perai", "Name_EN": null, "Location": "No 1070\/1, Mak Mandin, Butteworth.", "Longitude": 100.392863, "Latitude": 5.424444, "Region": "Penang", "Category": "宗教", "PageNumber": "97" }, "geometry": { "type": "Point", "coordinates": [ 100.3929, 5.4244, 100.3929 ] } },
{ "type": "Feature", "properties": { "Name_CH": "北海甘光新芭拿督公", "Name_ML": "Pertubuhan Penganut Dewa Dato Kong Kg. Simpah Jalan Kemuning Butterworth", "Name_EN": null, "Location": "No.1, Jalan Chempaka Raja Uda, Butterworth, Seberang Perai Utara.", "Longitude": 100.3837053, "Latitude": 5.428733, "Region": "Penang", "Category": "宗教", "PageNumber": "97" }, "geometry": { "type": "Point", "coordinates": [ 100.3837, 5.4287, 100.3837 ] } },
{ "type": "Feature", "properties": { "Name_CH": "北海峇眼拉浪盂兰胜会及济公活佛", "Name_ML": "Pertubuhan Perayaan Yee Lan Sen Hoay Dan Chey Kong Hua Hood Bagan Lallang Butterworth", "Name_EN": null, "Location": "3828 Permatang Lanjut, Bagan Lallang, Butterworth.", "Longitude": 100.3971433, "Latitude": 5.4300802, "Region": "Penang", "Category": "宗教", "PageNumber": "97" }, "geometry": { "type": "Point", "coordinates": [ 100.3971, 5.4301, 100.3971 ] } },
{ "type": "Feature", "properties": { "Name_CH": "北海苦僧寺", "Name_ML": "The Ku Cheng Tse Temple Butterworth", "Name_EN": null, "Location": "1350, Jalan Bagan Jermal, 12300 Butterworth.", "Longitude": 100.378784, "Latitude": 5.432371, "Region": "Penang", "Category": "宗教", "PageNumber": "97" }, "geometry": { "type": "Point", "coordinates": [ 100.3788, 5.4324, 100.3788 ] } },
{ "type": "Feature", "properties": { "Name_CH": "北海海南昭应庙", "Name_ML": "Pertubuhan Penganut Dewi Hainan Chao Ying Miao Butterworth", "Name_EN": null, "Location": "3029 Jalan Acham, Butterworth.", "Longitude": 100.388192, "Latitude": 5.4380309, "Region": "Penang", "Category": "宗教", "PageNumber": "97" }, "geometry": { "type": "Point", "coordinates": [ 100.3882, 5.438, 100.3882 ] } },
{ "type": "Feature", "properties": { "Name_CH": "北海峇眼亚尖市区盂兰胜会", "Name_ML": "Pertubuhan Perayaan Yee Lan Pekan Bagan Ajam Butterworth", "Name_EN": null, "Location": "3725 Bagan Ajam, Butterworth.", "Longitude": 100.380375, "Latitude": 5.443156, "Region": "Penang", "Category": "宗教", "PageNumber": "97" }, "geometry": { "type": "Point", "coordinates": [ 100.3804, 5.4432, 100.3804 ] } },
{ "type": "Feature", "properties": { "Name_CH": "北海峇东丁雅观音庙", "Name_ML": "Persatuan Penganut Dewi Kuan Yin Permatang Tengah Butterworth, Seberang Perai Utara", "Name_EN": null, "Location": "314 Permatang Tengah, Butterworth.", "Longitude": 100.3872439, "Latitude": 5.443914, "Region": "Penang", "Category": "宗教", "PageNumber": "97" }, "geometry": { "type": "Point", "coordinates": [ 100.3872, 5.4439, 100.3872 ] } },
{ "type": "Feature", "properties": { "Name_CH": "北海峇东丁雅村福德祠", "Name_ML": "Pertubuhan Penganut Hock Teik Su Butterworth", "Name_EN": null, "Location": "163, Permatang Tengah Mk-9, 13000 Butterworth.", "Longitude": 100.38811, "Latitude": 5.448892, "Region": "Penang", "Category": "宗教", "PageNumber": "97" }, "geometry": { "type": "Point", "coordinates": [ 100.3881, 5.4489, 100.3881 ] } },
{ "type": "Feature", "properties": { "Name_CH": "北海峇眼亚尖公市盂兰胜会", "Name_ML": "Persatuan Perayaan Phor Thor Pasar Awam Bagan Ajarn, Butterworth.", "Name_EN": null, "Location": null, "Longitude": null, "Latitude": null, "Region": "Penang", "Category": "宗教", "PageNumber": "97" }, "geometry": null },
{ "type": "Feature", "properties": { "Name_CH": "北海峇眼亚尖天福宫", "Name_ML": "Thean Hock Keong Dragon Temple Lane Bagan Ajam Butterworth, Province Wellesley.", "Name_EN": null, "Location": null, "Longitude": null, "Latitude": null, "Region": "Penang", "Category": "宗教", "PageNumber": "97" }, "geometry": null },
{ "type": "Feature", "properties": { "Name_CH": "北海普善堂", "Name_ML": "Phoo Shan Than Butterworth", "Name_EN": null, "Location": "4075, Kampung Benggali, 12000 Butterworth, Pulau Pinang, Malaysia", "Longitude": 100.37226, "Latitude": 5.408611, "Region": "Penang", "Category": "宗教", "PageNumber": "98" }, "geometry": { "type": "Point", "coordinates": [ 100.3723, 5.4086, 100.3723 ] } },
{ "type": "Feature", "properties": { "Name_CH": "北海双溪浮油灵星堂", "Name_ML": "Jawatankuasa Perayaan Leng Seng Tong Sg. Puyu Butterworth", "Name_EN": null, "Location": "Lot 1030, Jalan Besar Sg. Puyu, 13020 Butterworth.", "Longitude": 100.3980855, "Latitude": 5.3802993, "Region": "Penang", "Category": "宗教", "PageNumber": "98" }, "geometry": { "type": "Point", "coordinates": [ 100.3981, 5.3803, 100.3981 ] } },
{ "type": "Feature", "properties": { "Name_CH": "北海南天宫济公活佛", "Name_ML": "Pertubuhan Penganut Dewa Lam Then Keon Cher Kong Wa Hood Butterworth", "Name_EN": null, "Location": "No.1405, Bagan Dalam, Butterworth.", "Longitude": 100.3707112, "Latitude": 5.394903, "Region": "Penang", "Category": "宗教", "PageNumber": "98" }, "geometry": { "type": "Point", "coordinates": [ 100.3707, 5.3949, 100.3707 ] } },
{ "type": "Feature", "properties": { "Name_CH": "北海天公坛", "Name_ML": "Persatuan Penganut Tian Gong Tan Butterworth Seberang Perai", "Name_EN": null, "Location": "No.1590, Jalan Pa' Abu, Butterworth.", "Longitude": 100.3744003, "Latitude": 5.4127077, "Region": "Penang", "Category": "宗教", "PageNumber": "98" }, "geometry": { "type": "Point", "coordinates": [ 100.3744, 5.4127, 100.3744 ] } },
{ "type": "Feature", "properties": { "Name_CH": "北海南天宫三太子", "Name_ML": "Pertubuhan Penganut Nan Tian Gong San Tai Zi Butterworth Seberang Perai", "Name_EN": null, "Location": "No.3492, Jalan Raja Uda, Butterworth.", "Longitude": 100.3791863, "Latitude": 5.4148265, "Region": "Penang", "Category": "宗教", "PageNumber": "98" }, "geometry": { "type": "Point", "coordinates": [ 100.3792, 5.4148, 100.3792 ] } },
{ "type": "Feature", "properties": { "Name_CH": "北海南天宫", "Name_ML": "Rumah Berhala Nam Thean Kong Butterworth, Jalan Mengkuang, Seberang Perai.", "Name_EN": null, "Location": "No.6838, Jalan Mengkuang, Butterworth.", "Longitude": 100.375064, "Latitude": 5.4162999, "Region": "Penang", "Category": "宗教", "PageNumber": "98" }, "geometry": { "type": "Point", "coordinates": [ 100.3751, 5.4163, 100.3751 ] } },
{ "type": "Feature", "properties": { "Name_CH": "北海天君庙", "Name_ML": "Pertubuhan Penganut Tian Jun Miao Butterworth", "Name_EN": null, "Location": "14, Lintang Bonga Tanjung, Off Jalan Raja Uda, 12300 Butterworth, Penang.", "Longitude": 100.386259, "Latitude": 5.4268812, "Region": "Penang", "Category": "宗教", "PageNumber": "98" }, "geometry": { "type": "Point", "coordinates": [ 100.3863, 5.4269, 100.3863 ] } },
{ "type": "Feature", "properties": { "Name_CH": "北海摩哈末沙鸭律普渡", "Name_ML": "Pertubuhan Phor Thor Jalan Mohd Saad Butterworth Seberang Perai", "Name_EN": null, "Location": "63 Jalan Mohd Saad, Butterworth.", "Longitude": 100.3802339, "Latitude": 5.4285945, "Region": "Penang", "Category": "宗教", "PageNumber": "98" }, "geometry": { "type": "Point", "coordinates": [ 100.3802, 5.4286, 100.3802 ] } },
{ "type": "Feature", "properties": { "Name_CH": "北海树胶廊中坛元帅三太子庙", "Name_ML": "Pertubuhan Penganut Dewa Chong Than Yen Soi Sam Thye Chie Kilang Getah", "Name_EN": null, "Location": "Lot 441 Jalan Raja Uda, Kg. Simpah, Butterworth.", "Longitude": 100.3837053, "Latitude": 5.428733, "Region": "Penang", "Category": "宗教", "PageNumber": "98" }, "geometry": { "type": "Point", "coordinates": [ 100.3837, 5.4287, 100.3837 ] } },
{ "type": "Feature", "properties": { "Name_CH": "北海十九廊凤山殿", "Name_ML": "Pertubuhan Penganut Dewa Feng Shan Dian Permatang Lanjut MK 14 Seberang Perai Utara", "Name_EN": null, "Location": "Lot PT2, Bagan Lalang, Kg. Simpah, Butterworth.", "Longitude": 100.3971433, "Latitude": 5.4300802, "Region": "Penang", "Category": "宗教", "PageNumber": "98" }, "geometry": { "type": "Point", "coordinates": [ 100.3971, 5.4301, 100.3971 ] } },
{ "type": "Feature", "properties": { "Name_CH": "北海双溪浮游福德祠", "Name_ML": "Persatuan Penganut Dewa Hock Teik Sg. Puyu, Butterworth Seberang Perai Utara", "Name_EN": null, "Location": "No.40, Sg. Puyu, Butterworth, Seberang Perai Utara.", "Longitude": 100.3963219, "Latitude": 5.4484202, "Region": "Penang", "Category": "宗教", "PageNumber": "98" }, "geometry": { "type": "Point", "coordinates": [ 100.3963, 5.4484, 100.3963 ] } },
{ "type": "Feature", "properties": { "Name_CH": "北海日落洞斗哇福德正神", "Name_ML": "Persatuan Penganut Dewa Hock Teik Chneah Sin Telok Ayer Tawar Butterworth", "Name_EN": null, "Location": "No.1382, MK 7, Telok Ayer Tawar, Butterworth.", "Longitude": 100.384, "Latitude": 5.48489, "Region": "Penang", "Category": "宗教", "PageNumber": "98" }, "geometry": { "type": "Point", "coordinates": [ 100.384, 5.4849, 100.384 ] } },
{ "type": "Feature", "properties": { "Name_CH": "槟城阿依淡垄尾大伯公庙", "Name_ML": "Rumah Berhala Tua Peh Kong Paya Terubong Aye Itam Pulau Pinang", "Name_EN": null, "Location": "1257-1, Paya Terubong Road, Ayer Itam, Pulau Pinang.", "Longitude": 100.2777908, "Latitude": 5.373954, "Region": "Penang", "Category": "宗教", "PageNumber": "99" }, "geometry": { "type": "Point", "coordinates": [ 100.2778, 5.374, 100.2778 ] } },
{ "type": "Feature", "properties": { "Name_CH": "北赖观音庙", "Name_ML": "Rumah Berhala Kuan Im Perai Seberang Perai", "Name_EN": "The Perai Temple Of Goddes Of Mercy Province Wellesley", "Location": "No.15, Lorong Senangin 5, Seberang Perai.", "Longitude": 100.3854935, "Latitude": 5.3836183, "Region": "Penang", "Category": "宗教", "PageNumber": "99" }, "geometry": { "type": "Point", "coordinates": [ 100.3855, 5.3836, 100.3855 ] } },
{ "type": "Feature", "properties": { "Name_CH": "北赖慈云宫观音亭", "Name_ML": "Rumah Berhala Tzu Yun (Kuan Im Teng) Perai (Tzu Yun Keong)", "Name_EN": null, "Location": "1824, Taman Kepar, 13600 Perai.", "Longitude": 100.385165, "Latitude": 5.3852228, "Region": "Penang", "Category": "宗教", "PageNumber": "99" }, "geometry": { "type": "Point", "coordinates": [ 100.3852, 5.3852, 100.3852 ] } },
{ "type": "Feature", "properties": { "Name_CH": "北赖浸信教会", "Name_ML": "Gereja Baptis Perai", "Name_EN": "Perai Baptist Church", "Location": "No.50-52 Tingkat Kurau 8, Hai Leng Park, Perai.", "Longitude": 100.3967261, "Latitude": 5.3862163, "Region": "Penang", "Category": "宗教", "PageNumber": "99" }, "geometry": { "type": "Point", "coordinates": [ 100.3967, 5.3862, 100.3967 ] } },
{ "type": "Feature", "properties": { "Name_CH": "北赖凤凰花园斗母宫", "Name_ML": "Persatuan Penganut Dewa Tau Bo Keong Taman Inderawasih Perai Seberang Perai Pulau Pinang", "Name_EN": null, "Location": "2667 Jalan Chain Ferry, Taman Inderawasih, Perai, Seberang Perai.", "Longitude": 100.3891132, "Latitude": 5.3906368, "Region": "Penang", "Category": "宗教", "PageNumber": "99" }, "geometry": { "type": "Point", "coordinates": [ 100.3891, 5.3906, 100.3891 ] } },
{ "type": "Feature", "properties": { "Name_CH": "槟城阿依淡福德正神(1994)", "Name_ML": "Persatuan Penganut Dewa Hock Teik Cheng Sin Air Itam Pulau Pinang (1994)", "Name_EN": null, "Location": "607-F Balik Pulau Road, Air Itam, Pulau Pinang.", "Longitude": 100.2769733, "Latitude": 5.4022612, "Region": "Penang", "Category": "宗教", "PageNumber": "99" }, "geometry": { "type": "Point", "coordinates": [ 100.277, 5.4023, 100.277 ] } },
{ "type": "Feature", "properties": { "Name_CH": "槟城阿依淡市区普渡", "Name_ML": "Pertubuhan Perayaan Phor Thor, Pekan Air Itam, Pulau Pinang", "Name_EN": null, "Location": "85-M MK. 13, Kg. Air ltam, Pulau Pinang.", "Longitude": 100.2782329, "Latitude": 5.402693, "Region": "Penang", "Category": "宗教", "PageNumber": "99" }, "geometry": { "type": "Point", "coordinates": [ 100.2782, 5.4027, 100.2782 ] } },
{ "type": "Feature", "properties": { "Name_CH": "吡叻冷龙里宫", "Name_ML": "Pertubuhan Penganut Dewa Leong Lee Keong Pulau Pinang", "Name_EN": null, "Location": "101, Lorong Perak, Pulau Pinang.", "Longitude": 100.3176816, "Latitude": 5.4027151, "Region": "Penang", "Category": "宗教", "PageNumber": "99" }, "geometry": { "type": "Point", "coordinates": [ 100.3177, 5.4027, 100.3177 ] } },
{ "type": "Feature", "properties": { "Name_CH": "槟城阿依淡蝙蝠洞大伯公理事会", "Name_ML": "Pertubuhan Penganut Dewa Tua Pek Kong Gua Kelawar Lower Hill Railway Air Itam Pulau Pinang.", "Name_EN": null, "Location": "355-D Jalan Keat Estate, Pulau Pinang.", "Longitude": 100.282286, "Latitude": 5.406645, "Region": "Penang", "Category": "宗教", "PageNumber": "99" }, "geometry": { "type": "Point", "coordinates": [ 100.2823, 5.4066, 100.2823 ] } },
{ "type": "Feature", "properties": { "Name_CH": "槟城阿依淡花园拿督公庙", "Name_ML": "Persatuan Penganut Dewa Nato Kong Taman Air Itam Pulau Pinang", "Name_EN": null, "Location": "Block 2-G-5 Taman Air Itam Lebuh, Padang Tembak Pulau Pinang.", "Longitude": 100.292252, "Latitude": 5.408007, "Region": "Penang", "Category": "宗教", "PageNumber": "99" }, "geometry": { "type": "Point", "coordinates": [ 100.2923, 5.408, 100.2923 ] } },
{ "type": "Feature", "properties": { "Name_CH": "北海西天宫", "Name_ML": "Persatuan Penganut Dewa Xie Tian Gong Butterworth", "Name_EN": null, "Location": "No.5748, Jalan Ong Yi How, Butterworth, Seberang Perai Utara.", "Longitude": 100.3927329, "Latitude": 5.4307804, "Region": "Penang", "Category": "宗教", "PageNumber": "99" }, "geometry": { "type": "Point", "coordinates": [ 100.3927, 5.4308, 100.3927 ] } },
{ "type": "Feature", "properties": { "Name_CH": "北海新芭观音亭斗母宫", "Name_ML": "Rumah Berhala Guan Yin Ting Dou Mu Gong Butterworth Seberang Perai", "Name_EN": null, "Location": "27 Medan Melur Selatan, Off Jalan Raja Uda, Butterworth.", "Longitude": 100.3838996, "Latitude": 5.4313006, "Region": "Penang", "Category": "宗教", "PageNumber": "99" }, "geometry": { "type": "Point", "coordinates": [ 100.3839, 5.4313, 100.3839 ] } },
{ "type": "Feature", "properties": { "Name_CH": "槟城大曼吾大马盂兰胜会协会", "Name_ML": "Pertubuhan Perayaan Yu Lan Taman Utama Pulau Pinang", "Name_EN": null, "Location": "1-17-7 Lintang Minden Dua, Gellugor, Pulau Pinang.", "Longitude": 100.2953801, "Latitude": 5.3601562, "Region": "Penang", "Category": "宗教", "PageNumber": "100" }, "geometry": { "type": "Point", "coordinates": [ 100.2954, 5.3602, 100.2954 ] } },
{ "type": "Feature", "properties": { "Name_CH": "槟城阿依淡水霸半山太上老君（莲花洞）", "Name_ML": "Persatuan Penganut Dewa Tai Seong Lau Koon (Lean Wah Thong) Air Itam", "Name_EN": null, "Location": "No.316 E, Jalan Perak, 11600 Pulau Pinang.", "Longitude": 100.3142903, "Latitude": 5.4010463, "Region": "Penang", "Category": "宗教", "PageNumber": "100" }, "geometry": { "type": "Point", "coordinates": [ 100.3143, 5.401, 100.3143 ] } },
{ "type": "Feature", "properties": { "Name_CH": "槟城阿依淡水坝大伯公庙", "Name_ML": "Pertubuhan Persatuan Penganut Dewa Tua Peh Kung Air Itam Pulau Pinang", "Name_EN": null, "Location": "617-H, Balik Pulau Road, Air Itam, 11500 Penang.", "Longitude": 100.276816, "Latitude": 5.4018479, "Region": "Penang", "Category": "宗教", "PageNumber": "100" }, "geometry": { "type": "Point", "coordinates": [ 100.2768, 5.4018, 100.2768 ] } },
{ "type": "Feature", "properties": { "Name_CH": "槟城大英义学园庆赞中元", "Name_ML": "Pertubuhan Perayaan Teong Guan Taman Free School Pulau Pinang", "Name_EN": "Teong Guan Taman Free School Pulau Pinang", "Location": "KN 2-1, Taman Free School Pulau Pinang.", "Longitude": 100.3114829, "Latitude": 5.405304, "Region": "Penang", "Category": "宗教", "PageNumber": "100" }, "geometry": { "type": "Point", "coordinates": [ 100.3115, 5.4053, 100.3115 ] } },
{ "type": "Feature", "properties": { "Name_CH": "槟城阿依淡太上老君", "Name_ML": "Persatuan Penganut Rumah Berhala Thai Seong Loh Koon Air Itam Pulau Pinang", "Name_EN": null, "Location": "199-A Jalan Lintang, Mukim 16, Air Itam, Pulau Pinang.", "Longitude": 100.2773074, "Latitude": 5.4056035, "Region": "Penang", "Category": "宗教", "PageNumber": "100" }, "geometry": { "type": "Point", "coordinates": [ 100.2773, 5.4056, 100.2773 ] } },
{ "type": "Feature", "properties": { "Name_CH": "槟城打枪埔斗母宫玉皇大帝", "Name_ML": "Persatuan Penganut Dou Mu Gong Jiu Wang Da Di Padang Tembak Pulau Pinang", "Name_EN": null, "Location": "No.C 14, Rumah Pangsa Padang Tembak, Pulau Pinang.", "Longitude": 100.291212, "Latitude": 5.4106679, "Region": "Penang", "Category": "宗教", "PageNumber": "100" }, "geometry": { "type": "Point", "coordinates": [ 100.2912, 5.4107, 100.2912 ] } },
{ "type": "Feature", "properties": { "Name_CH": "槟城阿依淡中坛元帅", "Name_ML": "Persatuan Penganut Dewa Tiong Tuah Guan Suay (Tean Seng Tuah) Air Itam", "Name_EN": null, "Location": "353-F Belakang Lorong, Taman Cantik 3, Air Itam, Pulau Pinang.", "Longitude": 100.280897, "Latitude": 5.4107617, "Region": "Penang", "Category": "宗教", "PageNumber": "100" }, "geometry": { "type": "Point", "coordinates": [ 100.2809, 5.4108, 100.2809 ] } },
{ "type": "Feature", "properties": { "Name_CH": "槟城慈德宫", "Name_ML": "Persatuan Penganut Dewa Ci De Gong Pulau Pinang", "Name_EN": null, "Location": "2, Gat Lebuh Armenian, 10300 Pulau Pinang.", "Longitude": 100.3391249, "Latitude": 5.413682, "Region": "Penang", "Category": "宗教", "PageNumber": "100" }, "geometry": { "type": "Point", "coordinates": [ 100.3391, 5.4137, 100.3391 ] } },
{ "type": "Feature", "properties": { "Name_CH": "槟城打枪埔福德祠", "Name_ML": "Kuil Hock Teik Soo, Rifle Range, Pulau Pinang", "Name_EN": null, "Location": "No.199 Off Boundry Road, Pulau Pinang.", "Longitude": 100.288976, "Latitude": 5.408805, "Region": "Penang", "Category": "宗教", "PageNumber": "100" }, "geometry": { "type": "Point", "coordinates": [ 100.289, 5.4088, 100.289 ] } },
{ "type": "Feature", "properties": { "Name_CH": "槟城大安社", "Name_ML": "Tai Onn Seah Pulau Pinang", "Name_EN": "Penang Tai Onn Seah", "Location": "33, Anson Road, 10400 Pulau Pinang.", "Longitude": 100.3232372, "Latitude": 5.4191292, "Region": "Penang", "Category": "宗教", "PageNumber": "100" }, "geometry": { "type": "Point", "coordinates": [ 100.3232, 5.4191, 100.3232 ] } },
{ "type": "Feature", "properties": { "Name_CH": "槟城玻璃池滑福寿宫理事会", "Name_ML": null, "Name_EN": "The Committee Of Management Of Hock Siew Keong", "Location": "228-A, Jalan Burmah,10350 Pulau Pinang.", "Longitude": 100.3134771, "Latitude": 5.4297539, "Region": "Penang", "Category": "宗教", "PageNumber": "100" }, "geometry": { "type": "Point", "coordinates": [ 100.3135, 5.4298, 100.3135 ] } },
{ "type": "Feature", "properties": { "Name_CH": "槟城白云山观音庙", "Name_ML": "Pertubuhan Penganut Dewi Kwan Yim Mt. Erskine Pulau Pinang", "Name_EN": null, "Location": "No.675 Lebuhraya Halia MK.18, Mt. Erskine, Pulau Pinang.", "Longitude": 100.2958222, "Latitude": 5.451061, "Region": "Penang", "Category": "宗教", "PageNumber": "100" }, "geometry": { "type": "Point", "coordinates": [ 100.2958, 5.4511, 100.2958 ] } },
{ "type": "Feature", "properties": { "Name_CH": "槟城浮罗山背公芭中元盂兰胜会", "Name_ML": "Pertubuhan Perayaan Teong Guan Yu Lan Sheng Hui Teluk Kumbar Pulau Pinang", "Name_EN": null, "Location": "1038 MK.9 Teluk Kumbar, Bayan Lepas.", "Longitude": 100.2396849, "Latitude": 5.2847094, "Region": "Penang", "Category": "宗教", "PageNumber": "101" }, "geometry": { "type": "Point", "coordinates": [ 100.2397, 5.2847, 100.2397 ] } },
{ "type": "Feature", "properties": { "Name_CH": "槟城浮罗山背公芭清水祖师庙", "Name_ML": "Persatuan Pengganut Dewa Cheng Chooi Chor Soo Teluk Kumbar Pulau Pinang", "Name_EN": null, "Location": "156 MK.9, Teluk Kumbar, Pulau Pinang.", "Longitude": 100.2541301, "Latitude": 5.294029, "Region": "Penang", "Category": "宗教", "PageNumber": "101" }, "geometry": { "type": "Point", "coordinates": [ 100.2541, 5.294, 100.2541 ] } },
{ "type": "Feature", "properties": { "Name_CH": "槟城浮罗徳教会紫滨阁", "Name_ML": "Persatuan Pendidikan Akhlak Chee Pin Kor", "Name_EN": "Chee Pin Kor Moral Urlif Ting Society", "Location": "404, Jalan Besar, Pekan Balik Pulau, 11000 Balik Pulau, Pulau Pinang.", "Longitude": 100.2171122, "Latitude": 5.3324665, "Region": "Penang", "Category": "宗教", "PageNumber": "101" }, "geometry": { "type": "Point", "coordinates": [ 100.2171, 5.3325, 100.2171 ] } },
{ "type": "Feature", "properties": { "Name_CH": "槟城浮罗山背东山宫", "Name_ML": "Pertubuhan Penganut Dewa Tung San Kung Balik Pulau Pulau Pinang", "Name_EN": null, "Location": "573 MK D, Jalan Kuala Baru, Balik Pulau, Pulau Pinang.", "Longitude": 100.2004657, "Latitude": 5.35327, "Region": "Penang", "Category": "宗教", "PageNumber": "101" }, "geometry": { "type": "Point", "coordinates": [ 100.2005, 5.3533, 100.2005 ] } },
{ "type": "Feature", "properties": { "Name_CH": "槟城佛教居士林", "Name_ML": null, "Name_EN": "Penang Lay Buddhist Society", "Location": "2V, Jalan Beriksa Satu Bandar Baru Air Itam, 11500 Pulau Pinang.", "Longitude": 100.282447, "Latitude": 5.3868392, "Region": "Penang", "Category": "宗教", "PageNumber": "101" }, "geometry": { "type": "Point", "coordinates": [ 100.2824, 5.3868, 100.2824 ] } },
{ "type": "Feature", "properties": { "Name_CH": "槟城斗母宫九皇大帝坛", "Name_ML": "Tow Boe Keong Kew Ong Tai Tay Keong Tnuah Penang", "Name_EN": null, "Location": "No.l, Lintang Macallum 2, Pulau Pinang.", "Longitude": 100.3338634, "Latitude": 5.4035396, "Region": "Penang", "Category": "宗教", "PageNumber": "101" }, "geometry": { "type": "Point", "coordinates": [ 100.3339, 5.4035, 100.3339 ] } },
{ "type": "Feature", "properties": { "Name_CH": "槟城风山宫", "Name_ML": "Persatuan Pengganut Dewa Hong San Keong", "Name_EN": "Penang Hong San Keong Devotees Association", "Location": "No.l, Gat Lebuh Presgrave F'Shore, Penang.", "Longitude": 100.3326747, "Latitude": 5.4096034, "Region": "Penang", "Category": "宗教", "PageNumber": "101" }, "geometry": { "type": "Point", "coordinates": [ 100.3327, 5.4096, 100.3327 ] } },
{ "type": "Feature", "properties": { "Name_CH": "槟城二条路斗母宫", "Name_ML": "Pertubuhan Penganut Agama Buddha Tow Moo Keong Pulau Pinang", "Name_EN": null, "Location": "12, Noordin Street, 10300 Pulau Pinang.", "Longitude": 100.331126, "Latitude": 5.411841, "Region": "Penang", "Category": "宗教", "PageNumber": "101" }, "geometry": { "type": "Point", "coordinates": [ 100.3311, 5.4118, 100.3311 ] } },
{ "type": "Feature", "properties": { "Name_CH": "槟城兑山金鞍山寺", "Name_ML": "Persatuan Pengganut Dewa Kim Aun San Si Pulau Pinang", "Name_EN": null, "Location": "1-A, Lee Jetty,Pengkalan Weld, 10300 Pulau Pinang.", "Longitude": 100.3378172, "Latitude": 5.4119122, "Region": "Penang", "Category": "宗教", "PageNumber": "101" }, "geometry": { "type": "Point", "coordinates": [ 100.3378, 5.4119, 100.3378 ] } },
{ "type": "Feature", "properties": { "Name_CH": "槟城德教会紫云阁", "Name_ML": null, "Name_EN": "Che Hoon Khor Moral Uplifting Society", "Location": "No.360, Jalan Macalister, 10450 Penang.", "Longitude": 100.3053299, "Latitude": 5.4225036, "Region": "Penang", "Category": "宗教", "PageNumber": "101" }, "geometry": { "type": "Point", "coordinates": [ 100.3053, 5.4225, 100.3053 ] } },
{ "type": "Feature", "properties": { "Name_CH": "槟城丹绒道光斗母宫九皇大地", "Name_ML": "Persatuan Penganut Agama Buddha Tao Boh Keong (Kew Ong Tai Tay) Tanjong Tokong", "Name_EN": null, "Location": "74 Tanjong Tokong Road, Tanjong Tokong, Pulau Pinang.", "Longitude": 100.3025009, "Latitude": 5.45556, "Region": "Penang", "Category": "宗教", "PageNumber": "101" }, "geometry": { "type": "Point", "coordinates": [ 100.3025, 5.4556, 100.3025 ] } },
{ "type": "Feature", "properties": { "Name_CH": "槟城丹绒武雅福德祠", "Name_ML": "Tanjong Bunga Hock Teik Soo", "Name_EN": null, "Location": "534-A, Tanjong Bungah, 11200 Pulau Pinang.", "Longitude": 100.282307, "Latitude": 5.463285, "Region": "Penang", "Category": "宗教", "PageNumber": "101" }, "geometry": { "type": "Point", "coordinates": [ 100.2823, 5.4633, 100.2823 ] } },
{ "type": "Feature", "properties": { "Name_CH": "槟城峇六拜广东暨汀州大伯公庙", "Name_ML": "Persatuan Pengganut Dewa Tok Pek Kong Kwang Tung Dan Teng Chow Bayan Lepas", "Name_EN": null, "Location": "Daerah Barat, Daya Pulau Pinang, 1241, Main Road, Bayan Lepas.", "Longitude": 100.2593272, "Latitude": 5.294464, "Region": "Penang", "Category": "宗教", "PageNumber": "102" }, "geometry": { "type": "Point", "coordinates": [ 100.2593, 5.2945, 100.2593 ] } },
{ "type": "Feature", "properties": { "Name_CH": "槟城过山天灵坛中坛元帅", "Name_ML": "Pertubuhan Penganut Dewa Thean Leng Thuan Bayan Lepas Pulau Pinang", "Name_EN": null, "Location": "308 Blok-G, MK-12, Sg. Tiram, Pulau Pinang.", "Longitude": 100.2758371, "Latitude": 5.3022698, "Region": "Penang", "Category": "宗教", "PageNumber": "102" }, "geometry": { "type": "Point", "coordinates": [ 100.2758, 5.3023, 100.2758 ] } },
{ "type": "Feature", "properties": { "Name_CH": "槟城浮罗山背玄天上帝庙", "Name_ML": "Rumah Berhala Hean Tean Seang Tee Balik Pulau", "Name_EN": "Heap Tean Seang Tee Temple Balik Pulau", "Location": "Heap Tean Seang Tee Temple K 4, Main Road, Balik Pulau, Penang.", "Longitude": 100.2349501, "Latitude": 5.350316, "Region": "Penang", "Category": "宗教", "PageNumber": "102" }, "geometry": { "type": "Point", "coordinates": [ 100.235, 5.3503, 100.235 ] } },
{ "type": "Feature", "properties": { "Name_CH": "槟城浮罗新路头七圣宫", "Name_ML": "Pertubuhan Penganut Dewi Chit Seng", "Name_EN": null, "Location": "Tokong Chit Seng, Lot 455, Jalan Bahru, Mk-D, 11000 Balik Pulau, Penang.", "Longitude": 100.2104858, "Latitude": 5.3521487, "Region": "Penang", "Category": "宗教", "PageNumber": "102" }, "geometry": { "type": "Point", "coordinates": [ 100.2105, 5.3521, 100.2105 ] } },
{ "type": "Feature", "properties": { "Name_CH": "槟城惠巴帝爷宫", "Name_ML": "Rumah Berhala Hui Aun Teh Ean Kong Pulau Pinang", "Name_EN": null, "Location": "418 Jalan Perak, Pulau Pinang.", "Longitude": 100.313366, "Latitude": 5.3920824, "Region": "Penang", "Category": "宗教", "PageNumber": "102" }, "geometry": { "type": "Point", "coordinates": [ 100.3134, 5.3921, 100.3134 ] } },
{ "type": "Feature", "properties": { "Name_CH": "槟城观音亭", "Name_ML": "Persatuan Pengganut Kuam Im Tean Pulau Pinang", "Name_EN": null, "Location": "No.22, Jalan Germang, Jelutong, Pulau Pinang.", "Longitude": 100.310501, "Latitude": 5.3950124, "Region": "Penang", "Category": "宗教", "PageNumber": "102" }, "geometry": { "type": "Point", "coordinates": [ 100.3105, 5.395, 100.3105 ] } },
{ "type": "Feature", "properties": { "Name_CH": "槟城济公活佛庙", "Name_ML": "Pertubuhan Penganut Dewa Ci Kung Pulau Pinang", "Name_EN": null, "Location": "No.19 Lorong Perak, Pulau Pinang.", "Longitude": 100.3197122, "Latitude": 5.3998517, "Region": "Penang", "Category": "宗教", "PageNumber": "102" }, "geometry": { "type": "Point", "coordinates": [ 100.3197, 5.3999, 100.3197 ] } },
{ "type": "Feature", "properties": { "Name_CH": "槟城济公仙师庙", "Name_ML": "Persatuan Pengganut Dewa Chek Kong Sien Soo Pulau Pinang", "Name_EN": null, "Location": "No.23-G-4 Solok Sg. Pinang, Jeluton, Pulau Pinang.", "Longitude": 100.3264605, "Latitude": 5.4000089, "Region": "Penang", "Category": "宗教", "PageNumber": "102" }, "geometry": { "type": "Point", "coordinates": [ 100.3265, 5.4, 100.3265 ] } },
{ "type": "Feature", "properties": { "Name_CH": "槟城甘光峇鲁及跑马园庆赞中元", "Name_ML": "Pertubuhan Perayaan Teong Guan Kg. Bahru & Taman Lumba Kuda Pulau Pinang", "Name_EN": null, "Location": "330 MK 16, Kg. Bahru, Ayer Itam, Pulau Pinang.", "Longitude": 100.2782329, "Latitude": 5.402693, "Region": "Penang", "Category": "宗教", "PageNumber": "102" }, "geometry": { "type": "Point", "coordinates": [ 100.2782, 5.4027, 100.2782 ] } },
{ "type": "Feature", "properties": { "Name_CH": "槟城湖花园大树下哪卓美拉", "Name_ML": "Persatuan Penganut Dewa Dato Kong Merah", "Name_EN": null, "Location": "151 Jalan Air Puteh, Air Itam, Pulau Pinang.", "Longitude": 100.2865303, "Latitude": 5.4055857, "Region": "Penang", "Category": "宗教", "PageNumber": "102" }, "geometry": { "type": "Point", "coordinates": [ 100.2865, 5.4056, 100.2865 ] } },
{ "type": "Feature", "properties": { "Name_CH": "槟城华能佛教学会", "Name_ML": "Pertubuhan Buddhist Wat-Nern Pulau Pinang", "Name_EN": "Penang Wat-Nern Buddhist Society", "Location": "42, Solok Rawang (Off Jalan P. Ramlee), 10460 Penang.", "Longitude": 100.3127816, "Latitude": 5.4078531, "Region": "Penang", "Category": "宗教", "PageNumber": "102" }, "geometry": { "type": "Point", "coordinates": [ 100.3128, 5.4079, 100.3128 ] } },
{ "type": "Feature", "properties": { "Name_CH": "槟城观音阁念佛会", "Name_ML": "Kuan Im Kok Liam Hood Hoay Penang", "Name_EN": null, "Location": "46, Jalan Datuk Keramt, Pulau Pinang.", "Longitude": 100.327511, "Latitude": 5.413857, "Region": "Penang", "Category": "宗教", "PageNumber": "102" }, "geometry": { "type": "Point", "coordinates": [ 100.3275, 5.4139, 100.3275 ] } },
{ "type": "Feature", "properties": { "Name_CH": "槟城美湖广福宫", "Name_ML": "Rumah Berhala Kong Hock Keong", "Name_EN": null, "Location": "136, MK8, Gertak Sangggul, 11910 Bayan Lepas, Pulau Pinang.", "Longitude": 100.1941399, "Latitude": 5.2848183, "Region": "Penang", "Category": "宗教", "PageNumber": "103" }, "geometry": { "type": "Point", "coordinates": [ 100.1941, 5.2848, 100.1941 ] } },
{ "type": "Feature", "properties": { "Name_CH": "槟城南山寺", "Name_ML": "Persatuan Penganut Dewa Lam Sun Shih Pulau Pinang", "Name_EN": null, "Location": "No.C-C87 MK 12, Sg. Nibong Kecil Pulau Pinang.", "Longitude": 100.2992448, "Latitude": 5.3305946, "Region": "Penang", "Category": "宗教", "PageNumber": "103" }, "geometry": { "type": "Point", "coordinates": [ 100.2992, 5.3306, 100.2992 ] } },
{ "type": "Feature", "properties": { "Name_CH": "槟城南海观世音菩萨庙", "Name_ML": "Persatuan Penganut Dewi Lam Hai Kuan Say Im Por Sat Pulau Pinang", "Name_EN": null, "Location": "355-N, Lengkok Pemancar, Pulau Pinang.", "Longitude": 100.3068646, "Latitude": 5.3691224, "Region": "Penang", "Category": "宗教", "PageNumber": "103" }, "geometry": { "type": "Point", "coordinates": [ 100.3069, 5.3691, 100.3069 ] } },
{ "type": "Feature", "properties": { "Name_CH": "槟城垄尾龙沙花园组屋公寓暨小贩庆赞中元", "Name_ML": "Pertubuhan Perayaan Phor Thor Taman Terubong Jaya Paya Terubong Pulau Pinang", "Name_EN": null, "Location": "41-G-3, Tingkat Paya Terubong 4, 11060 Pulau Pinang.", "Longitude": 100.2757557, "Latitude": 5.3696696, "Region": "Penang", "Category": "宗教", "PageNumber": "103" }, "geometry": { "type": "Point", "coordinates": [ 100.2758, 5.3697, 100.2758 ] } },
{ "type": "Feature", "properties": { "Name_CH": "槟城垄尾(尾区)庆赞中元盂兰胜会", "Name_ML": "Pertubuhan Perayaan Teong Guan Yu Lan Sheng Hui Ujong Paya Terubong Pulau Pinang", "Name_EN": null, "Location": "1098-C Mkl3, Jalan Paya Terubong, 11060 Pulau Pinang.", "Longitude": 100.275006, "Latitude": 5.3708885, "Region": "Penang", "Category": "宗教", "PageNumber": "103" }, "geometry": { "type": "Point", "coordinates": [ 100.275, 5.3709, 100.275 ] } },
{ "type": "Feature", "properties": { "Name_CH": "槟城霹雳令福天宫大伯公", "Name_ML": "Persatuan Penganut Dewa Hock Theang Kwong Tua Pek Kong Pulau Pinang", "Name_EN": null, "Location": "No.168, Pintasan Permacar 3, Taman Tun Sardon, Pulau Pinang.", "Longitude": 100.3023821, "Latitude": 5.371698, "Region": "Penang", "Category": "宗教", "PageNumber": "103" }, "geometry": { "type": "Point", "coordinates": [ 100.3024, 5.3717, 100.3024 ] } },
{ "type": "Feature", "properties": { "Name_CH": "槟城垄尾南山大伯公", "Name_ML": "Pertubuhan Penganut Dewa Lam Suah Tuah Peh Kong, Paya Terubong Pulau Pinang", "Name_EN": null, "Location": "No.6, Jalan Oriental Paya Terubong, Pulau Pinang.", "Longitude": 100.2740881, "Latitude": 5.3783421, "Region": "Penang", "Category": "宗教", "PageNumber": "103" }, "geometry": { "type": "Point", "coordinates": [ 100.2741, 5.3783, 100.2741 ] } },
{ "type": "Feature", "properties": { "Name_CH": "槟城霹雳泠郭龙殿四府王爷", "Name_ML": "Persatuan Penganut Dewa Si Ong Hoo (Koay Leong Tean) Pulau Pinang", "Name_EN": null, "Location": "302 B, Jelutong Barat Jelutong, Pulau Pinang.", "Longitude": 100.311323, "Latitude": 5.3892299, "Region": "Penang", "Category": "宗教", "PageNumber": "103" }, "geometry": { "type": "Point", "coordinates": [ 100.3113, 5.3892, 100.3113 ] } },
{ "type": "Feature", "properties": { "Name_CH": "槟城棉兰双溪等区盂兰胜会", "Name_ML": "Pertubuhan Menyambut Perayaan Teong Guan Kawasan Medan Sungkai", "Name_EN": null, "Location": "31 Medan Sungkai, Pulau Pinang.", "Longitude": 100.3102982, "Latitude": 5.4071963, "Region": "Penang", "Category": "宗教", "PageNumber": "103" }, "geometry": { "type": "Point", "coordinates": [ 100.3103, 5.4072, 100.3103 ] } },
{ "type": "Feature", "properties": { "Name_CH": "槟城哪吒庙", "Name_ML": "Pertubuhan Penganut Dewa Na Zha Pulau Pinang", "Name_EN": null, "Location": "67 Gat Lebuh Presgrave, Pulau Pinang.", "Longitude": 100.3329925, "Latitude": 5.4094529, "Region": "Penang", "Category": "宗教", "PageNumber": "103" }, "geometry": { "type": "Point", "coordinates": [ 100.333, 5.4095, 100.333 ] } },
{ "type": "Feature", "properties": { "Name_CH": "槟城菩提学院", "Name_ML": "Phor Tay Huck Ee (Phor Tay Institution) Penang", "Name_EN": null, "Location": "No.19-A, Bagan Jermal Road, Butterworth.", "Longitude": 100.372504, "Latitude": 5.414818, "Region": "Penang", "Category": "宗教", "PageNumber": "103" }, "geometry": { "type": "Point", "coordinates": [ 100.3725, 5.4148, 100.3725 ] } },
{ "type": "Feature", "properties": { "Name_CH": "槟城哪吒宫", "Name_ML": "Persatuan Penganut Dewa Loh Chia Keong", "Name_EN": null, "Location": "No.3, Cheap Side, Chulia Street, Pulau Pinang.", "Longitude": 100.3366012, "Latitude": 5.418056, "Region": "Penang", "Category": "宗教", "PageNumber": "103" }, "geometry": { "type": "Point", "coordinates": [ 100.3366, 5.4181, 100.3366 ] } },
{ "type": "Feature", "properties": { "Name_CH": "槟城双溪赖黄老仙师", "Name_ML": "Pertubuhan Penganut Dewa Wang Lao Sean Shu Sg. Dua Pulau Pinang", "Name_EN": null, "Location": "No.798C, Lorong Sg. Dua, Kampung Sg. Dua, Pulau Pinang.", "Longitude": 100.302514, "Latitude": 5.3478684, "Region": "Penang", "Category": "宗教", "PageNumber": "104" }, "geometry": { "type": "Point", "coordinates": [ 100.3025, 5.3479, 100.3025 ] } },
{ "type": "Feature", "properties": { "Name_CH": "槟城双溪赖九皇大帝(斗母宫)", "Name_ML": "Persatuan Penganut Dew Kew Ong Tai Tai (Tow Boe Keong) Sg. Dua Pulau Pinang", "Name_EN": null, "Location": "No.G-G-27, Lorong Helang 3, Desa Permai Indah, Sg. Duo, Pulau Pinang.", "Longitude": 100.2995922, "Latitude": 5.3489614, "Region": "Penang", "Category": "宗教", "PageNumber": "104" }, "geometry": { "type": "Point", "coordinates": [ 100.2996, 5.349, 100.2996 ] } },
{ "type": "Feature", "properties": { "Name_CH": "槟城释迦摩尼佛", "Name_ML": "Pertubuhan Penganut Dewa Shi Jia Mo Ni Fo Pulau Pinang", "Name_EN": null, "Location": "6 Tingkat Jelutong, Jelutong, Pulau Pinang.", "Longitude": 100.3101691, "Latitude": 5.386636, "Region": "Penang", "Category": "宗教", "PageNumber": "104" }, "geometry": { "type": "Point", "coordinates": [ 100.3102, 5.3866, 100.3102 ] } },
{ "type": "Feature", "properties": { "Name_CH": "槟城清水祖师", "Name_ML": "Persatuan Penganut Dewa Cheng Chooi Chor Soo Pulau Pinang", "Name_EN": null, "Location": "T 11837 (sebelah kanan) 217, Jelutong Barat 11600 Pulau Pinang.", "Longitude": 100.311323, "Latitude": 5.3892299, "Region": "Penang", "Category": "宗教", "PageNumber": "104" }, "geometry": { "type": "Point", "coordinates": [ 100.3113, 5.3892, 100.3113 ] } },
{ "type": "Feature", "properties": { "Name_CH": "槟城日莲宗佛教会", "Name_ML": "Persatuan Penganut Buddha Nichiren Shochu Hokkeko Pulau Pinang", "Name_EN": null, "Location": "5-02-05. Green Lane Height, Pulau Pinang.", "Longitude": 100.3040219, "Latitude": 5.4012601, "Region": "Penang", "Category": "宗教", "PageNumber": "104" }, "geometry": { "type": "Point", "coordinates": [ 100.304, 5.4013, 100.304 ] } },
{ "type": "Feature", "properties": { "Name_CH": "槟城石公天和堂", "Name_ML": "Pertubuhan Penganut Dewa Teik San Tai Huat Soo (Thean Hoe Tong) Pulau Pinang", "Name_EN": null, "Location": "600F Jalan Air Itam, MK16 Air Itam, Pulau Pinang.", "Longitude": 100.2779591, "Latitude": 5.4015018, "Region": "Penang", "Category": "宗教", "PageNumber": "104" }, "geometry": { "type": "Point", "coordinates": [ 100.278, 5.4015, 100.278 ] } },
{ "type": "Feature", "properties": { "Name_CH": "槟城七条路菩提树下事督依爪九兄弟神庙", "Name_ML": "Persatuan Penganut Dewa Yahli Pulau Pinang", "Name_EN": null, "Location": "1, Lintang Macallum Dua, 10300 Pulau Pinang", "Longitude": 100.3338978, "Latitude": 5.4035932, "Region": "Penang", "Category": "宗教", "PageNumber": "104" }, "geometry": { "type": "Point", "coordinates": [ 100.3339, 5.4036, 100.3339 ] } },
{ "type": "Feature", "properties": { "Name_CH": "槟城日落洞斗母宫", "Name_ML": "Rumah Berhala Tow Boe Keong Jelutong Pulau Pinang", "Name_EN": null, "Location": "No.316 Jalan Jelutong, Pulau Pinang.", "Longitude": 100.3260855, "Latitude": 5.4043539, "Region": "Penang", "Category": "宗教", "PageNumber": "104" }, "geometry": { "type": "Point", "coordinates": [ 100.3261, 5.4044, 100.3261 ] } },
{ "type": "Feature", "properties": { "Name_CH": "槟城七条路填地荫山坛保老伯", "Name_ML": "Pertubuhan Penganut Dewa Imm Shan Thua Pintasan Cecil Pulau Pinang", "Name_EN": null, "Location": "No 16-F, Pintasan Cecil Satu, Pulau Pinang.", "Longitude": 100.3318526, "Latitude": 5.405799, "Region": "Penang", "Category": "宗教", "PageNumber": "104" }, "geometry": { "type": "Point", "coordinates": [ 100.3319, 5.4058, 100.3319 ] } },
{ "type": "Feature", "properties": { "Name_CH": "槟城清海无上师禅定学会", "Name_ML": "Persatuan Meditasi Ching Hai Wu Shang Shih Pulau Pinang", "Name_EN": null, "Location": "No.66, Jalan Dunlop, Pulau Pinang.", "Longitude": 100.3193159, "Latitude": 5.414231, "Region": "Penang", "Category": "宗教", "PageNumber": "104" }, "geometry": { "type": "Point", "coordinates": [ 100.3193, 5.4142, 100.3193 ] } },
{ "type": "Feature", "properties": { "Name_CH": "槟城三慧讲堂", "Name_ML": null, "Name_EN": "The Buddhist Triple Wisdom Hall", "Location": "Wisdom Hall No.5, Pangkor Road.", "Longitude": 100.3192739, "Latitude": 5.426482, "Region": "Penang", "Category": "宗教", "PageNumber": "104" }, "geometry": { "type": "Point", "coordinates": [ 100.3193, 5.4265, 100.3193 ] } },
{ "type": "Feature", "properties": { "Name_CH": "槟城琼谊南天宫", "Name_ML": "Persatuan Kheng Yee Nam Hin Kong Pulau Pinang", "Name_EN": null, "Location": "No.534, Tanjong Bungah, Pulau Pinang.", "Longitude": 100.280178, "Latitude": 5.464279, "Region": "Penang", "Category": "宗教", "PageNumber": "104" }, "geometry": { "type": "Point", "coordinates": [ 100.2802, 5.4643, 100.2802 ] } },
{ "type": "Feature", "properties": { "Name_CH": "槟城武吉占姆盂兰胜会", "Name_ML": "Pertubuhan Perayaan Yee Lan Seng Hooi Taman Bukit Jambul Pulau Pinang", "Name_EN": null, "Location": "F-G-5 Taman Bukit Jambul, Pulau Pinang.", "Longitude": 100.289387, "Latitude": 5.336517, "Region": "Penang", "Category": "宗教", "PageNumber": "105" }, "geometry": { "type": "Point", "coordinates": [ 100.2894, 5.3365, 100.2894 ] } },
{ "type": "Feature", "properties": { "Name_CH": "槟城双溪里望显灵宫", "Name_ML": "Pertubuhan Penganut Dewa Hean Leng Kong Sg. Nibong Pulau Pinang", "Name_EN": null, "Location": "3, Jalan Pantai Jerjak Empat, 11900 Sg. Nibong, Pulau Pinang.", "Longitude": 100.3033153, "Latitude": 5.3426382, "Region": "Penang", "Category": "宗教", "PageNumber": "105" }, "geometry": { "type": "Point", "coordinates": [ 100.3033, 5.3426, 100.3033 ] } },
{ "type": "Feature", "properties": { "Name_CH": "槟城双溪赖玄天上帝庙", "Name_ML": "Pertubuhan Penganut Dewa Hen Thean Seong Tay Sg. Dua Pulau Pinang", "Name_EN": null, "Location": "663-B Sg. Dua, Gelugor, Pulau Pinang.", "Longitude": 100.2995502, "Latitude": 5.3523693, "Region": "Penang", "Category": "宗教", "PageNumber": "105" }, "geometry": { "type": "Point", "coordinates": [ 100.2996, 5.3524, 100.2996 ] } },
{ "type": "Feature", "properties": { "Name_CH": "槟城玄武山中灵宫", "Name_ML": "Persatuan Penganut Dewa Seong Tay Kong Hean Boo Suah Teong Leng Keong", "Name_EN": null, "Location": "Lot 770, Lebuhraya Jelutong, Pulau Pinang.", "Longitude": 100.3098713, "Latitude": 5.3878828, "Region": "Penang", "Category": "宗教", "PageNumber": "105" }, "geometry": { "type": "Point", "coordinates": [ 100.3099, 5.3879, 100.3099 ] } },
{ "type": "Feature", "properties": { "Name_CH": "槟城天灵宫", "Name_ML": "Pertubuhan Penganut Dewa Thean Leng Keong Gerge Town, Pulau Pinang.", "Name_EN": null, "Location": "No.172, Jalan Jelutong, Pulau Pinang.", "Longitude": 100.3154543, "Latitude": 5.3939501, "Region": "Penang", "Category": "宗教", "PageNumber": "105" }, "geometry": { "type": "Point", "coordinates": [ 100.3155, 5.394, 100.3155 ] } },
{ "type": "Feature", "properties": { "Name_CH": "槟城亚依淡福德正神会", "Name_ML": "Persatuan Penganut Dewa Hock Teik Cheng Sin (1994)", "Name_EN": null, "Location": "607-F, Jalan Balik Pulau, Air Itam, 11500 Pulau Pinang.", "Longitude": 100.2769733, "Latitude": 5.4022612, "Region": "Penang", "Category": "宗教", "PageNumber": "105" }, "geometry": { "type": "Point", "coordinates": [ 100.277, 5.4023, 100.277 ] } },
{ "type": "Feature", "properties": { "Name_CH": "槟城太师府", "Name_ML": "Persatuan Penganut Dewa Tye Su Hoo Pulau Pinang", "Name_EN": null, "Location": "135 Jalan Free School, Pulau Pinang.", "Longitude": 100.313693, "Latitude": 5.4032206, "Region": "Penang", "Category": "宗教", "PageNumber": "105" }, "geometry": { "type": "Point", "coordinates": [ 100.3137, 5.4032, 100.3137 ] } },
{ "type": "Feature", "properties": { "Name_CH": "槟城主桥尾拿督公庙", "Name_ML": "Pertubuhan Penganut Tokong ghaut Lebuh", "Name_EN": null, "Location": "8B-05-08, Ghaut Lebuh, 10300 Penang.", "Longitude": 100.3323561, "Latitude": 5.4078471, "Region": "Penang", "Category": "宗教", "PageNumber": "105" }, "geometry": { "type": "Point", "coordinates": [ 100.3324, 5.4078, 100.3324 ] } },
{ "type": "Feature", "properties": { "Name_CH": "槟城一清道教会", "Name_ML": "Persatuan Penganut Tao Yi Ching Pulau Pinang", "Name_EN": null, "Location": "3-5 Lorong Ikan, Pulau Pinang.", "Longitude": 100.3346322, "Latitude": 5.4126489, "Region": "Penang", "Category": "宗教", "PageNumber": "105" }, "geometry": { "type": "Point", "coordinates": [ 100.3346, 5.4126, 100.3346 ] } },
{ "type": "Feature", "properties": { "Name_CH": "槟城香港街斗母宫佛教会", "Name_ML": "Persatuan Penganut Agama Buddha Hong Kong Street Tow Boh Keong Penang", "Name_EN": null, "Location": "9 Hong Kong Street, Pulau Pinang.", "Longitude": 100.3331271, "Latitude": 5.4147878, "Region": "Penang", "Category": "宗教", "PageNumber": "105" }, "geometry": { "type": "Point", "coordinates": [ 100.3331, 5.4148, 100.3331 ] } },
{ "type": "Feature", "properties": { "Name_CH": "槟城维新佛学社", "Name_ML": "Pertubuhan Bagi Unsul-Unsul Ugama Buddha Pulau Pinang", "Name_EN": "Society For Basic Buddhism Penang", "Location": "No.4, Popus Lane, Pulau Pinang.", "Longitude": 100.3308585, "Latitude": 5.4169078, "Region": "Penang", "Category": "宗教", "PageNumber": "105" }, "geometry": { "type": "Point", "coordinates": [ 100.3309, 5.4169, 100.3309 ] } },
{ "type": "Feature", "properties": { "Name_CH": "槟城夜兰阿珍11街区盂兰胜会", "Name_ML": "Persatuan Perayaan Phor Thor Jalan Hutton (11 Sektor) Pulau Pinang", "Name_EN": null, "Location": "No.28, Lorong Ceylon, Pulau Pinang.", "Longitude": 100.3292433, "Latitude": 5.4217704, "Region": "Penang", "Category": "宗教", "PageNumber": "105" }, "geometry": { "type": "Point", "coordinates": [ 100.3292, 5.4218, 100.3292 ] } },
{ "type": "Feature", "properties": { "Name_CH": "槟榔屿文丁清龙宫", "Name_ML": null, "Name_EN": "Cheng Leong Temple", "Location": "Lot 183, Mk-6, Genting Balik Pulau, 11000 Pulau Pinang.", "Longitude": 100.2288807, "Latitude": 5.343707, "Region": "Penang", "Category": "宗教", "PageNumber": "106" }, "geometry": { "type": "Point", "coordinates": [ 100.2289, 5.3437, 100.2289 ] } },
{ "type": "Feature", "properties": { "Name_CH": "槟城州孔孟大道院", "Name_ML": "Pertubuhan Confucius Dan Mencius Pulau Pinang", "Name_EN": "The Confucius And Mencius Society Penang", "Location": "1474 Taman Tan Sai Gin, Bukit Mertajam, Pulau Pinang.", "Longitude": 100.4545155, "Latitude": 5.3670326, "Region": "Penang", "Category": "宗教", "PageNumber": "106" }, "geometry": { "type": "Point", "coordinates": [ 100.4545, 5.367, 100.4545 ] } },
{ "type": "Feature", "properties": { "Name_CH": "槟城真武宫", "Name_ML": "Pertubuhan Penganut Buddha Chin Boo Keong Pulau Pinang", "Name_EN": null, "Location": "Block 96-2-1, Jalan Tan Sri Teh Ewe Lim, Pulau Pinang.", "Longitude": 100.3124689, "Latitude": 5.3915856, "Region": "Penang", "Category": "宗教", "PageNumber": "106" }, "geometry": { "type": "Point", "coordinates": [ 100.3125, 5.3916, 100.3125 ] } },
{ "type": "Feature", "properties": { "Name_CH": "槟城正义堂", "Name_ML": "Persatuan Ching Ghee Tong", "Name_EN": null, "Location": "142-E, Jalan Sir Ibrahim, 11600 Pulau Pinang.", "Longitude": 100.3086441, "Latitude": 5.3950978, "Region": "Penang", "Category": "宗教", "PageNumber": "106" }, "geometry": { "type": "Point", "coordinates": [ 100.3086, 5.3951, 100.3086 ] } },
{ "type": "Feature", "properties": { "Name_CH": "槟城中坛元帅", "Name_ML": "Pertubuhan Penganut Dewa Teong Tua Guan Seoh Pulau Pinang", "Name_EN": null, "Location": "296B West Jelutong, Jelutong, Pulau Pinang.", "Longitude": 100.3217479, "Latitude": 5.400253, "Region": "Penang", "Category": "宗教", "PageNumber": "106" }, "geometry": { "type": "Point", "coordinates": [ 100.3217, 5.4003, 100.3217 ] } },
{ "type": "Feature", "properties": { "Name_CH": "槟城紫竹林法坛", "Name_ML": "Chee Chu Lin Fa Than", "Name_EN": null, "Location": "316-F, Jalan Perak, 11600 Pulau Pinang.", "Longitude": 100.3142903, "Latitude": 5.4010463, "Region": "Penang", "Category": "宗教", "PageNumber": "106" }, "geometry": { "type": "Point", "coordinates": [ 100.3143, 5.401, 100.3143 ] } },
{ "type": "Feature", "properties": { "Name_CH": "槟城怡和园天龙宫", "Name_ML": "Pertubuhan Penganut Dewa Thean Leng Keong George Town Pulau Pinang", "Name_EN": null, "Location": "72 Jalan Free School, Jelutong, Pulau Pinang.", "Longitude": 100.3053647, "Latitude": 5.4017777, "Region": "Penang", "Category": "宗教", "PageNumber": "106" }, "geometry": { "type": "Point", "coordinates": [ 100.3054, 5.4018, 100.3054 ] } },
{ "type": "Feature", "properties": { "Name_CH": "槟榔屿孔教会", "Name_ML": null, "Name_EN": "Penang Confucian Association", "Location": "1, Jalan Ibbetson, 11400 Pulau Pinang.", "Longitude": 100.2994188, "Latitude": 5.4062286, "Region": "Penang", "Category": "宗教", "PageNumber": "106" }, "geometry": { "type": "Point", "coordinates": [ 100.2994, 5.4062, 100.2994 ] } },
{ "type": "Feature", "properties": { "Name_CH": "槟榔屿齐天宫", "Name_ML": "Pertubuhan Penganut Dewa Tai Seng Yeah(Qi Tian Gong) Pulau Pinang", "Name_EN": null, "Location": "No.7, Taman Perak, Pulau Pinang.", "Longitude": 100.3167263, "Latitude": 5.4108056, "Region": "Penang", "Category": "宗教", "PageNumber": "106" }, "geometry": { "type": "Point", "coordinates": [ 100.3167, 5.4108, 100.3167 ] } },
{ "type": "Feature", "properties": { "Name_CH": "槟榔屿进法殿杨府真人", "Name_ML": "Yang Fu Zhen Ren Pulau Pinang", "Name_EN": null, "Location": "33, Jalan Waterfall, 10350 Pulau Pinang.", "Longitude": 100.2995073, "Latitude": 5.4303417, "Region": "Penang", "Category": "宗教", "PageNumber": "106" }, "geometry": { "type": "Point", "coordinates": [ 100.2995, 5.4303, 100.2995 ] } },
{ "type": "Feature", "properties": { "Name_CH": "槟榔屿圣教会明善堂", "Name_ML": null, "Name_EN": "Ming Sean Tong Meditation Centre Penang", "Location": "Plot 22, Elsiedale Estate, Mount Erskine, 10470 Penang.", "Longitude": 100.3012885, "Latitude": 5.4485301, "Region": "Penang", "Category": "宗教", "PageNumber": "106" }, "geometry": { "type": "Point", "coordinates": [ 100.3013, 5.4485, 100.3013 ] } },
{ "type": "Feature", "properties": { "Name_CH": "槟城直落巴巷峰溪山大伯公庙", "Name_ML": "Pertubuhan Rumah Tua Pek Kong Telok Bahang Pulau Pinang", "Name_EN": null, "Location": "Lot 552, Jalan Hassan Abas, Teluk Bahang, Pulau Pinang.", "Longitude": 100.2102652, "Latitude": 5.4574064, "Region": "Penang", "Category": "宗教", "PageNumber": "106" }, "geometry": { "type": "Point", "coordinates": [ 100.2103, 5.4574, 100.2103 ] } },
{ "type": "Feature", "properties": { "Name_CH": "大山脚阿尔玛盂兰胜会", "Name_ML": "Pertubuhan Yu Lan Sheng Hui Alma Bukit Mertajam", "Name_EN": null, "Location": "69 Jalan Seladang, Tama Selamat, Alma, Bukit Mertajam.", "Longitude": 100.4884287, "Latitude": 5.327252, "Region": "Penang", "Category": "宗教", "PageNumber": "107" }, "geometry": { "type": "Point", "coordinates": [ 100.4884, 5.3273, 100.4884 ] } },
{ "type": "Feature", "properties": { "Name_CH": "大山脚阿里玛花园福德大伯公庙", "Name_ML": "Persatuan Penganut Dewa Hock Teik Tua Peik Kong, Taman Alma, Bukit Mertajam", "Name_EN": null, "Location": "Lebuhraya Muhibbah, Taman Jernih, 14000 Bukit Mertajam, Pulau Pinang.", "Longitude": 100.478596, "Latitude": 5.342795, "Region": "Penang", "Category": "宗教", "PageNumber": "107" }, "geometry": { "type": "Point", "coordinates": [ 100.4786, 5.3428, 100.4786 ] } },
{ "type": "Feature", "properties": { "Name_CH": "打曼再也佑民宫大伯公", "Name_ML": "Part Penganut Dewa Yew Min Kung Tua Peh Kong", "Name_EN": null, "Location": "19, Taman Jaya, Bukit Mertajam, 14000 Penang.", "Longitude": 100.468434, "Latitude": 5.356002, "Region": "Penang", "Category": "宗教", "PageNumber": "107" }, "geometry": { "type": "Point", "coordinates": [ 100.4684, 5.356, 100.4684 ] } },
{ "type": "Feature", "properties": { "Name_CH": "大山脚艾士顿律拿督公庙", "Name_ML": "Pertubuhan Penganut Dewa Na Tok Kong Jalan Aston Bukit Mertajam Seberang Perai Tengah", "Name_EN": null, "Location": "No.216, Jalan Aston, Bukit Mertajam, Seberang Perai Tengah.", "Longitude": 100.462582, "Latitude": 5.364466, "Region": "Penang", "Category": "宗教", "PageNumber": "107" }, "geometry": { "type": "Point", "coordinates": [ 100.4626, 5.3645, 100.4626 ] } },
{ "type": "Feature", "properties": { "Name_CH": "才能园福德宫", "Name_ML": "Pertubuhan Penganut Dewa Hock Teik Kong, Taman Chai Leng Perai", "Name_EN": null, "Location": "No.209, Jalan Gan Chai leng, Taman Chai Leng, Perai, Seberang Perai Tengah.", "Longitude": 100.3896369, "Latitude": 5.3880512, "Region": "Penang", "Category": "宗教", "PageNumber": "107" }, "geometry": { "type": "Point", "coordinates": [ 100.3896, 5.3881, 100.3896 ] } },
{ "type": "Feature", "properties": { "Name_CH": "槟州中元联合会", "Name_ML": "Persatuan Teong Guan, Pulau Pinang", "Name_EN": null, "Location": "24, Jalan Bagan Serai, 11600 Penang.", "Longitude": 100.3116199, "Latitude": 5.392505, "Region": "Penang", "Category": "宗教", "PageNumber": "107" }, "geometry": { "type": "Point", "coordinates": [ 100.3116, 5.3925, 100.3116 ] } },
{ "type": "Feature", "properties": { "Name_CH": "大路后灵应社三王府", "Name_ML": "Persatuan Leng Eng Siah Sam Ong Hu Pulau Pinang Leng Eng Siah Sam Ong Hu Pulau Pinang", "Name_EN": null, "Location": "34-3, Perak Road, 11600 Penang.", "Longitude": 100.3139265, "Latitude": 5.399918, "Region": "Penang", "Category": "宗教", "PageNumber": "107" }, "geometry": { "type": "Point", "coordinates": [ 100.3139, 5.3999, 100.3139 ] } },
{ "type": "Feature", "properties": { "Name_CH": "大路後何莲园进宝宫", "Name_ML": "Rumah Berhala Chin Poh Keong Pulau Pinang", "Name_EN": null, "Location": "360-R, Perak Road, Penang.", "Longitude": 100.3139265, "Latitude": 5.399918, "Region": "Penang", "Category": "宗教", "PageNumber": "107" }, "geometry": { "type": "Point", "coordinates": [ 100.3139, 5.3999, 100.3139 ] } },
{ "type": "Feature", "properties": { "Name_CH": "大路后港尾福正祠大伯公", "Name_ML": "Pertubuhan Penganut Dewa Hock Chian Soo Tua Pek Kong", "Name_EN": null, "Location": "322-H, Jalan Perak Jelutong, 11600 Penang.", "Longitude": 100.3149192, "Latitude": 5.3999706, "Region": "Penang", "Category": "宗教", "PageNumber": "107" }, "geometry": { "type": "Point", "coordinates": [ 100.3149, 5.4, 100.3149 ] } },
{ "type": "Feature", "properties": { "Name_CH": "彩虹念佛中心", "Name_ML": "Dewan Buddhist Pelangi Chai Hoong Nien Fo", "Name_EN": null, "Location": "Blok 9-1-2 Lintang Macallum Dua, 10300 Georgetown, Penang.", "Longitude": 100.3338978, "Latitude": 5.4035932, "Region": "Penang", "Category": "宗教", "PageNumber": "107" }, "geometry": { "type": "Point", "coordinates": [ 100.3339, 5.4036, 100.3339 ] } },
{ "type": "Feature", "properties": { "Name_CH": "大普公坛", "Name_ML": "Persatuan Penganut Dewa Tai Por Kong", "Name_EN": null, "Location": "111, Macnair Street, 10300 Pulau Pinang.", "Longitude": 100.330003, "Latitude": 5.410771, "Region": "Penang", "Category": "宗教", "PageNumber": "107" }, "geometry": { "type": "Point", "coordinates": [ 100.33, 5.4108, 100.33 ] } },
{ "type": "Feature", "properties": { "Name_CH": "打枪埔斗母宫九皇大帝", "Name_ML": "Dou Mu Gong Ju Wang Da Di Padang Tembak", "Name_EN": null, "Location": "C14, Ground Floor, Padang Tembak, Pulau Pinang.", "Longitude": 100.291649, "Latitude": 5.410325, "Region": "Penang", "Category": "宗教", "PageNumber": "107" }, "geometry": { "type": "Point", "coordinates": [ 100.2916, 5.4103, 100.2916 ] } },
{ "type": "Feature", "properties": { "Name_CH": "大山脚春江园盂兰胜会", "Name_ML": "Pertubuhan Penganut Dewa Yee Lam Sheng Huey Taman Sri Kijang Bukit Mertajam Seberang Perai Tengah", "Name_EN": null, "Location": "No.4, Jalan Sri Kijang 1, Taman Sri Kijang, Bukit Mertajam, Pulau Pinang.", "Longitude": 100.4727655, "Latitude": 5.3214634, "Region": "Penang", "Category": "宗教", "PageNumber": "108" }, "geometry": { "type": "Point", "coordinates": [ 100.4728, 5.3215, 100.4728 ] } },
{ "type": "Feature", "properties": { "Name_CH": "大山脚春江团拿督公庙中坛元帅", "Name_ML": "Persatuan Penganut Dewa Dato Kong Taman Sri Kijang Alma Bukit Mertajam", "Name_EN": null, "Location": "No.29, Lorong Seri Kijang, 22 Taman Seri Kijang, Alma, Bukit Mertajam.", "Longitude": 100.4736586, "Latitude": 5.322516, "Region": "Penang", "Category": "宗教", "PageNumber": "108" }, "geometry": { "type": "Point", "coordinates": [ 100.4737, 5.3225, 100.4737 ] } },
{ "type": "Feature", "properties": { "Name_CH": "大山脚斗目宫九皇大第", "Name_ML": "Pertubuhan Kew Ong Yeah Bukit Mertajam The Kew Ong Yeoh Society Bukit Mertajam", "Name_EN": null, "Location": "No.2469 Jalan Megat Haru, Bukit Mertajam.", "Longitude": 100.4646317, "Latitude": 5.3537585, "Region": "Penang", "Category": "宗教", "PageNumber": "108" }, "geometry": { "type": "Point", "coordinates": [ 100.4646, 5.3538, 100.4646 ] } },
{ "type": "Feature", "properties": { "Name_CH": "大山脚甘榜峇鲁大伯公理事会", "Name_ML": "Persatuan Penganut Dewa Tua Pek Kong Taman Sentosa Bukit Mertajam Seberang Perai", "Name_EN": null, "Location": "2403 & 2404, Jalan Sentosa, Bukit Mertajam, Seberang Perai.", "Longitude": 100.473601, "Latitude": 5.355582, "Region": "Penang", "Category": "宗教", "PageNumber": "108" }, "geometry": { "type": "Point", "coordinates": [ 100.4736, 5.3556, 100.4736 ] } },
{ "type": "Feature", "properties": { "Name_CH": "大山脚德教会紫济阁", "Name_ML": "Pertubuhan Tek Chiao Tzh Ch' ih Bukit Mertajam Tek Chiao Tze Ch' ih Ko Province Wellesley", "Name_EN": null, "Location": "138-B Jalan Mawar, Taman Kuari, Bukit Mertajam.", "Longitude": 100.4703381, "Latitude": 5.3557116, "Region": "Penang", "Category": "宗教", "PageNumber": "108" }, "geometry": { "type": "Point", "coordinates": [ 100.4703, 5.3557, 100.4703 ] } },
{ "type": "Feature", "properties": { "Name_CH": "大山脚佛学会", "Name_ML": "Persatuan Buddhist Bukit Mertajam", "Name_EN": "Bukit Mertajam Buddhist Association", "Location": "22, Lengkok Betik Tmn Sri Jaya Off Jalan Sungai Rambai, 14000 Bukit Mertajam, Pulau Pinang.", "Longitude": 100.4546552, "Latitude": 5.3640473, "Region": "Penang", "Category": "宗教", "PageNumber": "108" }, "geometry": { "type": "Point", "coordinates": [ 100.4547, 5.364, 100.4547 ] } },
{ "type": "Feature", "properties": { "Name_CH": "大山脚福德正神理事会", "Name_ML": "Hock Teik Cheng Sin Temple, Bukit Mertajam", "Name_EN": null, "Location": "1703, Jalan Aston, 14000 Bukit Mertajam, Penang.", "Longitude": 100.463639, "Latitude": 5.362442, "Region": "Penang", "Category": "宗教", "PageNumber": "108" }, "geometry": { "type": "Point", "coordinates": [ 100.4636, 5.3624, 100.4636 ] } },
{ "type": "Feature", "properties": { "Name_CH": "大山脚甘榜艾士顿三王府庙", "Name_ML": "Pertubuhan Penganut Dewa Sam Ong Hoo Kg. Aston Bukit Mertajam Seberang Prai Tengah", "Name_EN": null, "Location": "No.912, Kg. Aston Road, Bukit Mertajam, Seberang Prai Tengah.", "Longitude": 100.4626144, "Latitude": 5.3640712, "Region": "Penang", "Category": "宗教", "PageNumber": "108" }, "geometry": { "type": "Point", "coordinates": [ 100.4626, 5.3641, 100.4626 ] } },
{ "type": "Feature", "properties": { "Name_CH": "大山脚帝沙南眉地灵宫（拿督公）", "Name_ML": "Pertubuhan Penganut Tit Leng Kong Desa Damai", "Name_EN": null, "Location": "1235, Padang Lallang, Taman Desa Damai, 14000 Bukit Mertajam, Seberang Perai Tengah.", "Longitude": 100.448342, "Latitude": 5.365341, "Region": "Penang", "Category": "宗教", "PageNumber": "108" }, "geometry": { "type": "Point", "coordinates": [ 100.4483, 5.3653, 100.4483 ] } },
{ "type": "Feature", "properties": { "Name_CH": "大山脚丹那烈南极仙翁", "Name_ML": "Pertubuhan Penganut Dewa Nan Ji Xian Ong Tanah Liat Bukit Mertajam Seberang Perai", "Name_EN": null, "Location": "1317 Jalan AAengkuang Kg. Berapit, Bukit Mertajam, Pulau Pinang.", "Longitude": 100.4809576, "Latitude": 5.385883, "Region": "Penang", "Category": "宗教", "PageNumber": "108" }, "geometry": { "type": "Point", "coordinates": [ 100.481, 5.3859, 100.481 ] } },
{ "type": "Feature", "properties": { "Name_CH": "大山脚高巴三万本南地红毛园济公庙", "Name_ML": "Pertubuhan Penganut Dewa Chee Kong Penanti Bukit Mertajam Seberang Perai", "Name_EN": null, "Location": "491 Penanti Estate Kubang Semang, Bukit Mertajam, Seberang Perai.", "Longitude": 100.4637611, "Latitude": 5.403828, "Region": "Penang", "Category": "宗教", "PageNumber": "108" }, "geometry": { "type": "Point", "coordinates": [ 100.4638, 5.4038, 100.4638 ] } },
{ "type": "Feature", "properties": { "Name_CH": "大山脚玉皇大帝（天公坛）", "Name_ML": "Persatuan Penganut Dewa Yeok Ong Tye Tay （Tian Kong Thuan）Bukit Mertajam", "Name_EN": null, "Location": "36 Lorong Rusa 2, Taman Selamat, Bukit Mertajam.", "Longitude": 100.4859603, "Latitude": 5.3299322, "Region": "Penang", "Category": "宗教", "PageNumber": "109" }, "geometry": { "type": "Point", "coordinates": [ 100.486, 5.3299, 100.486 ] } },
{ "type": "Feature", "properties": { "Name_CH": "大山脚星君庙", "Name_ML": "Pertubuhan Pengikut Rumah Berhala Xing Jun Miao Bukit Mertajam", "Name_EN": "Xing Jun Society Bukit Mertajam", "Location": "No.69 & 71, Jalan Sepakat, Taman Sri Tenang, Bukit Mertajam, Seberang Perai.", "Longitude": 100.4750638, "Latitude": 5.3487654, "Region": "Penang", "Category": "宗教", "PageNumber": "109" }, "geometry": { "type": "Point", "coordinates": [ 100.4751, 5.3488, 100.4751 ] } },
{ "type": "Feature", "properties": { "Name_CH": "大山脚圣淘沙花园大伯公庙", "Name_ML": "Persatuan Penganut Dewa Tua Pek Kong Taman Sentosa Bukit Mertajam Seberang Perai Tengah", "Name_EN": null, "Location": "No.2404, Jalan Kampung Bharu, Bukit Mertajam.", "Longitude": 100.473524, "Latitude": 5.352104, "Region": "Penang", "Category": "宗教", "PageNumber": "109" }, "geometry": { "type": "Point", "coordinates": [ 100.4735, 5.3521, 100.4735 ] } },
{ "type": "Feature", "properties": { "Name_CH": "大山脚三宝佛会", "Name_ML": "Persatuan Penganut-penganut Buddha Sam Poh Bukit Mertajam", "Name_EN": null, "Location": "No.8, Lorong Harmoni l, Taman Bukit Mas, Bukit Mertajam.", "Longitude": 100.4747814, "Latitude": 5.353949, "Region": "Penang", "Category": "宗教", "PageNumber": "109" }, "geometry": { "type": "Point", "coordinates": [ 100.4748, 5.3539, 100.4748 ] } },
{ "type": "Feature", "properties": { "Name_CH": "大山脚双溪轮武南天门济公活佛", "Name_ML": "Pertubuhan Penganut Dewa Nam Thean Moon Chee Koong Wa Hood Sg. Lembu Bukit Mertajam Seberang Perai", "Name_EN": null, "Location": "No.7, Jalan Sg. Lembu, Bukit Mertajam, Seberang Perai Tengah.", "Longitude": 100.5203781, "Latitude": 5.3548825, "Region": "Penang", "Category": "宗教", "PageNumber": "109" }, "geometry": { "type": "Point", "coordinates": [ 100.5204, 5.3549, 100.5204 ] } },
{ "type": "Feature", "properties": { "Name_CH": "大山脚双溪南湄大伯公（福德祠）", "Name_ML": "Persatuan Penganut Dewa Tua Pek Kong （Hock Teik Si） Sg. Rambai Seberang Perai Tengah", "Name_EN": null, "Location": "421 Sg. Rambai Bukit Mertajam, Seberang Perai Tengah.", "Longitude": 100.4512784, "Latitude": 5.364539, "Region": "Penang", "Category": "宗教", "PageNumber": "109" }, "geometry": { "type": "Point", "coordinates": [ 100.4513, 5.3645, 100.4513 ] } },
{ "type": "Feature", "properties": { "Name_CH": "大山脚鱼池北方宫", "Name_ML": "Persatuan Penganut-penganut Dewa Peh Fang Kong", "Name_EN": null, "Location": "L 565, MK 8, Kg. Permatang Rawa, 14000 Bukit Mertajam, Pulau Pinang.", "Longitude": 100.4400594, "Latitude": 5.3669429, "Region": "Penang", "Category": "宗教", "PageNumber": "109" }, "geometry": { "type": "Point", "coordinates": [ 100.4401, 5.3669, 100.4401 ] } },
{ "type": "Feature", "properties": { "Name_CH": "大山脚双溪武福德正神", "Name_ML": "Pertubuhan Penganut Dewa Hock Teck Chin Sin Sg. Lembu Bukit Mertajam Seberang Perai Tengah.", "Name_EN": null, "Location": "490 Jalan Lurus Lot 635, MK18, Sg. Lembu, Bukit Mertajam.", "Longitude": 100.460544, "Latitude": 5.364991, "Region": "Penang", "Category": "宗教", "PageNumber": "109" }, "geometry": { "type": "Point", "coordinates": [ 100.4605, 5.365, 100.4605 ] } },
{ "type": "Feature", "properties": { "Name_CH": "大山脚武拉必村黄老仙师", "Name_ML": "Rumah Berhala Wong Lau Sian Su Kg. Berapit Bukit Mertajam Seberang Perai", "Name_EN": null, "Location": "1186 Jalan Empat Kg. Berapit Bukit Mertajam.", "Longitude": 100.4712367, "Latitude": 5.3769146, "Region": "Penang", "Category": "宗教", "PageNumber": "109" }, "geometry": { "type": "Point", "coordinates": [ 100.4712, 5.3769, 100.4712 ] } },
{ "type": "Feature", "properties": { "Name_CH": "大山脚武拉必济公先师坛", "Name_ML": "Persatuan Penganut Dewa Che Kong Xian Su Tuar Berapit Bukit Mertajam", "Name_EN": null, "Location": "1181 Jalan Empat, Berapit Bukit Mertajam, Seberang Perai Tengah.", "Longitude": 100.4705584, "Latitude": 5.3801361, "Region": "Penang", "Category": "宗教", "PageNumber": "109" }, "geometry": { "type": "Point", "coordinates": [ 100.4706, 5.3801, 100.4706 ] } },
{ "type": "Feature", "properties": { "Name_CH": "大山脚武拉必村真君大帝理事会", "Name_ML": "J.K. Rumah Berhala Chin Koon Tai Tee Bukit Mertajam", "Name_EN": null, "Location": "1206, Perkampongan Berapit, 14000 Bukit Mertajam.", "Longitude": 100.47265, "Latitude": 5.38156, "Region": "Penang", "Category": "宗教", "PageNumber": "109" }, "geometry": { "type": "Point", "coordinates": [ 100.4727, 5.3816, 100.4727 ] } },
{ "type": "Feature", "properties": { "Name_CH": "大山脚孟光大伯公庙", "Name_ML": "Pertubuhan Penganut Tua Peck Kong Mengkuang Seberang Perai", "Name_EN": null, "Location": "Lot 474 Jalan AAengkuang Kubang Ulu, Bukit Mertajam.", "Longitude": 100.4862774, "Latitude": 5.4179437, "Region": "Penang", "Category": "宗教", "PageNumber": "109" }, "geometry": { "type": "Point", "coordinates": [ 100.4863, 5.4179, 100.4863 ] } },
{ "type": "Feature", "properties": { "Name_CH": "高渊凤山寺广泽尊王庙", "Name_ML": "Tokong Kong Teik Chun Ong( Kong Tein Ong Temple) Jalan Permai Nibong Tebal Seberang Perai Selatan", "Name_EN": null, "Location": "1425 Jalan Permai, Nibong Tebal Seberang Perai Selatan.", "Longitude": 100.4820373, "Latitude": 5.1661976, "Region": "Penang", "Category": "宗教", "PageNumber": "110" }, "geometry": { "type": "Point", "coordinates": [ 100.482, 5.1662, 100.482 ] } },
{ "type": "Feature", "properties": { "Name_CH": "高渊东海园拿督公庙理事会", "Name_ML": "Pertubuhan Penganut Dewa Tong Hai Na Tok Kong Nibong Tebal Seberang Perai", "Name_EN": null, "Location": "2519 Jalan Sg. Daun, Nibong Tebal, Seberang Perai Selatan.", "Longitude": 100.4775405, "Latitude": 5.1721468, "Region": "Penang", "Category": "宗教", "PageNumber": "110" }, "geometry": { "type": "Point", "coordinates": [ 100.4775, 5.1721, 100.4775 ] } },
{ "type": "Feature", "properties": { "Name_CH": "高渊德教会振积阁", "Name_ML": "Persatuan Amal Chin Chee Kok", "Name_EN": null, "Location": "21\/22, Jalan Ooi Kar Seng, Taman Bistari, 14300 Nibong Tebal, Seberang Perai Selatan.", "Longitude": 100.4697548, "Latitude": 5.1726345, "Region": "Penang", "Category": "宗教", "PageNumber": "110" }, "geometry": { "type": "Point", "coordinates": [ 100.4698, 5.1726, 100.4698 ] } },
{ "type": "Feature", "properties": { "Name_CH": "浮罗山背德教会振立阁", "Name_ML": "Persatuan Pendidikan Akhlak Chin Lip Kok Pulau Pinang", "Name_EN": null, "Location": "924 Jalan Batak Relauz Pulau Pinang.", "Longitude": 100.2699892, "Latitude": 5.3373278, "Region": "Penang", "Category": "宗教", "PageNumber": "110" }, "geometry": { "type": "Point", "coordinates": [ 100.27, 5.3373, 100.27 ] } },
{ "type": "Feature", "properties": { "Name_CH": "高巴三万佛教会", "Name_ML": "Persatuan Ugama Buddha Kubang Semang, Seberang Perai", "Name_EN": null, "Location": "TBP NO.1981 MK.3 Kubang Semang, Bukit Mertajam.", "Longitude": 100.4590091, "Latitude": 5.365458, "Region": "Penang", "Category": "宗教", "PageNumber": "110" }, "geometry": { "type": "Point", "coordinates": [ 100.459, 5.3655, 100.459 ] } },
{ "type": "Feature", "properties": { "Name_CH": "浮罗佛教修行林", "Name_ML": "Pertubuhan Pertapaan Penganut Agama Buddha Balik Pulau Buddhist Hermitage", "Name_EN": null, "Location": "471-A, Mukim 4, Batu Itam, 11000 Balik Pulau, Pulau Pinang", "Longitude": 100.2347789, "Latitude": 5.3730755, "Region": "Penang", "Category": "宗教", "PageNumber": "110" }, "geometry": { "type": "Point", "coordinates": [ 100.2348, 5.3731, 100.2348 ] } },
{ "type": "Feature", "properties": { "Name_CH": "大圣宫", "Name_ML": "Rumah Berhala Tah Seng Kung Berapit Bukit Mertajam", "Name_EN": null, "Location": "2063 MK 9, Lorong Gasing Dua, Taman Berapit, Bukit Mertajam, Seberang Perai.", "Longitude": 100.4745456, "Latitude": 5.3853232, "Region": "Penang", "Category": "宗教", "PageNumber": "110" }, "geometry": { "type": "Point", "coordinates": [ 100.4745, 5.3853, 100.4745 ] } },
{ "type": "Feature", "properties": { "Name_CH": "飞龙社", "Name_ML": "Hooi Leong Seah", "Name_EN": null, "Location": "377-C, Jalan Perak, 11600 Penang.", "Longitude": 100.314762, "Latitude": 5.3964323, "Region": "Penang", "Category": "宗教", "PageNumber": "110" }, "geometry": { "type": "Point", "coordinates": [ 100.3148, 5.3964, 100.3148 ] } },
{ "type": "Feature", "properties": { "Name_CH": "丁加奴律福德祠", "Name_ML": "Trengganu Road. Hock Teik Seu Temple", "Name_EN": null, "Location": "Jalan Trengganu, 10460 Pulau Pinang.", "Longitude": 100.3089171, "Latitude": 5.4071574, "Region": "Penang", "Category": "宗教", "PageNumber": "110" }, "geometry": { "type": "Point", "coordinates": [ 100.3089, 5.4072, 100.3089 ] } },
{ "type": "Feature", "properties": { "Name_CH": "峰溪山大伯公庙", "Name_ML": "Persatuan Binaan Rumah Berhala Tua Pek Kong Telok Bahang", "Name_EN": null, "Location": "11050 Pulau Pinang.", "Longitude": 100.2319757, "Latitude": 5.4583159, "Region": "Penang", "Category": "宗教", "PageNumber": "110" }, "geometry": { "type": "Point", "coordinates": [ 100.232, 5.4583, 100.232 ] } },
{ "type": "Feature", "properties": { "Name_CH": "丹绒武雅大山宫", "Name_ML": "Tai Sun Keng Temple Tanjung Bunga", "Name_EN": null, "Location": "Lot.1, Part 39 MK 18, Tanjong Bunga, 11200 Pulau Pinang.", "Longitude": 100.2880581, "Latitude": 5.467688, "Region": "Penang", "Category": "宗教", "PageNumber": "110" }, "geometry": { "type": "Point", "coordinates": [ 100.2881, 5.4677, 100.2881 ] } },
{ "type": "Feature", "properties": { "Name_CH": "发一崇德槟威区(同合坛)", "Name_ML": "Pertubuhan Pengajian Tao(Tong Her) Pulau Pinang", "Name_EN": null, "Location": null, "Longitude": null, "Latitude": null, "Region": "Penang", "Category": "宗教", "PageNumber": "110" }, "geometry": null },
{ "type": "Feature", "properties": { "Name_CH": "高渊港口天后圣母宫理事会", "Name_ML": "Rumah Berhala Thean Hor Seah Bor Sungai Udang", "Name_EN": null, "Location": "1850, Sungai Udang, 14310 Nibong Tebal, Province Wellesley.", "Longitude": 100.429161, "Latitude": 5.163703, "Region": "Penang", "Category": "宗教", "PageNumber": "111" }, "geometry": { "type": "Point", "coordinates": [ 100.4292, 5.1637, 100.4292 ] } },
{ "type": "Feature", "properties": { "Name_CH": "高渊港口仙法师公古庙", "Name_ML": "Rumah Berhala Xian Fa Shi Gong (Sg Udang Nibong Tebal)", "Name_EN": null, "Location": "TBP 660 Sungai Udang 14310, Nibong Tebal, Seberang Perai Selantan, Penang.", "Longitude": 100.4291606, "Latitude": 5.1635602, "Region": "Penang", "Category": "宗教", "PageNumber": "111" }, "geometry": { "type": "Point", "coordinates": [ 100.4292, 5.1636, 100.4292 ] } },
{ "type": "Feature", "properties": { "Name_CH": "高渊旧巴杀路拿督公理事会", "Name_ML": "Pertubuhan Penganut Dewa Na Tok Kong (Jalan Pasar Lama) Nibong Tebal Seberang Perai", "Name_EN": null, "Location": "No.49 Jalan Pasar Lama Nibong Tebal, Seberang Perai.", "Longitude": 100.4764033, "Latitude": 5.1644534, "Region": "Penang", "Category": "宗教", "PageNumber": "111" }, "geometry": { "type": "Point", "coordinates": [ 100.4764, 5.1645, 100.4764 ] } },
{ "type": "Feature", "properties": { "Name_CH": "关帝庙新慈善堂", "Name_ML": "Rumah Berhala Kuan Tee Nibong Tebal Seberang Perai Selatan", "Name_EN": null, "Location": "1338 Jalan Pemai, Nibong Tebal, Seberang Perai Selatan.", "Longitude": 100.4821489, "Latitude": 5.1661621, "Region": "Penang", "Category": "宗教", "PageNumber": "111" }, "geometry": { "type": "Point", "coordinates": [ 100.4821, 5.1662, 100.4821 ] } },
{ "type": "Feature", "properties": { "Name_CH": "高渊南天宫", "Name_ML": "Persatuan Penganut Dewa Nam Thian Kong Nibong Tebal Seberang Perai Selatan", "Name_EN": null, "Location": "TS 2439 Bagan Buaya Changkat, Nibong Tebal, Seberang Perai Selatan.", "Longitude": 100.4747259, "Latitude": 5.1896695, "Region": "Penang", "Category": "宗教", "PageNumber": "111" }, "geometry": { "type": "Point", "coordinates": [ 100.4747, 5.1897, 100.4747 ] } },
{ "type": "Feature", "properties": { "Name_CH": "广福庙济公先师", "Name_ML": "Persatuan Penganut Dewa Chee Kong Sean Soo Seberang Perai", "Name_EN": null, "Location": "1009 Permatang Tinggi Village, Bukit Mertajam.", "Longitude": 100.483714, "Latitude": 5.303481, "Region": "Penang", "Category": "宗教", "PageNumber": "111" }, "geometry": { "type": "Point", "coordinates": [ 100.4837, 5.3035, 100.4837 ] } },
{ "type": "Feature", "properties": { "Name_CH": "郭龙殿四王府", "Name_ML": "Persatuan Penganut Dewa Si Ong Hoo(Koay Leong Tean) Pulau Pinang", "Name_EN": null, "Location": "207C, Jelytong Barat, 11600 Pulau Pinang.", "Longitude": 100.311323, "Latitude": 5.3892299, "Region": "Penang", "Category": "宗教", "PageNumber": "111" }, "geometry": { "type": "Point", "coordinates": [ 100.3113, 5.3892, 100.3113 ] } },
{ "type": "Feature", "properties": { "Name_CH": "国际佛光分会马来西亚协会槟城分会", "Name_ML": null, "Name_EN": "Malaysian Fo Guang Buddhist Association", "Location": "5-04-03, Tingkat 4, Hunza Complex, Greenlane Heights, Jalan Gangsa, 11600 Penang.", "Longitude": 100.297237, "Latitude": 5.392382, "Region": "Penang", "Category": "宗教", "PageNumber": "111" }, "geometry": { "type": "Point", "coordinates": [ 100.2972, 5.3924, 100.2972 ] } },
{ "type": "Feature", "properties": { "Name_CH": "哈密顿路凤山寺三圣宫", "Name_ML": "Pertubuhan Dewa Hong San Si Sam Seng Kong Pulau Pinang", "Name_EN": null, "Location": "205-P, Jalan Hamilton, 11600 Penang.", "Longitude": 100.3086685, "Latitude": 5.3998107, "Region": "Penang", "Category": "宗教", "PageNumber": "111" }, "geometry": { "type": "Point", "coordinates": [ 100.3087, 5.3998, 100.3087 ] } },
{ "type": "Feature", "properties": { "Name_CH": "鬼谷仙师道坛", "Name_ML": "Persatuan Penganut Dewa Koay Kok Sen Soo Pulau Pinang", "Name_EN": null, "Location": "326C Jalan Perak, Jelutong, Pulau Pinang.", "Longitude": 100.3147997, "Latitude": 5.40009, "Region": "Penang", "Category": "宗教", "PageNumber": "111" }, "geometry": { "type": "Point", "coordinates": [ 100.3148, 5.4001, 100.3148 ] } },
{ "type": "Feature", "properties": { "Name_CH": "关打贺丁加奴路福德祠大伯公庙", "Name_ML": "Counter Hall Trengganu Road Hock Teik Sey Tua Peh Kong Temple", "Name_EN": null, "Location": "Temple nxt 67A, Jalan Trengganu, 10460 Pulau Pinang.", "Longitude": 100.3085721, "Latitude": 5.4051642, "Region": "Penang", "Category": "宗教", "PageNumber": "111" }, "geometry": { "type": "Point", "coordinates": [ 100.3086, 5.4052, 100.3086 ] } },
{ "type": "Feature", "properties": { "Name_CH": "广福宫", "Name_ML": "Kong Hock Keong", "Name_EN": null, "Location": "No.30, Jalan Masjid Kapitan Keling, 10200 Pulau Pinang.", "Longitude": 100.338764, "Latitude": 5.418474, "Region": "Penang", "Category": "宗教", "PageNumber": "111" }, "geometry": { "type": "Point", "coordinates": [ 100.3388, 5.4185, 100.3388 ] } },
{ "type": "Feature", "properties": { "Name_CH": "晋义佛堂", "Name_ML": "Pertubuhan Penganut Dewa Jin Yi Fo Tang Bukit Mertajam Seberang Perai Tengah", "Name_EN": null, "Location": "14, Lorong Perwira l, Taman Perwira Bukit Mertajam.", "Longitude": 100.4779219, "Latitude": 5.2976209, "Region": "Penang", "Category": "宗教", "PageNumber": "112" }, "geometry": { "type": "Point", "coordinates": [ 100.4779, 5.2976, 100.4779 ] } },
{ "type": "Feature", "properties": { "Name_CH": "救济宫", "Name_ML": "Kiu Chea Kean", "Name_EN": null, "Location": "20, Lintang Belimbing, Taman Manis, Bukit Tengah, 14000 Bukit Mertajam, Pulau Pinang.", "Longitude": 100.4391344, "Latitude": 5.3484354, "Region": "Penang", "Category": "宗教", "PageNumber": "112" }, "geometry": { "type": "Point", "coordinates": [ 100.4391, 5.3484, 100.4391 ] } },
{ "type": "Feature", "properties": { "Name_CH": "静心宫", "Name_ML": "Pertubuhan Penganut Dewa Ching Sing Kong", "Name_EN": null, "Location": "4019, MK.14 Jalan Bukit Kecil, Bukit Mertajam, Seberang Perai Tengah.", "Longitude": 100.4590807, "Latitude": 5.355683, "Region": "Penang", "Category": "宗教", "PageNumber": "112" }, "geometry": { "type": "Point", "coordinates": [ 100.4591, 5.3557, 100.4591 ] } },
{ "type": "Feature", "properties": { "Name_CH": "集福堂", "Name_ML": "Chip Hock Tong", "Name_EN": null, "Location": "96A East Jelutong, Pulau Pinang.", "Longitude": 100.322912, "Latitude": 5.401499, "Region": "Penang", "Category": "宗教", "PageNumber": "112" }, "geometry": { "type": "Point", "coordinates": [ 100.3229, 5.4015, 100.3229 ] } },
{ "type": "Feature", "properties": { "Name_CH": "哈密顿路拿督阿伯理事会", "Name_ML": "Pertubuhan Penganut Dewa Nah Toh Ah Peh Pulau Pinang", "Name_EN": null, "Location": "230-E, Jalan Halmiton, 11600 Penang.", "Longitude": 100.3086685, "Latitude": 5.3998107, "Region": "Penang", "Category": "宗教", "PageNumber": "112" }, "geometry": { "type": "Point", "coordinates": [ 100.3087, 5.3998, 100.3087 ] } },
{ "type": "Feature", "properties": { "Name_CH": "基督使命中心", "Name_ML": "Pertubuhan Kristus Pulau Pinang", "Name_EN": null, "Location": "40, Jalan Lim Lean Teng, Pulau Pinang.", "Longitude": 100.3051393, "Latitude": 5.4058822, "Region": "Penang", "Category": "宗教", "PageNumber": "112" }, "geometry": { "type": "Point", "coordinates": [ 100.3051, 5.4059, 100.3051 ] } },
{ "type": "Feature", "properties": { "Name_CH": "慧音社", "Name_ML": "Pertubuhan Hui Yin She", "Name_EN": null, "Location": "700-H, Jalan Lintang, Mk 16, 11500 Ayer Ham, Penang.", "Longitude": 100.2786863, "Latitude": 5.4070413, "Region": "Penang", "Category": "宗教", "PageNumber": "112" }, "geometry": { "type": "Point", "coordinates": [ 100.2787, 5.407, 100.2787 ] } },
{ "type": "Feature", "properties": { "Name_CH": "金灵坛", "Name_ML": "Pertubuhan Penganut Dewa Kim Leng Tuah Pulau Pinang", "Name_EN": null, "Location": "22, Presgrave, 10300 Pulau Pinang.", "Longitude": 100.3313334, "Latitude": 5.4105531, "Region": "Penang", "Category": "宗教", "PageNumber": "112" }, "geometry": { "type": "Point", "coordinates": [ 100.3313, 5.4106, 100.3313 ] } },
{ "type": "Feature", "properties": { "Name_CH": "吉宁万山区大伯公协会", "Name_ML": "Persatuan penganut-Penganut Tua Peh Kong Kawasan Pasar Chowrasta", "Name_EN": null, "Location": "17, Jalan Chowrasta, 10100 Pulau Pinang.", "Longitude": 100.331857, "Latitude": 5.4181096, "Region": "Penang", "Category": "宗教", "PageNumber": "112" }, "geometry": { "type": "Point", "coordinates": [ 100.3319, 5.4181, 100.3319 ] } },
{ "type": "Feature", "properties": { "Name_CH": "华严学会", "Name_ML": "Pertubuhan Buddhist Hwa Yen Pulau Pinang", "Name_EN": "Hwa Yen Buddhist Society Penang", "Location": "52-F, Rangoon Road, Pulau Pinang.", "Longitude": 100.3245745, "Latitude": 5.4183602, "Region": "Penang", "Category": "宗教", "PageNumber": "112" }, "geometry": { "type": "Point", "coordinates": [ 100.3246, 5.4184, 100.3246 ] } },
{ "type": "Feature", "properties": { "Name_CH": "海珠屿大伯公庙", "Name_ML": "Thai Pak Koong Temple", "Name_EN": null, "Location": "32-A, Lebuh King, 10200 Pulau Pinang.", "Longitude": 100.3400694, "Latitude": 5.4185538, "Region": "Penang", "Category": "宗教", "PageNumber": "112" }, "geometry": { "type": "Point", "coordinates": [ 100.3401, 5.4186, 100.3401 ] } },
{ "type": "Feature", "properties": { "Name_CH": "甲抛容底五皇庙", "Name_ML": "Rumah Berhala Caik Ong", "Name_EN": null, "Location": "973, Jalan Perak, Kopala Batas, 13200 S.P. (U) Pulau Pinang.", "Longitude": 100.424933, "Latitude": 5.5122979, "Region": "Penang", "Category": "宗教", "PageNumber": "112" }, "geometry": { "type": "Point", "coordinates": [ 100.4249, 5.5123, 100.4249 ] } },
{ "type": "Feature", "properties": { "Name_CH": "峇六拜过山区太上坛", "Name_ML": "Persatuan Penganut Dewa Thai Siang Than Sg.Tiram, Bayan Lipas, Pulau Pinang", "Name_EN": null, "Location": "328, MK.G.Sungai Tiram, Bayan Lepas, 11900 Pulau Pinang.", "Longitude": 100.2785782, "Latitude": 5.303739, "Region": "Penang", "Category": "宗教", "PageNumber": "113" }, "geometry": { "type": "Point", "coordinates": [ 100.2786, 5.3037, 100.2786 ] } },
{ "type": "Feature", "properties": { "Name_CH": "垄尾香焚念佛会", "Name_ML": "Persatuan Penganut Agama Buddha Heong Noon Pulau Pinang", "Name_EN": null, "Location": "1055-V, No.45, Mukum 13, Jalan Paya Terubong, 11060 Pulau Pinang.", "Longitude": 100.2759768, "Latitude": 5.3335608, "Region": "Penang", "Category": "宗教", "PageNumber": "113" }, "geometry": { "type": "Point", "coordinates": [ 100.276, 5.3336, 100.276 ] } },
{ "type": "Feature", "properties": { "Name_CH": "李仙姑娘庵", "Name_ML": "Pertubuhan Penganut Dewi Lee Shien Koh Neoh Kg. Tanah Liat Bukit Mertajam", "Name_EN": null, "Location": "No.423, MK 9, Kg. Tanah Liat, Bukit Mertajam, Pulau Pinang.", "Longitude": 100.4654182, "Latitude": 5.384437, "Region": "Penang", "Category": "宗教", "PageNumber": "113" }, "geometry": { "type": "Point", "coordinates": [ 100.4654, 5.3844, 100.4654 ] } },
{ "type": "Feature", "properties": { "Name_CH": "灵海殿", "Name_ML": "Pertubuhan Penganut Dewa Leng Hai Tran Geogetown", "Name_EN": null, "Location": "Blok 90-1-8, Flat Batu Lanchang, 11960 Pulau Pinang.", "Longitude": 100.308087, "Latitude": 5.388728, "Region": "Penang", "Category": "宗教", "PageNumber": "113" }, "geometry": { "type": "Point", "coordinates": [ 100.3081, 5.3887, 100.3081 ] } },
{ "type": "Feature", "properties": { "Name_CH": "雷阴寺", "Name_ML": "Persatuan Penganut Dewa Looi Im Si Jelutong Barat, Pulau Pinang", "Name_EN": null, "Location": "277-F, Jelutong Barat, Pulau Pinang.", "Longitude": 100.311323, "Latitude": 5.3892299, "Region": "Penang", "Category": "宗教", "PageNumber": "113" }, "geometry": { "type": "Point", "coordinates": [ 100.3113, 5.3892, 100.3113 ] } },
{ "type": "Feature", "properties": { "Name_CH": "灵海殿", "Name_ML": "Pertubuhan Penganut Dewa Leng Hai Tean", "Name_EN": null, "Location": "52, Jalan Tan Sri The Ewe Lim, 11600 Penang.", "Longitude": 100.3109789, "Latitude": 5.3918739, "Region": "Penang", "Category": "宗教", "PageNumber": "113" }, "geometry": { "type": "Point", "coordinates": [ 100.311, 5.3919, 100.311 ] } },
{ "type": "Feature", "properties": { "Name_CH": "莲华洞太上老君", "Name_ML": "Lean Wah Thong", "Name_EN": null, "Location": "815, Mk-16, Air ltam, 11500 Pulau Pinang.", "Longitude": 100.2768388, "Latitude": 5.3955847, "Region": "Penang", "Category": "宗教", "PageNumber": "113" }, "geometry": { "type": "Point", "coordinates": [ 100.2768, 5.3956, 100.2768 ] } },
{ "type": "Feature", "properties": { "Name_CH": "莲池佛会", "Name_ML": null, "Name_EN": "Lean Tee Buddhist Association", "Location": "No.47, Kuantan Road, Pulau Pinang.", "Longitude": 100.3243481, "Latitude": 5.4105402, "Region": "Penang", "Category": "宗教", "PageNumber": "113" }, "geometry": { "type": "Point", "coordinates": [ 100.3243, 5.4105, 100.3243 ] } },
{ "type": "Feature", "properties": { "Name_CH": "峇东埔浮桥头广德宫", "Name_ML": "Pertubuhan Penganut Guang De Gong Titi Timbul Permatang Pauh", "Name_EN": null, "Location": "Lot 25, Bandar Perai, Permatang Pauh.", "Longitude": 100.4132858, "Latitude": 5.41106, "Region": "Penang", "Category": "宗教", "PageNumber": "113" }, "geometry": { "type": "Point", "coordinates": [ 100.4133, 5.4111, 100.4133 ] } },
{ "type": "Feature", "properties": { "Name_CH": "峇东埔小山区盂兰胜会", "Name_ML": "Pertubuhan Perayaan Yu Lan Bukit Pelanduk Permatang Pauh MK 4 Bukit Mertajam", "Name_EN": null, "Location": "681, MK 4, Bukit Pelanduk, 13500 Permatang Pauh, Bukit Mertajam.", "Longitude": 100.4199901, "Latitude": 5.4111956, "Region": "Penang", "Category": "宗教", "PageNumber": "113" }, "geometry": { "type": "Point", "coordinates": [ 100.42, 5.4112, 100.42 ] } },
{ "type": "Feature", "properties": { "Name_CH": "峇东埔庆赞中元", "Name_ML": "Pertubuhan Perayaan Qing Zan Zhong Yuan Permatang Pauh Seberang Perai Tengah", "Name_EN": null, "Location": "No.504 MK 2, Jalan Samagagah, Permatang Pauh, Seberang Perai Tengah.", "Longitude": 100.4122539, "Latitude": 5.4117169, "Region": "Penang", "Category": "宗教", "PageNumber": "113" }, "geometry": { "type": "Point", "coordinates": [ 100.4123, 5.4117, 100.4123 ] } },
{ "type": "Feature", "properties": { "Name_CH": "救世昆仑宫", "Name_ML": "Rumah Berhala Kew Swh Kun Loon Keong Kew She Kun Loon Keong", "Name_EN": null, "Location": "18, Medan Lim Cheng Teik, 10250 Pulau Pinang.", "Longitude": 100.3174249, "Latitude": 5.4271063, "Region": "Penang", "Category": "宗教", "PageNumber": "113" }, "geometry": { "type": "Point", "coordinates": [ 100.3174, 5.4271, 100.3174 ] } },
{ "type": "Feature", "properties": { "Name_CH": "美湖广福宫庙", "Name_ML": null, "Name_EN": "Kong Hock Keong Temple", "Location": "17, Gertak Sanggul, 11910 Pulau Pinang.", "Longitude": 100.191317, "Latitude": 5.282883, "Region": "Penang", "Category": "宗教", "PageNumber": "114" }, "geometry": { "type": "Point", "coordinates": [ 100.1913, 5.2829, 100.1913 ] } },
{ "type": "Feature", "properties": { "Name_CH": "拿督公庙中坛元师庙", "Name_ML": "Persatuan Penganut Dewa Dato Kong", "Name_EN": null, "Location": "No.6, Lorong Sri Kijang 44, Taman Sri Kijang, 14000 Bukit Mertajam.", "Longitude": 100.4733349, "Latitude": 5.320082, "Region": "Penang", "Category": "宗教", "PageNumber": "114" }, "geometry": { "type": "Point", "coordinates": [ 100.4733, 5.3201, 100.4733 ] } },
{ "type": "Feature", "properties": { "Name_CH": "马来西亚真佛宗大山脚天仙堂", "Name_ML": "Pertubuhan Lin Shen For Chong Thean Sien Tong Bukit Mertajam", "Name_EN": null, "Location": "2955, 2956, 2957 Jalan Seladang, Taman Selesa Alma, Bukit Mertajam.", "Longitude": 100.4818459, "Latitude": 5.3295939, "Region": "Penang", "Category": "宗教", "PageNumber": "114" }, "geometry": { "type": "Point", "coordinates": [ 100.4818, 5.3296, 100.4818 ] } },
{ "type": "Feature", "properties": { "Name_CH": "马来西亚佛教徒静坐中心", "Name_ML": null, "Name_EN": "Malaysian Buddhist Meditation Centre", "Location": "355 Green Lane, Jelutong, Pulau Pinang.", "Longitude": 100.3083599, "Latitude": 5.3800482, "Region": "Penang", "Category": "宗教", "PageNumber": "114" }, "geometry": { "type": "Point", "coordinates": [ 100.3084, 5.38, 100.3084 ] } },
{ "type": "Feature", "properties": { "Name_CH": "马来西亚佛光协会", "Name_ML": null, "Name_EN": "Malaysian Fo Kuang Buddist Association Penang State Liaison Committee", "Location": "Blok 5, 4th Floor 3, Hunza Complex, Green Lane Heights, Jalan Gangsa, 11600 Pulau Pinang.", "Longitude": 100.2981392, "Latitude": 5.3930458, "Region": "Penang", "Category": "宗教", "PageNumber": "114" }, "geometry": { "type": "Point", "coordinates": [ 100.2981, 5.393, 100.2981 ] } },
{ "type": "Feature", "properties": { "Name_CH": "马来西亚斗母宫九皇大帝总会", "Name_ML": "Gabungan Dou Mu Gong (Jiu Wang Da Di) Malaysia", "Name_EN": null, "Location": "18, Jalan Limbungan Off Jalan Chain Ferry, 12100 Butterworth.", "Longitude": 100.3820252, "Latitude": 5.4013762, "Region": "Penang", "Category": "宗教", "PageNumber": "114" }, "geometry": { "type": "Point", "coordinates": [ 100.382, 5.4014, 100.382 ] } },
{ "type": "Feature", "properties": { "Name_CH": "鲁国大夫庙", "Name_ML": "Rumah Berhala Li Guo Tai Fu Pulau Pinang", "Name_EN": "Li Guo Tai Fu Temple", "Location": "73-A East Jelutong, Jelutong, Pulau Pinang.", "Longitude": 100.3244676, "Latitude": 5.4021541, "Region": "Penang", "Category": "宗教", "PageNumber": "114" }, "geometry": { "type": "Point", "coordinates": [ 100.3245, 5.4022, 100.3245 ] } },
{ "type": "Feature", "properties": { "Name_CH": "马来西亚财帛星君总庙", "Name_ML": "Persatuan Penganut Penganut Hsin Cjuin Malaysia", "Name_EN": "Hsin Cjuin Devotees Association Malaysia", "Location": "32T Mkl3 Jalan Chor Sin Kheng Air ltam, 11500 Pulau Pinang.", "Longitude": 100.283589, "Latitude": 5.402812, "Region": "Penang", "Category": "宗教", "PageNumber": "114" }, "geometry": { "type": "Point", "coordinates": [ 100.2836, 5.4028, 100.2836 ] } },
{ "type": "Feature", "properties": { "Name_CH": "马来西亚槟城四条路大普公坛", "Name_ML": "Persatuan Penganut Dewa Tai Per Kong Pulau Pinang", "Name_EN": null, "Location": "ll, Jalan Macnair, 10300 Pulau Pinang.", "Longitude": 100.3323561, "Latitude": 5.4078471, "Region": "Penang", "Category": "宗教", "PageNumber": "114" }, "geometry": { "type": "Point", "coordinates": [ 100.3324, 5.4078, 100.3324 ] } },
{ "type": "Feature", "properties": { "Name_CH": "庙香林", "Name_ML": "Beow Hiang Lim Lean Seng Lian Hood Hor Chor Hoay Penang", "Name_EN": null, "Location": "No.90, Burmah Road, Pulau Pinang.", "Longitude": 100.327569, "Latitude": 5.4190623, "Region": "Penang", "Category": "宗教", "PageNumber": "114" }, "geometry": { "type": "Point", "coordinates": [ 100.3276, 5.4191, 100.3276 ] } },
{ "type": "Feature", "properties": { "Name_CH": "马来西亚佛教总会", "Name_ML": "Persatuan Buddhist Malaysia", "Name_EN": "Malaysian Buddhist Association", "Location": "No.182, Jalan Burmah, 10050 Pulau Pinang.", "Longitude": 100.3195071, "Latitude": 5.4255696, "Region": "Penang", "Category": "宗教", "PageNumber": "114" }, "geometry": { "type": "Point", "coordinates": [ 100.3195, 5.4256, 100.3195 ] } },
{ "type": "Feature", "properties": { "Name_CH": "马来西亚创价学会(槟城分会)", "Name_ML": "Persatuan Soka Gakkai MalaysialCawangan Pulau Pinang)", "Name_EN": "Malaysian Soka Gakkai Malaysia (Penang Branch)", "Location": "190, Jalan Burma, 10350 Pulau Pinang.", "Longitude": 100.3163337, "Latitude": 5.4275319, "Region": "Penang", "Category": "宗教", "PageNumber": "114" }, "geometry": { "type": "Point", "coordinates": [ 100.3163, 5.4275, 100.3163 ] } },
{ "type": "Feature", "properties": { "Name_CH": "蓬仙道阁太上老君神坛", "Name_ML": "Pertubuhan Penganut Dewa Tai San Lau Kuan Seberang Perai Selatan", "Name_EN": null, "Location": "No.930, Kg. Wellesley Sg. Bakap, Sg. Jawi, Seberang Perai Selatan.", "Longitude": 100.515911, "Latitude": 5.216967, "Region": "Penang", "Category": "宗教", "PageNumber": "115" }, "geometry": { "type": "Point", "coordinates": [ 100.5159, 5.217, 100.5159 ] } },
{ "type": "Feature", "properties": { "Name_CH": "七圣宫", "Name_ML": "Pertubuhan Penganut Dewi Chit Seng Jalan Bahru, Batik Pulau, Pulau Pinang", "Name_EN": null, "Location": "Tokong Chit Seng, Lot 455 Jalan Bahru, MK D, Balik Pulau, Pulau Pinang.", "Longitude": 100.2104858, "Latitude": 5.3521487, "Region": "Penang", "Category": "宗教", "PageNumber": "115" }, "geometry": { "type": "Point", "coordinates": [ 100.2105, 5.3521, 100.2105 ] } },
{ "type": "Feature", "properties": { "Name_CH": "全真德化道院", "Name_ML": "Pertubuhan Penganut Quan Zhen Der Huah Tao Yuan", "Name_EN": null, "Location": "21-23, Jalan Permatang Rawa Satu, Kawasan Perniagaan Permatang Rawa, 14000 Bukit Mertajam, Pulau Pinang.", "Longitude": 100.4438468, "Latitude": 5.3690814, "Region": "Penang", "Category": "宗教", "PageNumber": "115" }, "geometry": { "type": "Point", "coordinates": [ 100.4438, 5.3691, 100.4438 ] } },
{ "type": "Feature", "properties": { "Name_CH": "谱贤佛教会", "Name_ML": "Pertubuhan Buddhist Pu Xian Pulau Pinang", "Name_EN": "Jelutong Buddhist Society Penang", "Location": "392 Jalan Bukit Dumbar, Jelutong Timur, Pulau Pinang.", "Longitude": 100.3155439, "Latitude": 5.3859093, "Region": "Penang", "Category": "宗教", "PageNumber": "115" }, "geometry": { "type": "Point", "coordinates": [ 100.3155, 5.3859, 100.3155 ] } },
{ "type": "Feature", "properties": { "Name_CH": "青草巷大圣公", "Name_ML": "Persatuan Penganut Dewan Tai Sheng Keong Green Lane", "Name_EN": null, "Location": "146-G, Jalan Tan Sri Teh Ewe Lim, Pulau Pinang.", "Longitude": 100.306096, "Latitude": 5.3926406, "Region": "Penang", "Category": "宗教", "PageNumber": "115" }, "geometry": { "type": "Point", "coordinates": [ 100.3061, 5.3926, 100.3061 ] } },
{ "type": "Feature", "properties": { "Name_CH": "清龙殿", "Name_ML": "Persatuan Penganut Dewa Cheng Leong Tean Jelutong Barat Pulau Pinang", "Name_EN": null, "Location": "305-B Jelutong Bara, Jelutong, Pulau Pinang.", "Longitude": 100.310501, "Latitude": 5.3950124, "Region": "Penang", "Category": "宗教", "PageNumber": "115" }, "geometry": { "type": "Point", "coordinates": [ 100.3105, 5.395, 100.3105 ] } },
{ "type": "Feature", "properties": { "Name_CH": "日落洞灵隐寺济公活佛", "Name_ML": "Persatuan Penganut Dewa Chek Kong Wak Hoot (Lin Yang Si) Pulau Pinang", "Name_EN": null, "Location": "NO. 244-W Jelutong Barat, Pulau Pinang.", "Longitude": 100.310501, "Latitude": 5.3950124, "Region": "Penang", "Category": "宗教", "PageNumber": "115" }, "geometry": { "type": "Point", "coordinates": [ 100.3105, 5.395, 100.3105 ] } },
{ "type": "Feature", "properties": { "Name_CH": "日落洞碧云宫", "Name_ML": "Pertubuhan Penganut Dewa Phaik Hoon Kiong Jalan Jelutong", "Name_EN": null, "Location": "297, Jalan Jelutong, 11600 Pulau Pinang.", "Longitude": 100.3180325, "Latitude": 5.3961521, "Region": "Penang", "Category": "宗教", "PageNumber": "115" }, "geometry": { "type": "Point", "coordinates": [ 100.318, 5.3962, 100.318 ] } },
{ "type": "Feature", "properties": { "Name_CH": "南海宫", "Name_ML": "Persatuan Penganut Dewi Lam Hai Kuan Say Im Por Sat, Pulau Pinang", "Name_EN": null, "Location": "35, Lebuh Bakau, 11600 Pulau Pinang.", "Longitude": 100.3227897, "Latitude": 5.3993696, "Region": "Penang", "Category": "宗教", "PageNumber": "115" }, "geometry": { "type": "Point", "coordinates": [ 100.3228, 5.3994, 100.3228 ] } },
{ "type": "Feature", "properties": { "Name_CH": "清岩宫", "Name_ML": "Pertubuhan Penganut Dewa Qing Yang Gong Pulau Pinang", "Name_EN": null, "Location": "156-A, Lebuh Victoria, 10300 Georgetown, Pulau Pinang", "Longitude": 100.338847, "Latitude": 5.4134365, "Region": "Penang", "Category": "宗教", "PageNumber": "115" }, "geometry": { "type": "Point", "coordinates": [ 100.3388, 5.4134, 100.3388 ] } },
{ "type": "Feature", "properties": { "Name_CH": "琼宜社南天宫", "Name_ML": "Persatuan Kheng Yee Nam Hin Kong", "Name_EN": null, "Location": "534, MK 18 Tanjong Bunga, 11200 Penang.", "Longitude": 100.2880581, "Latitude": 5.467688, "Region": "Penang", "Category": "宗教", "PageNumber": "115" }, "geometry": { "type": "Point", "coordinates": [ 100.2881, 5.4677, 100.2881 ] } },
{ "type": "Feature", "properties": { "Name_CH": "青龙宫", "Name_ML": "Pertubuhan Penganut Dewa Chin Long Gong Kg. Selamat Tasek Gelugor Seberang Perai Utara", "Name_EN": null, "Location": "1571 Tingkat Selamat 7, Kg. Selamta, Tasek Gelugo, Seberang Perai Utara, Pulau Pinang.", "Longitude": 100.5123044, "Latitude": 5.5075845, "Region": "Penang", "Category": "宗教", "PageNumber": "115" }, "geometry": { "type": "Point", "coordinates": [ 100.5123, 5.5076, 100.5123 ] } },
{ "type": "Feature", "properties": { "Name_CH": "山甲日大伯公庙", "Name_ML": "Pertubuhan Penganut Dewa Sua Kak Goik Tua Pek Kong Seberang Perai Selatan", "Name_EN": null, "Location": "No.660 Sg. Udang, Nibong Tebal, Seberang Perai Selatan.", "Longitude": 100.4291606, "Latitude": 5.1635602, "Region": "Penang", "Category": "宗教", "PageNumber": "116" }, "geometry": { "type": "Point", "coordinates": [ 100.4292, 5.1636, 100.4292 ] } },
{ "type": "Feature", "properties": { "Name_CH": "山脚镇中元盂兰胜会", "Name_ML": "Perayaan Teong Guan Yee Lam Sen Huey Yee Lam Seng Huey", "Name_EN": null, "Location": "9, Lorong Impian 23, Tmn lmpian, 14000 Bukit Mertajam, Seberang Perai Tengah.", "Longitude": 100.479682, "Latitude": 5.3132957, "Region": "Penang", "Category": "宗教", "PageNumber": "116" }, "geometry": { "type": "Point", "coordinates": [ 100.4797, 5.3133, 100.4797 ] } },
{ "type": "Feature", "properties": { "Name_CH": "柔府村福德宫三王府理事会", "Name_ML": "Pers Penganut Rumah Berhala Hock Teik Keng Sum Ong Hoo Kg. Juru Dan Bukit AAinyak", "Name_EN": null, "Location": "Lot 156, Dewan Serbaguna Perkampongan Juru, Bukit Mertajam", "Longitude": 100.44336, "Latitude": 5.3151485, "Region": "Penang", "Category": "宗教", "PageNumber": "116" }, "geometry": { "type": "Point", "coordinates": [ 100.4434, 5.3151, 100.4434 ] } },
{ "type": "Feature", "properties": { "Name_CH": "诗不朗再也观音庙", "Name_ML": "Persatuan Penganut Dewi Bodhisatha Guang Yin Seberang Jaya", "Name_EN": null, "Location": "No.14, Tingkat Siakap 11, Seberang Jaya.", "Longitude": 100.4009171, "Latitude": 5.383447, "Region": "Penang", "Category": "宗教", "PageNumber": "116" }, "geometry": { "type": "Point", "coordinates": [ 100.4009, 5.3834, 100.4009 ] } },