{
"type": "FeatureCollection",
"name": "Category_4",
"crs": { "type": "name", "properties": { "name": "urn:ogc:def:crs:OGC:1.3:CRS84" } },
"features": [
{ "type": "Feature", "properties": { "Name_CH": "安顺福建公会", "Name_ML": "Persatuan Hokkien Teluk Intan", "Name_EN": "Teluk Intan Hokkien Association", "Location": "Lot 960-962, (3rd Floor), Jalan Mahkota, 36000 Teluk lntan, Perak.", "Longitude": 101.0197398, "Latitude": 4.0236972, "Region": "Perak", "Category": "地缘", "PageNumber": "139" }, "geometry": { "type": "Point", "coordinates": [ 101.0197, 4.0237, 101.0197 ] } },
{ "type": "Feature", "properties": { "Name_CH": "安顺应和会馆", "Name_ML": "Persatuan Yin Foh", "Name_EN": null, "Location": "1, Jalan Pasar, P.O.Box 119, 36000 Teluk Intan, Perak.", "Longitude": 101.020459, "Latitude": 4.0242889, "Region": "Perak", "Category": "地缘", "PageNumber": "139" }, "geometry": { "type": "Point", "coordinates": [ 101.0205, 4.0243, 101.0205 ] } },
{ "type": "Feature", "properties": { "Name_CH": "安顺古冈州公会", "Name_ML": "Persatuan Koo Kong Chow Teluk Intan Perak", "Name_EN": "Koo Kong Chow Association Teluk Intan Perak", "Location": "783 Jalan Ah Cheong, 36000 Teluk Intan, Perak.", "Longitude": 101.0205666, "Latitude": 4.0252177, "Region": "Perak", "Category": "地缘", "PageNumber": "139" }, "geometry": { "type": "Point", "coordinates": [ 101.0206, 4.0252, 101.0206 ] } },
{ "type": "Feature", "properties": { "Name_CH": "安顺广东会馆", "Name_ML": null, "Name_EN": "Kwong Tong Hwee Kuan Association", "Location": "781, Jalan Ah Cheong, 36000 Teluk Intan, Perak.", "Longitude": 101.0205666, "Latitude": 4.0252177, "Region": "Perak", "Category": "地缘", "PageNumber": "139" }, "geometry": { "type": "Point", "coordinates": [ 101.0206, 4.0252, 101.0206 ] } },
{ "type": "Feature", "properties": { "Name_CH": "安顺南霹雳福州公会", "Name_ML": null, "Name_EN": "South Perak Foo Chow Association", "Location": "67, Jalan Pasar, 36000 Teluk lntan, Perak.", "Longitude": 101.0147523, "Latitude": 4.0276747, "Region": "Perak", "Category": "地缘", "PageNumber": "139" }, "geometry": { "type": "Point", "coordinates": [ 101.0148, 4.0277, 101.0148 ] } },
{ "type": "Feature", "properties": { "Name_CH": "安顺琼州会馆", "Name_ML": "Persatuan Keng Chew Teluk Intan", "Name_EN": null, "Location": "122 Jalan Pasar, 36000 Teluk Intan, Perak.", "Longitude": 101.0144682, "Latitude": 4.0279501, "Region": "Perak", "Category": "地缘", "PageNumber": "139" }, "geometry": { "type": "Point", "coordinates": [ 101.0145, 4.028, 101.0145 ] } },
{ "type": "Feature", "properties": { "Name_CH": "安顺晋江会馆", "Name_ML": "Persatuan Chia Kang Teluk Intan", "Name_EN": "Teluk Intan Chin Kang Association", "Location": "33, Jalan Pasir Bedamar 36000 Teluk Intan, Perak.", "Longitude": 101.0144363, "Latitude": 4.0289023, "Region": "Perak", "Category": "地缘", "PageNumber": "139" }, "geometry": { "type": "Point", "coordinates": [ 101.0144, 4.0289, 101.0144 ] } },
{ "type": "Feature", "properties": { "Name_CH": "安顺海南会馆", "Name_ML": "Persatuan Hainan Teluk Intan", "Name_EN": null, "Location": "122, Tingkat Satu, Jalan Pasar, 36000 Teluk Intan Perak.", "Longitude": 101.0119859, "Latitude": 4.0293244, "Region": "Perak", "Category": "地缘", "PageNumber": "139" }, "geometry": { "type": "Point", "coordinates": [ 101.012, 4.0293, 101.012 ] } },
{ "type": "Feature", "properties": { "Name_CH": "邦咯岛海南会馆", "Name_ML": "Persatuan Hainan Puala Pangkor", "Name_EN": null, "Location": "Sungai Pinang Besar, 32300 Pangkor, Perak.", "Longitude": 100.5727849, "Latitude": 4.221799, "Region": "Perak", "Category": "地缘", "PageNumber": "139" }, "geometry": { "type": "Point", "coordinates": [ 100.5728, 4.2218, 100.5728 ] } },
{ "type": "Feature", "properties": { "Name_CH": "邦咯福建公会", "Name_ML": "Hokkien Association Pangkor", "Name_EN": null, "Location": "609 Main Road, Sg. Pinang Kecil, 32300 Pangkor, Perak.", "Longitude": 100.5746839, "Latitude": 4.226432, "Region": "Perak", "Category": "地缘", "PageNumber": "139" }, "geometry": { "type": "Point", "coordinates": [ 100.5747, 4.2264, 100.5747 ] } },
{ "type": "Feature", "properties": { "Name_CH": "北霹雳古冈州公会", "Name_ML": "Persatuan Ku Kong Chow Perak Utara", "Name_EN": "North Perak Ku Kong Chow Association", "Location": "42, Jalan Maharajelela, 34000 Taiping, Perak.", "Longitude": 100.7443038, "Latitude": 4.8502242, "Region": "Perak", "Category": "地缘", "PageNumber": "139" }, "geometry": { "type": "Point", "coordinates": [ 100.7443, 4.8502, 100.7443 ] } },
{ "type": "Feature", "properties": { "Name_CH": "丹绒马林古冈州公会", "Name_ML": "Persatuan Ku Kong Cho", "Name_EN": null, "Location": "325 Jalan Rumah Rehat, 35900 Tanjung Malim, Perak.", "Longitude": 101.5222415, "Latitude": 3.6792439, "Region": "Perak", "Category": "地缘", "PageNumber": "140" }, "geometry": { "type": "Point", "coordinates": [ 101.5222, 3.6792, 101.5222 ] } },
{ "type": "Feature", "properties": { "Name_CH": "丹绒马林福建会馆", "Name_ML": "Persatuan Hokkien Tanjong Malim", "Name_EN": null, "Location": "30A & 31A, Jalan Bunga Raya, 35900 Tanjong Malim, Perak.", "Longitude": 101.5189921, "Latitude": 3.68105, "Region": "Perak", "Category": "地缘", "PageNumber": "140" }, "geometry": { "type": "Point", "coordinates": [ 101.519, 3.681, 101.519 ] } },
{ "type": "Feature", "properties": { "Name_CH": "丹绒马林永春公会", "Name_ML": null, "Name_EN": "Eng Choon Assocition Tanjong Malim", "Location": "10 Jalan Chong Ah Peng, 35900 Tanjong Malim, Perak.", "Longitude": 101.5202029, "Latitude": 3.6813021, "Region": "Perak", "Category": "地缘", "PageNumber": "140" }, "geometry": { "type": "Point", "coordinates": [ 101.5202, 3.6813, 101.5202 ] } },
{ "type": "Feature", "properties": { "Name_CH": "丹绒马林客属公会", "Name_ML": null, "Name_EN": "Kheh Community Association", "Location": "1, Chong Ah Peng Street, 35900 Tanjong Malim, Perak.", "Longitude": 101.5200575, "Latitude": 3.681511, "Region": "Perak", "Category": "地缘", "PageNumber": "140" }, "geometry": { "type": "Point", "coordinates": [ 101.5201, 3.6815, 101.5201 ] } },
{ "type": "Feature", "properties": { "Name_CH": "督亚冷福建公会", "Name_ML": "Persatuan Hokkien Tanjong Tualang Perak", "Name_EN": null, "Location": "1-5, Jalan Homan, 31800 Tanjong Tualang, Perak.", "Longitude": 101.0553696, "Latitude": 4.3262871, "Region": "Perak", "Category": "地缘", "PageNumber": "140" }, "geometry": { "type": "Point", "coordinates": [ 101.0554, 4.3263, 101.0554 ] } },
{ "type": "Feature", "properties": { "Name_CH": "端洛古冈州公会", "Name_ML": "Ku Kong Chow Kong Wui", "Name_EN": null, "Location": "59 Jalan Baru, 31750 Tronoh, Perak.", "Longitude": 100.9861287, "Latitude": 4.4230586, "Region": "Perak", "Category": "地缘", "PageNumber": "140" }, "geometry": { "type": "Point", "coordinates": [ 100.9861, 4.4231, 100.9861 ] } },
{ "type": "Feature", "properties": { "Name_CH": "端洛会宁公会", "Name_ML": null, "Name_EN": "Wui Leng Association Tronoh", "Location": "65, New Street, 31750 Tronoh, Perak.", "Longitude": 100.993027, "Latitude": 4.423069, "Region": "Perak", "Category": "地缘", "PageNumber": "140" }, "geometry": { "type": "Point", "coordinates": [ 100.993, 4.4231, 100.993 ] } },
{ "type": "Feature", "properties": { "Name_CH": "端洛增龙会馆", "Name_ML": "Persatuan Tsen Lung Tronoh", "Name_EN": null, "Location": "2 Station Rood, 31750 Tronoh, Perak.", "Longitude": 100.993027, "Latitude": 4.423069, "Region": "Perak", "Category": "地缘", "PageNumber": "140" }, "geometry": { "type": "Point", "coordinates": [ 100.993, 4.4231, 100.993 ] } },
{ "type": "Feature", "properties": { "Name_CH": "和丰古冈州公会", "Name_ML": null, "Name_EN": "Sungai Siput Ku Kong Chow Association", "Location": "3 Taman Tun Sambanthan, 31100 Sungai Siput Perak.", "Longitude": 101.0875215, "Latitude": 4.8071024, "Region": "Perak", "Category": "地缘", "PageNumber": "140" }, "geometry": { "type": "Point", "coordinates": [ 101.0875, 4.8071, 101.0875 ] } },
{ "type": "Feature", "properties": { "Name_CH": "和丰福建会馆", "Name_ML": "Hock Kean Hoay Kuan Sungai Sipur", "Name_EN": null, "Location": "147, Jalan Besar, 31100 Sg. Siput, Perak.", "Longitude": 101.0731889, "Latitude": 4.819181, "Region": "Perak", "Category": "地缘", "PageNumber": "140" }, "geometry": { "type": "Point", "coordinates": [ 101.0732, 4.8192, 101.0732 ] } },
{ "type": "Feature", "properties": { "Name_CH": "北霹雳嘉应会馆", "Name_ML": null, "Name_EN": "Kay Ying Association Perak North", "Location": "19A Kota Road, 34000 Taiping, Perak.", "Longitude": 100.7430787, "Latitude": 4.8528674, "Region": "Perak", "Category": "地缘", "PageNumber": "140" }, "geometry": { "type": "Point", "coordinates": [ 100.7431, 4.8529, 100.7431 ] } },
{ "type": "Feature", "properties": { "Name_CH": "北霹雳韩江公会", "Name_ML": "Persatuan Hang Kang Perak Utara", "Name_EN": "The North Perak Hang Kang Association", "Location": "27&29 Jalan Pasar, 34000 Taiping, Perak.", "Longitude": 100.7428519, "Latitude": 4.8536936, "Region": "Perak", "Category": "地缘", "PageNumber": "140" }, "geometry": { "type": "Point", "coordinates": [ 100.7429, 4.8537, 100.7429 ] } },
{ "type": "Feature", "properties": { "Name_CH": "华都牙也福建公会", "Name_ML": "Hokkien Association Batu Gajah", "Name_EN": null, "Location": "174, Jalan Pandak Akhat, 31000 Batu Gajah, Perak.", "Longitude": 101.04232, "Latitude": 4.4667563, "Region": "Perak", "Category": "地缘", "PageNumber": "141" }, "geometry": { "type": "Point", "coordinates": [ 101.0423, 4.4668, 101.0423 ] } },
{ "type": "Feature", "properties": { "Name_CH": "华都牙也古冈州乡会", "Name_ML": null, "Name_EN": "Ku Kong Chow Association", "Location": "26 Jalan Besar, 31100 Batu Gajah, Perak.", "Longitude": 101.0431764, "Latitude": 4.4668174, "Region": "Perak", "Category": "地缘", "PageNumber": "141" }, "geometry": { "type": "Point", "coordinates": [ 101.0432, 4.4668, 101.0432 ] } },
{ "type": "Feature", "properties": { "Name_CH": "华都牙也韩江公会", "Name_ML": "Persatuan Han Kang Batu Gajah", "Name_EN": "Han Kang Association Batu Gajah", "Location": "12 Jalan Pandak Akhat, 31000 Batu Gajah, Perak.", "Longitude": 101.0421571, "Latitude": 4.4684248, "Region": "Perak", "Category": "地缘", "PageNumber": "141" }, "geometry": { "type": "Point", "coordinates": [ 101.0422, 4.4684, 101.0422 ] } },
{ "type": "Feature", "properties": { "Name_CH": "华都牙也海南会馆", "Name_ML": "Persatuan Hainan Batu Gajah", "Name_EN": "Batu Gajah Hainan Association", "Location": "37A, Leboh Dewangsa, 31000 Batu Gajah, Perak.", "Longitude": 101.040345, "Latitude": 4.472588, "Region": "Perak", "Category": "地缘", "PageNumber": "141" }, "geometry": { "type": "Point", "coordinates": [ 101.0403, 4.4726, 101.0403 ] } },
{ "type": "Feature", "properties": { "Name_CH": "华都牙也广东会馆", "Name_ML": "Persatuan Kwang Tung Bt Gajah", "Name_EN": "Batu Gajah Kwang Tung Association", "Location": "1A, Lorong Dewangsa 2, 31000 Batu Gajah, Perak.", "Longitude": 101.0408541, "Latitude": 4.4740383, "Region": "Perak", "Category": "地缘", "PageNumber": "141" }, "geometry": { "type": "Point", "coordinates": [ 101.0409, 4.474, 101.0409 ] } },
{ "type": "Feature", "properties": { "Name_CH": "甲板增龙会馆", "Name_ML": "Papan Tsen Lung Fui Kuon", "Name_EN": null, "Location": "69 Main Road, 31550 Papan, Perak.", "Longitude": 100.9920051, "Latitude": 4.5094794, "Region": "Perak", "Category": "地缘", "PageNumber": "141" }, "geometry": { "type": "Point", "coordinates": [ 100.992, 4.5095, 100.992 ] } },
{ "type": "Feature", "properties": { "Name_CH": "红毛丹福建公会", "Name_ML": "Persatuan Hokkien Tg. Rambutan dan Kg. Bercham, Perak", "Name_EN": null, "Location": "No.38, Jalan Stesyen 31250 Tg. Rambutan, Perak.", "Longitude": 101.1730615, "Latitude": 4.6690102, "Region": "Perak", "Category": "地缘", "PageNumber": "141" }, "geometry": { "type": "Point", "coordinates": [ 101.1731, 4.669, 101.1731 ] } },
{ "type": "Feature", "properties": { "Name_CH": "嘉应会馆(司南马)", "Name_ML": null, "Name_EN": "Persatuan Kaying Selama Ka Ying Association Selama", "Location": "41, Jalan Besar 34100 Selama, Perak.", "Longitude": 100.7197786, "Latitude": 4.7099691, "Region": "Perak", "Category": "地缘", "PageNumber": "141" }, "geometry": { "type": "Point", "coordinates": [ 100.7198, 4.71, 100.7198 ] } },
{ "type": "Feature", "properties": { "Name_CH": "江沙潮州会馆", "Name_ML": "Persatuan Teoh Chew Kuala Kangsar", "Name_EN": "Teoh Chew Association Kuala Kangsar", "Location": "6675, Tingkat 2, Jalan Dato Sagor, 33000 Kuala Kangsar, Perak.", "Longitude": 100.9349789, "Latitude": 4.7707671, "Region": "Perak", "Category": "地缘", "PageNumber": "141" }, "geometry": { "type": "Point", "coordinates": [ 100.935, 4.7708, 100.935 ] } },
{ "type": "Feature", "properties": { "Name_CH": "和丰韩江公会", "Name_ML": "Sungai Siput Han Kang Kong Hoey", "Name_EN": null, "Location": "171 Jalan Besar, 31100 Sungai Siput (U), Perak.", "Longitude": 101.0731889, "Latitude": 4.819181, "Region": "Perak", "Category": "地缘", "PageNumber": "141" }, "geometry": { "type": "Point", "coordinates": [ 101.0732, 4.8192, 101.0732 ] } },
{ "type": "Feature", "properties": { "Name_CH": "和丰嘉应会馆", "Name_ML": "Persatuan Ka Ying Sungai Siput (U) Perak", "Name_EN": null, "Location": "81 Jalan Besar, 31100 Sungai Siput (U) Perak.", "Longitude": 101.0701924, "Latitude": 4.8208495, "Region": "Perak", "Category": "地缘", "PageNumber": "141" }, "geometry": { "type": "Point", "coordinates": [ 101.0702, 4.8208, 101.0702 ] } },
{ "type": "Feature", "properties": { "Name_CH": "和丰增龙会馆", "Name_ML": "Persatuan Sungai Siput Tsen Lung Fui Kuon", "Name_EN": null, "Location": "232 Sungai Beloh, 31100 Sungai Siput (U), Perak.", "Longitude": 101.069683, "Latitude": 4.8211335, "Region": "Perak", "Category": "地缘", "PageNumber": "141" }, "geometry": { "type": "Point", "coordinates": [ 101.0697, 4.8211, 101.0697 ] } },
{ "type": "Feature", "properties": { "Name_CH": "金宝广西会馆", "Name_ML": "Persatuan Guangxi Kampar", "Name_EN": null, "Location": "NIC, Jalan Idris, 31900 Kampar, Perak.", "Longitude": 101.1522604, "Latitude": 4.3116688, "Region": "Perak", "Category": "地缘", "PageNumber": "142" }, "geometry": { "type": "Point", "coordinates": [ 101.1523, 4.3117, 101.1523 ] } },
{ "type": "Feature", "properties": { "Name_CH": "金宝高州会馆", "Name_ML": null, "Name_EN": "Koh Chow Association Kampar", "Location": "164, Tingkat 2, Jalan Gopeng, 31900 Kampar, Perak.", "Longitude": 101.1072055, "Latitude": 4.4885475, "Region": "Perak", "Category": "地缘", "PageNumber": "142" }, "geometry": { "type": "Point", "coordinates": [ 101.1072, 4.4885, 101.1072 ] } },
{ "type": "Feature", "properties": { "Name_CH": "金宝福建公会", "Name_ML": "Hokkien Kong Hoey Kampar", "Name_EN": null, "Location": "176 A-178A, Jalan Gopeng, 31900 Kampar, Perak.", "Longitude": 101.1355877, "Latitude": 4.5183701, "Region": "Perak", "Category": "地缘", "PageNumber": "142" }, "geometry": { "type": "Point", "coordinates": [ 101.1356, 4.5184, 101.1356 ] } },
{ "type": "Feature", "properties": { "Name_CH": "金宝海南会馆", "Name_ML": "Persatuan Hainan Kampar", "Name_EN": "Kampar Haina Association", "Location": "162 Jalan Gopeng, 31900 Kampar, Perak.", "Longitude": 101.1355877, "Latitude": 4.5183701, "Region": "Perak", "Category": "地缘", "PageNumber": "142" }, "geometry": { "type": "Point", "coordinates": [ 101.1356, 4.5184, 101.1356 ] } },
{ "type": "Feature", "properties": { "Name_CH": "金宝古冈州公会", "Name_ML": null, "Name_EN": "Koo Kong Chow Association", "Location": "104 Jalan Gopeng, 31900 Kampar, Perak.", "Longitude": 101.1348099, "Latitude": 4.5199667, "Region": "Perak", "Category": "地缘", "PageNumber": "142" }, "geometry": { "type": "Point", "coordinates": [ 101.1348, 4.52, 101.1348 ] } },
{ "type": "Feature", "properties": { "Name_CH": "金宝古冈州会馆", "Name_ML": "Persatuan Koo Kong Chow", "Name_EN": null, "Location": "104, Jalan Gopeng, 31900, Kampar, Perak.", "Longitude": 101.1348099, "Latitude": 4.5199667, "Region": "Perak", "Category": "地缘", "PageNumber": "142" }, "geometry": { "type": "Point", "coordinates": [ 101.1348, 4.52, 101.1348 ] } },
{ "type": "Feature", "properties": { "Name_CH": "金宝古庙华人义冢联合会", "Name_ML": null, "Name_EN": "Kampar Chinese Temple & Cemetery Association", "Location": "102, Jalan Gopeng 31900 Kampar, Perak.", "Longitude": 101.1348099, "Latitude": 4.5199667, "Region": "Perak", "Category": "地缘", "PageNumber": "142" }, "geometry": { "type": "Point", "coordinates": [ 101.1348, 4.52, 101.1348 ] } },
{ "type": "Feature", "properties": { "Name_CH": "江沙广西会馆", "Name_ML": "Persatuan Kwongsai Kuala Kangsar", "Name_EN": "Kwongsai Association Kuala Kangsar", "Location": "2, Jalan Jeragan Abdul Shukor, 33000 Kuala Kangar, Perak", "Longitude": 100.9371379, "Latitude": 4.772075, "Region": "Perak", "Category": "地缘", "PageNumber": "142" }, "geometry": { "type": "Point", "coordinates": [ 100.9371, 4.7721, 100.9371 ] } },
{ "type": "Feature", "properties": { "Name_CH": "江沙福建公会", "Name_ML": "Persatuan Hokkien Kuala Kangsar", "Name_EN": "Hokkien Association Kuala Kangsar", "Location": "50, Jalan Datoh Maharajalela, 33000 Kuala Kangsar, Perak", "Longitude": 100.9429535, "Latitude": 4.7736833, "Region": "Perak", "Category": "地缘", "PageNumber": "142" }, "geometry": { "type": "Point", "coordinates": [ 100.943, 4.7737, 100.943 ] } },
{ "type": "Feature", "properties": { "Name_CH": "江沙仁和公所", "Name_ML": "Lin Hoe Kong Soh", "Name_EN": null, "Location": "30, Jalan Daeng Selili, 33000 Kuala Kangsar, Perak.", "Longitude": 100.9421662, "Latitude": 4.774505, "Region": "Perak", "Category": "地缘", "PageNumber": "142" }, "geometry": { "type": "Point", "coordinates": [ 100.9422, 4.7745, 100.9422 ] } },
{ "type": "Feature", "properties": { "Name_CH": "江沙琼州公会", "Name_ML": "Kiung Chow Kong Hwee", "Name_EN": "Kheng Chew Association", "Location": "38, Jalan Kota Lama 33000 Kuala Kangsar, Perak.", "Longitude": 100.9423044, "Latitude": 4.776253, "Region": "Perak", "Category": "地缘", "PageNumber": "142" }, "geometry": { "type": "Point", "coordinates": [ 100.9423, 4.7763, 100.9423 ] } },
{ "type": "Feature", "properties": { "Name_CH": "江沙客家公会", "Name_ML": null, "Name_EN": "Kheh Community Association", "Location": "2, Jalan Kota Lama, 33000 Kuala Kangsar, Perak.", "Longitude": 100.94634, "Latitude": 4.79228, "Region": "Perak", "Category": "地缘", "PageNumber": "142" }, "geometry": { "type": "Point", "coordinates": [ 100.9463, 4.7923, 100.9463 ] } },
{ "type": "Feature", "properties": { "Name_CH": "马登巴冷嘉应五属公会", "Name_ML": "Batang Padang Ka Yin Ng Shuk Kung Fui", "Name_EN": null, "Location": "33, 2nd Floor, Theatre Street, 35500, Bidor, Perak.", "Longitude": 101.085948, "Latitude": 4.595903, "Region": "Perak", "Category": "地缘", "PageNumber": "143" }, "geometry": { "type": "Point", "coordinates": [ 101.0859, 4.5959, 101.0859 ] } },
{ "type": "Feature", "properties": { "Name_CH": "马登巴冷海南会馆", "Name_ML": "Persatuan Hainan Batang Padang", "Name_EN": null, "Location": "19-A, Jalan Persatuan, 35500 Bidoc Perak", "Longitude": 101.2877656, "Latitude": 4.1138926, "Region": "Perak", "Category": "地缘", "PageNumber": "143" }, "geometry": { "type": "Point", "coordinates": [ 101.2878, 4.1139, 101.2878 ] } },
{ "type": "Feature", "properties": { "Name_CH": "马登巴冷福建公会", "Name_ML": null, "Name_EN": "Batang Padang Hokkien Association", "Location": "9-10, Taman Kuning Emas, Jalan Temoh, 35000 Tapah, Perak.", "Longitude": 101.253036, "Latitude": 4.213241, "Region": "Perak", "Category": "地缘", "PageNumber": "143" }, "geometry": { "type": "Point", "coordinates": [ 101.253, 4.2132, 101.253 ] } },
{ "type": "Feature", "properties": { "Name_CH": "金宝华商阁", "Name_ML": null, "Name_EN": "The Kampar Literary Association (Wah Seong Kok)", "Location": "N4A-N5A, Jalan Idris, 31900 Kampar, Perak.", "Longitude": 101.1524401, "Latitude": 4.3115578, "Region": "Perak", "Category": "地缘", "PageNumber": "143" }, "geometry": { "type": "Point", "coordinates": [ 101.1524, 4.3116, 101.1524 ] } },
{ "type": "Feature", "properties": { "Name_CH": "金宝梅江公会", "Name_ML": "Persatuan Moy Yong Kung Hui Kampar", "Name_EN": null, "Location": "90 Jalan Gopeng, 31900 Kampar, Perak.", "Longitude": 101.152449, "Latitude": 4.312266, "Region": "Perak", "Category": "地缘", "PageNumber": "143" }, "geometry": { "type": "Point", "coordinates": [ 101.1524, 4.3123, 101.1524 ] } },
{ "type": "Feature", "properties": { "Name_CH": "马来西亚嘉属会馆联合会", "Name_ML": "Persekutuan Persatuan-Persatuan Ka Yin Chu Malaysia", "Name_EN": "Federation Of Ka Yin Association Of Malaysia", "Location": "C\/O 90, Jalan Gopeng, 31900 Kampar, Perak.", "Longitude": 101.152449, "Latitude": 4.312266, "Region": "Perak", "Category": "地缘", "PageNumber": "143" }, "geometry": { "type": "Point", "coordinates": [ 101.1524, 4.3123, 101.1524 ] } },
{ "type": "Feature", "properties": { "Name_CH": "金宝增龙会馆", "Name_ML": "Tseng Lung Fui Kuon, Kampar", "Name_EN": null, "Location": "100, Jalan Gopeng, 31900 Kampar, Perak.", "Longitude": 101.152731, "Latitude": 4.3140923, "Region": "Perak", "Category": "地缘", "PageNumber": "143" }, "geometry": { "type": "Point", "coordinates": [ 101.1527, 4.3141, 101.1527 ] } },
{ "type": "Feature", "properties": { "Name_CH": "金宝会宁同乡会", "Name_ML": "Pers Wooi Ning Thoong Heong Wooi Kampar", "Name_EN": null, "Location": "3 Jalan Bukit, 31900 Kampar, Perak.", "Longitude": 101.1528764, "Latitude": 4.3156966, "Region": "Perak", "Category": "地缘", "PageNumber": "143" }, "geometry": { "type": "Point", "coordinates": [ 101.1529, 4.3157, 101.1529 ] } },
{ "type": "Feature", "properties": { "Name_CH": "金宝南番顺会馆", "Name_ML": "Persatuan Nam Phun Soon Kampar Perak", "Name_EN": "Nam Phun Soon Association", "Location": "120, Jalan Gopeng, 31900 Kampar, Perak.", "Longitude": 101.1348099, "Latitude": 4.5199667, "Region": "Perak", "Category": "地缘", "PageNumber": "143" }, "geometry": { "type": "Point", "coordinates": [ 101.1348, 4.52, 101.1348 ] } },
{ "type": "Feature", "properties": { "Name_CH": "马来西亚蕉岭同乡会", "Name_ML": "Persatuan Chiew Liang Malaysia", "Name_EN": "Malaysia Chiew Liang Association", "Location": "1 (Tingkat 1) Jalan Horley, 30300 Ipoh, Perak.", "Longitude": 101.0827303, "Latitude": 4.5976798, "Region": "Perak", "Category": "地缘", "PageNumber": "143" }, "geometry": { "type": "Point", "coordinates": [ 101.0827, 4.5977, 101.0827 ] } },
{ "type": "Feature", "properties": { "Name_CH": "玲珑广西会馆", "Name_ML": "Persatuan Kwongsai Lenggong", "Name_EN": "Kwongsai Association Lenggong", "Location": "52, Jalan Along Iskandar, 33400 Lenggong, Perak.", "Longitude": 100.952824, "Latitude": 5.044707, "Region": "Perak", "Category": "地缘", "PageNumber": "143" }, "geometry": { "type": "Point", "coordinates": [ 100.9528, 5.0447, 100.9528 ] } },
{ "type": "Feature", "properties": { "Name_CH": "玲珑福建公会", "Name_ML": "Hock Kean Kong Hoey Lenggong", "Name_EN": null, "Location": "84 & 86, Jalan Kelab, 33400 Lenggong, Perak", "Longitude": 100.9686371, "Latitude": 5.1089407, "Region": "Perak", "Category": "地缘", "PageNumber": "143" }, "geometry": { "type": "Point", "coordinates": [ 100.9686, 5.1089, 100.9686 ] } },
{ "type": "Feature", "properties": { "Name_CH": "曼绒福州会馆", "Name_ML": "Persatuan Foo Chow Dinding", "Name_EN": null, "Location": "18, Tingkat 1, Taman Wong Beng Hea, Kampung Koh,32000 Sitiawan, Perak.", "Longitude": 100.7012182, "Latitude": 4.195817, "Region": "Perak", "Category": "地缘", "PageNumber": "144" }, "geometry": { "type": "Point", "coordinates": [ 100.7012, 4.1958, 100.7012 ] } },
{ "type": "Feature", "properties": { "Name_CH": "曼绒闽清同乡会", "Name_ML": "Persatuan Min Chian Manung", "Name_EN": "Min Chian Toon Hong Hui", "Location": "47, Jalan Lin Chen Mei, Kampung Koh, 32000 Sitiawan, Perak.", "Longitude": 100.6991143, "Latitude": 4.2008657, "Region": "Perak", "Category": "地缘", "PageNumber": "144" }, "geometry": { "type": "Point", "coordinates": [ 100.6991, 4.2009, 100.6991 ] } },
{ "type": "Feature", "properties": { "Name_CH": "曼绒三山同乡会", "Name_ML": "Persatuan San Shan Manjung", "Name_EN": "San Shan Association", "Location": "c\/o 120, Taman Bunga Raya, 32000 Sitiawan, Perak.", "Longitude": 100.6989039, "Latitude": 4.2042255, "Region": "Perak", "Category": "地缘", "PageNumber": "144" }, "geometry": { "type": "Point", "coordinates": [ 100.6989, 4.2042, 100.6989 ] } },
{ "type": "Feature", "properties": { "Name_CH": "曼绒福清公会", "Name_ML": "Persatuan Fu Qing Manjung Sitiawan Perak", "Name_EN": null, "Location": "1 & 2 (Tingkat 2) Taman Arasu, Jalan Raja Omar, 32000 Sitiawan, Perak.", "Longitude": 100.6965, "Latitude": 4.213051, "Region": "Perak", "Category": "地缘", "PageNumber": "144" }, "geometry": { "type": "Point", "coordinates": [ 100.6965, 4.2131, 100.6965 ] } },
{ "type": "Feature", "properties": { "Name_CH": "曼绒兴安会馆", "Name_ML": "Persatuan Hin Aun Manjung", "Name_EN": null, "Location": "16, Tingkat 2, Taman Teratai, 32000 Sitiawan, Perak.", "Longitude": 100.697881, "Latitude": 4.215439, "Region": "Perak", "Category": "地缘", "PageNumber": "144" }, "geometry": { "type": "Point", "coordinates": [ 100.6979, 4.2154, 100.6979 ] } },
{ "type": "Feature", "properties": { "Name_CH": "曼绒广东会馆", "Name_ML": "Persatuan Kwang Tung Manjung", "Name_EN": "Manjung Kwang Tung Association", "Location": "58 Lorong 2, Taman Sitiawan Maju, 32000 Sitiawan, Perak.", "Longitude": 100.6913, "Latitude": 4.2205793, "Region": "Perak", "Category": "地缘", "PageNumber": "144" }, "geometry": { "type": "Point", "coordinates": [ 100.6913, 4.2206, 100.6913 ] } },
{ "type": "Feature", "properties": { "Name_CH": "曼绒海南会馆", "Name_ML": "Persatuan Hainan Manjung", "Name_EN": null, "Location": "115-117, Tingkat 2, Jalan Titi Panjang, 32200 Lumut Perak.", "Longitude": 100.6356803, "Latitude": 4.2353474, "Region": "Perak", "Category": "地缘", "PageNumber": "144" }, "geometry": { "type": "Point", "coordinates": [ 100.6357, 4.2353, 100.6357 ] } },
{ "type": "Feature", "properties": { "Name_CH": "曼绒中华公会", "Name_ML": "The Chung Hua Kung Hui Setiawan", "Name_EN": null, "Location": "32, Jalan Besar, Kampong Koh, 32000 Setiawan, Perak.", "Longitude": 100.6808158, "Latitude": 4.2406581, "Region": "Perak", "Category": "地缘", "PageNumber": "144" }, "geometry": { "type": "Point", "coordinates": [ 100.6808, 4.2407, 100.6808 ] } },
{ "type": "Feature", "properties": { "Name_CH": "曼绒闽南公会", "Name_ML": "Persatuan Ban Nam , Manjung", "Name_EN": "Ban Nam Association Manjung", "Location": "293, Jalan Raya, 32400 Ayer Tawar, Perak.", "Longitude": 100.7601864, "Latitude": 4.3004089, "Region": "Perak", "Category": "地缘", "PageNumber": "144" }, "geometry": { "type": "Point", "coordinates": [ 100.7602, 4.3004, 100.7602 ] } },
{ "type": "Feature", "properties": { "Name_CH": "曼绒古田会馆", "Name_ML": "Persatuan Kutien Daerah Manjung", "Name_EN": "Manjung Kutien Association", "Location": "Lot No.11425 Jalan Besar, 32400 Ayer Tawar, Perak.", "Longitude": 100.7619081, "Latitude": 4.3056389, "Region": "Perak", "Category": "地缘", "PageNumber": "144" }, "geometry": { "type": "Point", "coordinates": [ 100.7619, 4.3056, 100.7619 ] } },
{ "type": "Feature", "properties": { "Name_CH": "曼绒广西公所", "Name_ML": "Kwong Sai Kong Soh Manong", "Name_EN": null, "Location": "15 Jalan Besar, 33800 Manong, Perak.", "Longitude": 100.8822993, "Latitude": 4.589888, "Region": "Perak", "Category": "地缘", "PageNumber": "144" }, "geometry": { "type": "Point", "coordinates": [ 100.8823, 4.5899, 100.8823 ] } },
{ "type": "Feature", "properties": { "Name_CH": "马来西亚增龙总会", "Name_ML": null, "Name_EN": "The Federation Of Tsen Lung Of Malaysia", "Location": "157, Jalan Pasar, 34000 Taiping, Perak.", "Longitude": 100.7389455, "Latitude": 4.8511546, "Region": "Perak", "Category": "地缘", "PageNumber": "144" }, "geometry": { "type": "Point", "coordinates": [ 100.7389, 4.8512, 100.7389 ] } },
{ "type": "Feature", "properties": { "Name_CH": "南霹雳兴安会馆", "Name_ML": "Persatuan Hin Aun Perak Selatan", "Name_EN": null, "Location": "57, Anson Park, 36000 Teluk lntan, Perak.", "Longitude": 101.0192607, "Latitude": 4.0251537, "Region": "Perak", "Category": "地缘", "PageNumber": "145" }, "geometry": { "type": "Point", "coordinates": [ 101.0193, 4.0252, 101.0193 ] } },
{ "type": "Feature", "properties": { "Name_CH": "霹雳安溪会馆", "Name_ML": "Persatuan Ann Kway Perak", "Name_EN": null, "Location": "31-32, Jalan Pahang, Malaysia Park, Jalan Sultan Abdullah, 36000 Teluk Intan, Perak.", "Longitude": 101.1732483, "Latitude": 4.0496256, "Region": "Perak", "Category": "地缘", "PageNumber": "145" }, "geometry": { "type": "Point", "coordinates": [ 101.1732, 4.0496, 101.1732 ] } },
{ "type": "Feature", "properties": { "Name_CH": "美罗高州会馆", "Name_ML": "Persatuan Kho Chow Bidor", "Name_EN": "Kho Chow Association Bidor", "Location": "14 Market Street, (2nd Floor), 35500 Bidor, Perak.", "Longitude": 101.282183, "Latitude": 4.109272, "Region": "Perak", "Category": "地缘", "PageNumber": "145" }, "geometry": { "type": "Point", "coordinates": [ 101.2822, 4.1093, 101.2822 ] } },
{ "type": "Feature", "properties": { "Name_CH": "美罗古冈州公会", "Name_ML": "Persatuan Ku Kong Chow", "Name_EN": "Ku Kong Chow Association", "Location": "20, Theatre Street, 35500 Bidor, Perak.", "Longitude": 101.2750531, "Latitude": 4.0916131, "Region": "Perak", "Category": "地缘", "PageNumber": "145" }, "geometry": { "type": "Point", "coordinates": [ 101.2751, 4.0916, 101.2751 ] } },
{ "type": "Feature", "properties": { "Name_CH": "美罗惠州会馆", "Name_ML": "Persatuan Fee Chiew Bidor", "Name_EN": "Bidor Fee Chiew Association", "Location": "9-10, (Tingkat 1), Jalan Persatuan, 35500 Bidor, Perak.", "Longitude": 101.287915, "Latitude": 4.114737, "Region": "Perak", "Category": "地缘", "PageNumber": "145" }, "geometry": { "type": "Point", "coordinates": [ 101.2879, 4.1147, 101.2879 ] } },
{ "type": "Feature", "properties": { "Name_CH": "拿吃古冈州公会", "Name_ML": null, "Name_EN": "The Ku Kong Chow Association Lahat", "Location": "29 High Street, 31500 Ipoh, Perak.", "Longitude": 101.035924, "Latitude": 4.540466, "Region": "Perak", "Category": "地缘", "PageNumber": "145" }, "geometry": { "type": "Point", "coordinates": [ 101.0359, 4.5405, 101.0359 ] } },
{ "type": "Feature", "properties": { "Name_CH": "霹雳福建公会", "Name_ML": "Persatuan Hock Kean Perak", "Name_EN": "Perak Hock Kean Kong Hoey", "Location": "Tingkat 3, 111-113 Jalan Sultan Yussuf, 30000 Ipoh, Perak.", "Longitude": 101.0871449, "Latitude": 4.5758138, "Region": "Perak", "Category": "地缘", "PageNumber": "145" }, "geometry": { "type": "Point", "coordinates": [ 101.0871, 4.5758, 101.0871 ] } },
{ "type": "Feature", "properties": { "Name_CH": "霹雳汾阳公会", "Name_ML": "Persatuan Foon Yang Perak", "Name_EN": null, "Location": "29A Jalan Tokong, 31650 Ipoh, Perak.", "Longitude": 101.0837549, "Latitude": 4.5856863, "Region": "Perak", "Category": "地缘", "PageNumber": "145" }, "geometry": { "type": "Point", "coordinates": [ 101.0838, 4.5857, 101.0838 ] } },
{ "type": "Feature", "properties": { "Name_CH": "霹雳赤溪会馆", "Name_ML": "Persatuan Chuk Kai Perak", "Name_EN": "Perak Chuk Kai Fui Kon", "Location": "87 Jalan Theatre, 30300 Ipoh, Perak.", "Longitude": 101.0862482, "Latitude": 4.5940461, "Region": "Perak", "Category": "地缘", "PageNumber": "145" }, "geometry": { "type": "Point", "coordinates": [ 101.0862, 4.594, 101.0862 ] } },
{ "type": "Feature", "properties": { "Name_CH": "霹雳番禺会馆", "Name_ML": "Persatuan Phun Yue Perak", "Name_EN": "Perak Phun Yue Wui Kuon", "Location": "64-66 Theatre Street, 30300 Ipoh, Perak.", "Longitude": 101.0856574, "Latitude": 4.5940963, "Region": "Perak", "Category": "地缘", "PageNumber": "145" }, "geometry": { "type": "Point", "coordinates": [ 101.0857, 4.5941, 101.0857 ] } },
{ "type": "Feature", "properties": { "Name_CH": "霹雳东安会馆", "Name_ML": "Perak Toong Onn Woi Koon", "Name_EN": null, "Location": "73 & 75, Jalan Theatre, 30300 Ipoh, Perak.", "Longitude": 101.0858585, "Latitude": 4.5941474, "Region": "Perak", "Category": "地缘", "PageNumber": "145" }, "geometry": { "type": "Point", "coordinates": [ 101.0859, 4.5941, 101.0859 ] } },
{ "type": "Feature", "properties": { "Name_CH": "霹雳大埔同乡会", "Name_ML": "Persatuan Taipu Perak", "Name_EN": "Perak Taipu Association", "Location": "19-21, Jalan Horley, 30300 Ipoh, Perak.", "Longitude": 101.0828819, "Latitude": 4.5981765, "Region": "Perak", "Category": "地缘", "PageNumber": "145" }, "geometry": { "type": "Point", "coordinates": [ 101.0829, 4.5982, 101.0829 ] } },
{ "type": "Feature", "properties": { "Name_CH": "霹雳高州会馆", "Name_ML": "Persatuan Kho Chew Perak", "Name_EN": null, "Location": "76B, Jalan Leong Boon Swee, 30000 Ipoh, Perak.", "Longitude": 101.0788655, "Latitude": 4.5870631, "Region": "Perak", "Category": "地缘", "PageNumber": "146" }, "geometry": { "type": "Point", "coordinates": [ 101.0789, 4.5871, 101.0789 ] } },
{ "type": "Feature", "properties": { "Name_CH": "霹雳福州十邑会馆", "Name_ML": "Persatuan Perak Foo Chow", "Name_EN": "Perak Foo Chow Association", "Location": "27 Jalan Datoh, 30000 Ipoh, Perak.", "Longitude": 101.0802874, "Latitude": 4.5891366, "Region": "Perak", "Category": "地缘", "PageNumber": "146" }, "geometry": { "type": "Point", "coordinates": [ 101.0803, 4.5891, 101.0803 ] } },
{ "type": "Feature", "properties": { "Name_CH": "霹雳古冈州公会", "Name_ML": "Persatuan Ku Kong Chow Perak", "Name_EN": "Perak Ku Kong Chow Association", "Location": "34-38 Jalan Yang Kalson, 30250 Ipoh, Perak.", "Longitude": 101.0844614, "Latitude": 4.5915161, "Region": "Perak", "Category": "地缘", "PageNumber": "146" }, "geometry": { "type": "Point", "coordinates": [ 101.0845, 4.5915, 101.0845 ] } },
{ "type": "Feature", "properties": { "Name_CH": "霹雳广东会馆", "Name_ML": "Persatuan Kwang Tung Perak", "Name_EN": "Perak Kwang Tung Association", "Location": "1, Jalan Ali Pitchay, 30250 Ipoh, Perak.", "Longitude": 101.08608, "Latitude": 4.592099, "Region": "Perak", "Category": "地缘", "PageNumber": "146" }, "geometry": { "type": "Point", "coordinates": [ 101.0861, 4.5921, 101.0861 ] } },
{ "type": "Feature", "properties": { "Name_CH": "霹雳河婆同乡会", "Name_ML": "Persatuan Hopoh Perak", "Name_EN": "Perak Hopoh Association", "Location": "1, Tingkat 2, Jalan Che Tak, 30300 Ipoh, Perak.", "Longitude": 101.0845097, "Latitude": 4.5921696, "Region": "Perak", "Category": "地缘", "PageNumber": "146" }, "geometry": { "type": "Point", "coordinates": [ 101.0845, 4.5922, 101.0845 ] } },
{ "type": "Feature", "properties": { "Name_CH": "霹雳海南会馆", "Name_ML": "Persatuan Hainan Perak", "Name_EN": "Perak Hainan Association", "Location": "28 & 30, Jalan Sultan Yussof 30000 Ipoh, Perak.", "Longitude": 101.0760515, "Latitude": 4.5927754, "Region": "Perak", "Category": "地缘", "PageNumber": "146" }, "geometry": { "type": "Point", "coordinates": [ 101.0761, 4.5928, 101.0761 ] } },
{ "type": "Feature", "properties": { "Name_CH": "霹雳花县会馆", "Name_ML": "Perak Fah Yuen Wui Koon", "Name_EN": null, "Location": "68, Jalan Theatre, 30300 Ipoh, Perak.", "Longitude": 101.0854772, "Latitude": 4.5940813, "Region": "Perak", "Category": "地缘", "PageNumber": "146" }, "geometry": { "type": "Point", "coordinates": [ 101.0855, 4.5941, 101.0855 ] } },
{ "type": "Feature", "properties": { "Name_CH": "霹雳惠州会馆", "Name_ML": "Persatuan Fee Chiew Perak Malaysia", "Name_EN": "The Perak Fee Chiew Association", "Location": "53 (1st Floor) Jalan Mustapha Al-Bakri, 30300 Ipoh, Perak", "Longitude": 101.0843973, "Latitude": 4.5951013, "Region": "Perak", "Category": "地缘", "PageNumber": "146" }, "geometry": { "type": "Point", "coordinates": [ 101.0844, 4.5951, 101.0844 ] } },
{ "type": "Feature", "properties": { "Name_CH": "霹雳韩江公会", "Name_ML": "Perak Han Kang Kong Hoey", "Name_EN": null, "Location": "27-29, Jalan Tun Sambanthan, 30000 Ipoh, Perak.", "Longitude": 101.0769427, "Latitude": 4.5978249, "Region": "Perak", "Category": "地缘", "PageNumber": "146" }, "geometry": { "type": "Point", "coordinates": [ 101.0769, 4.5978, 101.0769 ] } },
{ "type": "Feature", "properties": { "Name_CH": "霹雳广西会馆", "Name_ML": "Persatuan Guangxi Perak", "Name_EN": "Perak Guangxi Association", "Location": "8-12, (3rd Floor) Jalan Dato Onn Jaafar, 30300 Ipoh, Perak.", "Longitude": 101.0834335, "Latitude": 4.5980201, "Region": "Perak", "Category": "地缘", "PageNumber": "146" }, "geometry": { "type": "Point", "coordinates": [ 101.0834, 4.598, 101.0834 ] } },
{ "type": "Feature", "properties": { "Name_CH": "霹雳会宁公会", "Name_ML": "Perak Wooi Ning Kong Wool", "Name_EN": null, "Location": "17, Jalan Sultan Idris Shah, 30000 Ipoh, Perak.", "Longitude": 101.0783447, "Latitude": 4.5982948, "Region": "Perak", "Category": "地缘", "PageNumber": "146" }, "geometry": { "type": "Point", "coordinates": [ 101.0783, 4.5983, 101.0783 ] } },
{ "type": "Feature", "properties": { "Name_CH": "霹雳济阳堂", "Name_ML": "Chay Yeong Tong Perak", "Name_EN": null, "Location": "219, Jalan Berangan, Kampung Jambu, 34000 Taiping, Perak.", "Longitude": 100.7418588, "Latitude": 4.8470724, "Region": "Perak", "Category": "地缘", "PageNumber": "146" }, "geometry": { "type": "Point", "coordinates": [ 100.7419, 4.8471, 100.7419 ] } },
{ "type": "Feature", "properties": { "Name_CH": "霹雳南番顺会馆", "Name_ML": null, "Name_EN": "Perak Nam Phoon Shun Association", "Location": "69, Tingkat Satu, Jalan Pasac 36000 Teluk Intan, Perak.", "Longitude": 101.048549, "Latitude": 3.9743008, "Region": "Perak", "Category": "地缘", "PageNumber": "147" }, "geometry": { "type": "Point", "coordinates": [ 101.0485, 3.9743, 101.0485 ] } },
{ "type": "Feature", "properties": { "Name_CH": "霹雳美罗福建公会", "Name_ML": "Persatuan Hokkien Bidor Perak", "Name_EN": " Hokkien Association Bidor Perak", "Location": "1, Jalan Persatuan, Tingkat atas, 35500 Bidor, Perak.", "Longitude": 101.2879794, "Latitude": 4.1144586, "Region": "Perak", "Category": "地缘", "PageNumber": "147" }, "geometry": { "type": "Point", "coordinates": [ 101.288, 4.1145, 101.288 ] } },
{ "type": "Feature", "properties": { "Name_CH": "霹雳曼绒韩江公会", "Name_ML": "Pertubuhan Han Jiang Manjung", "Name_EN": null, "Location": "6, Taman Megah, Jalan Kampung Sitiawah, 32000 Sitiawan, Perak.", "Longitude": 100.6836891, "Latitude": 4.2387392, "Region": "Perak", "Category": "地缘", "PageNumber": "147" }, "geometry": { "type": "Point", "coordinates": [ 100.6837, 4.2387, 100.6837 ] } },
{ "type": "Feature", "properties": { "Name_CH": "霹雳甲扳东安会馆", "Name_ML": "Tong Onn Association", "Name_EN": null, "Location": "53, Main Road, Papan 31500 Perak.", "Longitude": 101.0768333, "Latitude": 4.5031172, "Region": "Perak", "Category": "地缘", "PageNumber": "147" }, "geometry": { "type": "Point", "coordinates": [ 101.0768, 4.5031, 101.0768 ] } },
{ "type": "Feature", "properties": { "Name_CH": "霹雳客家公会", "Name_ML": "Pers Hakka Perak", "Name_EN": "Perak Hakka Association", "Location": "21-23 Jalan Bendahara, 31650 Ipoh, Perak.", "Longitude": 101.0810292, "Latitude": 4.5894964, "Region": "Perak", "Category": "地缘", "PageNumber": "147" }, "geometry": { "type": "Point", "coordinates": [ 101.081, 4.5895, 101.081 ] } },
{ "type": "Feature", "properties": { "Name_CH": "霹雳三江公会", "Name_ML": "Perak San Jiang Association", "Name_EN": null, "Location": "13 (1st & 2nd Floor) Jalan Ali Pitchay, 30250 Ipoh, Perak.", "Longitude": 101.085285, "Latitude": 4.5911909, "Region": "Perak", "Category": "地缘", "PageNumber": "147" }, "geometry": { "type": "Point", "coordinates": [ 101.0853, 4.5912, 101.0853 ] } },
{ "type": "Feature", "properties": { "Name_CH": "霹雳嘉应会馆", "Name_ML": "Persatuan Kaying Perak", "Name_EN": "Perak Kaying Association", "Location": "114 (Tingkat 3) Jalan Sultan Yussuff, 30000 Ipoh, Perak.", "Longitude": 101.075903, "Latitude": 4.5919063, "Region": "Perak", "Category": "地缘", "PageNumber": "147" }, "geometry": { "type": "Point", "coordinates": [ 101.0759, 4.5919, 101.0759 ] } },
{ "type": "Feature", "properties": { "Name_CH": "霹雳顺德会馆", "Name_ML": "Perak Shun Tak Wui Kuan", "Name_EN": null, "Location": "21-25, Jalan Masjid 30300 Ipoh, Perak.", "Longitude": 101.0815926, "Latitude": 4.5932547, "Region": "Perak", "Category": "地缘", "PageNumber": "147" }, "geometry": { "type": "Point", "coordinates": [ 101.0816, 4.5933, 101.0816 ] } },
{ "type": "Feature", "properties": { "Name_CH": "霹雳琼乐会馆(霹雳琼海会馆)", "Name_ML": "Persatuan Chiung Loo Perak (Persatuan Qiong Hai Perak)", "Name_EN": "Perak Chiung Loo Association (Perak Qiong Hai Association)", "Location": "102-104, Jalan Theatre, 30300 Ipoh, Perak.", "Longitude": 101.0865385, "Latitude": 4.5937584, "Region": "Perak", "Category": "地缘", "PageNumber": "147" }, "geometry": { "type": "Point", "coordinates": [ 101.0865, 4.5938, 101.0865 ] } },
{ "type": "Feature", "properties": { "Name_CH": "霹雳三水会馆", "Name_ML": "Persatuan Sam Swi Perak", "Name_EN": null, "Location": "52A Theatre Street, 30100 Ipoh, Perak.", "Longitude": 101.0856574, "Latitude": 4.5940963, "Region": "Perak", "Category": "地缘", "PageNumber": "147" }, "geometry": { "type": "Point", "coordinates": [ 101.0857, 4.5941, 101.0857 ] } },
{ "type": "Feature", "properties": { "Name_CH": "霹雳南海会馆", "Name_ML": "Persatuan Nam Hoi Perak", "Name_EN": "The Perak Nam Hoi Wui Kwun", "Location": "75-77 Tingkat 1, Jalan Mustapha AI-Bakri, 30300 Ipoh, Perak.", "Longitude": 101.083035, "Latitude": 4.595597, "Region": "Perak", "Category": "地缘", "PageNumber": "147" }, "geometry": { "type": "Point", "coordinates": [ 101.083, 4.5956, 101.083 ] } },
{ "type": "Feature", "properties": { "Name_CH": "霹雳清远会馆", "Name_ML": "Persatuan Ching Yoon Perak", "Name_EN": "Perak Ching Yoon Association", "Location": "24B, Jalan Sultan Abdul Jalil, 30000 Ipoh, Perak.", "Longitude": 101.0855068, "Latitude": 4.5979904, "Region": "Perak", "Category": "地缘", "PageNumber": "147" }, "geometry": { "type": "Point", "coordinates": [ 101.0855, 4.598, 101.0855 ] } },
{ "type": "Feature", "properties": { "Name_CH": "霹雳州宋溪高州同乡会", "Name_ML": "Persatuan Koh Chow Thong Hiong Wooi, Sungkai, Perak", "Name_EN": null, "Location": "C-46 Jalan Kelab, 35600 Sungkai, Perak.", "Longitude": 101.3105016, "Latitude": 3.9966431, "Region": "Perak", "Category": "地缘", "PageNumber": "148" }, "geometry": { "type": "Point", "coordinates": [ 101.3105, 3.9966, 101.3105 ] } },
{ "type": "Feature", "properties": { "Name_CH": "霹雳怡保晋江会馆", "Name_ML": "Persatuan Chin Kang Ipoh Perak", "Name_EN": "Chin Kang Association Ipoh Perak", "Location": "520A, Jalan Pasir Puteh 31650 Ipoh, Perak.", "Longitude": 101.0810626, "Latitude": 4.5754667, "Region": "Perak", "Category": "地缘", "PageNumber": "148" }, "geometry": { "type": "Point", "coordinates": [ 101.0811, 4.5755, 101.0811 ] } },
{ "type": "Feature", "properties": { "Name_CH": "霹雳要明会馆", "Name_ML": null, "Name_EN": "Persatuan Yew Min Perak", "Location": "84-1A, Jalan Ho Lok Park, Taman Taiping, 31650 Ipoh, Perak.", "Longitude": 101.0812462, "Latitude": 4.5826062, "Region": "Perak", "Category": "地缘", "PageNumber": "148" }, "geometry": { "type": "Point", "coordinates": [ 101.0812, 4.5826, 101.0812 ] } },
{ "type": "Feature", "properties": { "Name_CH": "霹雳永春公会", "Name_ML": "Persatuan Eng Choon Perak", "Name_EN": "Perak Eng Choon Kong Hoey", "Location": "56-A, Jalan Di-Hilir (Off Jalan Pasir Puteh), 31650 Ipoh, Perak.", "Longitude": 101.0832782, "Latitude": 4.5874925, "Region": "Perak", "Category": "地缘", "PageNumber": "148" }, "geometry": { "type": "Point", "coordinates": [ 101.0833, 4.5875, 101.0833 ] } },
{ "type": "Feature", "properties": { "Name_CH": "霹雳永定同乡会", "Name_ML": "Persatuan Yungting Perak", "Name_EN": "Perak Yungting Association", "Location": "43-45, Jalan Ali Pitchay 30250 Ipoh, Perak.", "Longitude": 101.0844017, "Latitude": 4.5913239, "Region": "Perak", "Category": "地缘", "PageNumber": "148" }, "geometry": { "type": "Point", "coordinates": [ 101.0844, 4.5913, 101.0844 ] } },
{ "type": "Feature", "properties": { "Name_CH": "霹雳新兴云浮会馆", "Name_ML": null, "Name_EN": "Perak Sun Hing Wan Fow Association", "Location": "60A Jalan Masjid, 30300 Ipoh, Perak.", "Longitude": 101.0826703, "Latitude": 4.5931622, "Region": "Perak", "Category": "地缘", "PageNumber": "148" }, "geometry": { "type": "Point", "coordinates": [ 101.0827, 4.5932, 101.0827 ] } },
{ "type": "Feature", "properties": { "Name_CH": "霹雳中山会馆", "Name_ML": "Perak Chung Shan Hui Kuan", "Name_EN": null, "Location": "3 Jalan Masjid, 30300 Ipoh, Perak.", "Longitude": 101.0806772, "Latitude": 4.5934065, "Region": "Perak", "Category": "地缘", "PageNumber": "148" }, "geometry": { "type": "Point", "coordinates": [ 101.0807, 4.5934, 101.0807 ] } },
{ "type": "Feature", "properties": { "Name_CH": "霹雳台山会馆", "Name_ML": "Persatuan Toi San Perak", "Name_EN": "Perak Toi San Associaton", "Location": "77, Theatre Street, 30300 Ipoh, Perak.", "Longitude": 101.085954, "Latitude": 4.594228, "Region": "Perak", "Category": "地缘", "PageNumber": "148" }, "geometry": { "type": "Point", "coordinates": [ 101.086, 4.5942, 101.086 ] } },
{ "type": "Feature", "properties": { "Name_CH": "霹雳番禹会馆", "Name_ML": "Persatuan Phun Yue Perak", "Name_EN": "Perak Phun Yue Wui Kuon", "Location": "64-66, Jalan Theatre, 30300 Ipoh, Perak.", "Longitude": 101.08472, "Latitude": 4.59431, "Region": "Perak", "Category": "地缘", "PageNumber": "148" }, "geometry": { "type": "Point", "coordinates": [ 101.0847, 4.5943, 101.0847 ] } },
{ "type": "Feature", "properties": { "Name_CH": "霹雳兴安会馆", "Name_ML": null, "Name_EN": "Perak Hin Aun Association", "Location": "32-34 Jalan Leong Sin Nam, 30300 Ipoh, Perak.", "Longitude": 101.085992, "Latitude": 4.5970483, "Region": "Perak", "Category": "地缘", "PageNumber": "148" }, "geometry": { "type": "Point", "coordinates": [ 101.086, 4.597, 101.086 ] } },
{ "type": "Feature", "properties": { "Name_CH": "霹雳增龙会馆", "Name_ML": "Perak Tsen Lung Fui Kuon", "Name_EN": null, "Location": "49-B, Jalan Lim Bo Seng 30300 Ipoh, Perak.", "Longitude": 101.0835216, "Latitude": 4.6008274, "Region": "Perak", "Category": "地缘", "PageNumber": "148" }, "geometry": { "type": "Point", "coordinates": [ 101.0835, 4.6008, 101.0835 ] } },
{ "type": "Feature", "properties": { "Name_CH": "上霹雳永春公会", "Name_ML": "Persatuan Eng Choon Hulu Perak", "Name_EN": null, "Location": "12, Taman Mehar, 33300 Gerik, Perak.", "Longitude": 101.136321, "Latitude": 5.534616, "Region": "Perak", "Category": "地缘", "PageNumber": "148" }, "geometry": { "type": "Point", "coordinates": [ 101.1363, 5.5346, 101.1363 ] } },
{ "type": "Feature", "properties": { "Name_CH": "天定兴安会馆", "Name_ML": "Persatuan Hin Aun Dinding", "Name_EN": "Dinding Hin Aun Association", "Location": "16 Taman Teratai, 32000 Sitiawan, Perak.", "Longitude": 100.7, "Latitude": 4.216667, "Region": "Perak", "Category": "地缘", "PageNumber": "149" }, "geometry": { "type": "Point", "coordinates": [ 100.7, 4.2167, 100.7 ] } },
{ "type": "Feature", "properties": { "Name_CH": "万邦刁湾清英莲花同乡会", "Name_ML": "Persatuan Cheng Ying Lin Fah", "Name_EN": null, "Location": "6, Jalan Haruan, Mambang Diawan, 31950 Kampar, Perak.", "Longitude": 101.1458111, "Latitude": 4.2690028, "Region": "Perak", "Category": "地缘", "PageNumber": "149" }, "geometry": { "type": "Point", "coordinates": [ 101.1458, 4.269, 101.1458 ] } },
{ "type": "Feature", "properties": { "Name_CH": "双溪古月福建公会", "Name_ML": null, "Name_EN": "Hokkien Association Malim Nawar", "Location": "L.C. 288 Pekan Bharu, 31700 Malim Nawar, Perak.", "Longitude": 101.114238, "Latitude": 4.3491479, "Region": "Perak", "Category": "地缘", "PageNumber": "149" }, "geometry": { "type": "Point", "coordinates": [ 101.1142, 4.3491, 101.1142 ] } },
{ "type": "Feature", "properties": { "Name_CH": "太平仁和公所", "Name_ML": "Persatuan Jin Hoe Taiping", "Name_EN": null, "Location": "114 & 116 (Tingkat 1) Jalan Berek, 34000 Taipinq, Perak", "Longitude": 101.0659685, "Latitude": 4.6029516, "Region": "Perak", "Category": "地缘", "PageNumber": "149" }, "geometry": { "type": "Point", "coordinates": [ 101.066, 4.603, 101.066 ] } },
{ "type": "Feature", "properties": { "Name_CH": "太平会宁会馆", "Name_ML": "Wui Ning Wui Kuan", "Name_EN": null, "Location": "38 Eastern Road, 34000 Taiping, Perak.", "Longitude": 100.7436084, "Latitude": 4.8387967, "Region": "Perak", "Category": "地缘", "PageNumber": "149" }, "geometry": { "type": "Point", "coordinates": [ 100.7436, 4.8388, 100.7436 ] } },
{ "type": "Feature", "properties": { "Name_CH": "太平茶阳会馆", "Name_ML": null, "Name_EN": "Pers The Char Yeong Association Taiping", "Location": "49 Tupai Road, 34000 Taiping, Perak.", "Longitude": 100.7458343, "Latitude": 4.846232, "Region": "Perak", "Category": "地缘", "PageNumber": "149" }, "geometry": { "type": "Point", "coordinates": [ 100.7458, 4.8462, 100.7458 ] } },
{ "type": "Feature", "properties": { "Name_CH": "太平兴安会馆", "Name_ML": "Persatuan Hin Aun Taiping", "Name_EN": "Taiping Hin Aun Association", "Location": "222, Jalan Chung Thye Phin 34000 Taiping, Perak.", "Longitude": 100.7423137, "Latitude": 4.8475503, "Region": "Perak", "Category": "地缘", "PageNumber": "149" }, "geometry": { "type": "Point", "coordinates": [ 100.7423, 4.8476, 100.7423 ] } },
{ "type": "Feature", "properties": { "Name_CH": "太平福建会馆", "Name_ML": "Persatuan Hokkein Taiping", "Name_EN": null, "Location": "290, Jalan Kota, 34000 Taiping, Perak.", "Longitude": 100.735139, "Latitude": 4.848171, "Region": "Perak", "Category": "地缘", "PageNumber": "149" }, "geometry": { "type": "Point", "coordinates": [ 100.7351, 4.8482, 100.7351 ] } },
{ "type": "Feature", "properties": { "Name_CH": "太平福州会馆", "Name_ML": "Persatuan Foo Chow Taiping", "Name_EN": null, "Location": "196-198 Jalan Chung Thye Phin, 34000 Taiping, Perak.", "Longitude": 100.7416669, "Latitude": 4.8487256, "Region": "Perak", "Category": "地缘", "PageNumber": "149" }, "geometry": { "type": "Point", "coordinates": [ 100.7417, 4.8487, 100.7417 ] } },
{ "type": "Feature", "properties": { "Name_CH": "太平广西会馆", "Name_ML": "Persatuan Guangxi Taiping", "Name_EN": "The Taiping Guangxi Association", "Location": "44, Jalan Maharajalela 34000 Taiping, Perak.", "Longitude": 100.7443041, "Latitude": 4.8502245, "Region": "Perak", "Category": "地缘", "PageNumber": "149" }, "geometry": { "type": "Point", "coordinates": [ 100.7443, 4.8502, 100.7443 ] } },
{ "type": "Feature", "properties": { "Name_CH": "太平海南会馆", "Name_ML": "Persatuan Hainan Taiping", "Name_EN": null, "Location": "16-17, Jalan Maharaja Lela, 34000 Taiping, Perak.", "Longitude": 100.7443092, "Latitude": 4.8502289, "Region": "Perak", "Category": "地缘", "PageNumber": "149" }, "geometry": { "type": "Point", "coordinates": [ 100.7443, 4.8502, 100.7443 ] } },
{ "type": "Feature", "properties": { "Name_CH": "太平广东会馆", "Name_ML": "Persatuan Kwang Tung Perak Utara Taiping", "Name_EN": null, "Location": "25 Jalan Tokong, 34000 Taiping, Perak.", "Longitude": 100.7435132, "Latitude": 4.8523116, "Region": "Perak", "Category": "地缘", "PageNumber": "149" }, "geometry": { "type": "Point", "coordinates": [ 100.7435, 4.8523, 100.7435 ] } },
{ "type": "Feature", "properties": { "Name_CH": "下霹雳韩江公会", "Name_ML": "Persatuan Han Kang Hilir Perak", "Name_EN": "Lower Perak Han Kang Association", "Location": "1049, Mahkota Road, 36000 Teluk Intan, Perak.", "Longitude": 101.0213842, "Latitude": 4.026277, "Region": "Perak", "Category": "地缘", "PageNumber": "150" }, "geometry": { "type": "Point", "coordinates": [ 101.0214, 4.0263, 101.0214 ] } },
{ "type": "Feature", "properties": { "Name_CH": "下霹雳惠安公会", "Name_ML": "Persatuan Hwee Ann Hilir Perak", "Name_EN": null, "Location": "69 Jalan Bandar, 36000 Teluk Intan, Perak.", "Longitude": 101.0198779, "Latitude": 4.0268315, "Region": "Perak", "Category": "地缘", "PageNumber": "150" }, "geometry": { "type": "Point", "coordinates": [ 101.0199, 4.0268, 101.0199 ] } },
{ "type": "Feature", "properties": { "Name_CH": "下霹雳客家公会", "Name_ML": "Persatuan Hakka Hilir Perak", "Name_EN": null, "Location": "71, Jalan Bandar 36000 Teluk Intan, Perak.", "Longitude": 101.0199091, "Latitude": 4.0268795, "Region": "Perak", "Category": "地缘", "PageNumber": "150" }, "geometry": { "type": "Point", "coordinates": [ 101.0199, 4.0269, 101.0199 ] } },
{ "type": "Feature", "properties": { "Name_CH": "务边增龙会馆", "Name_ML": null, "Name_EN": "Chang Lung Association Gopeng", "Location": "12, Jalan Sungai Raja, 31600 Gopeng, Perak.", "Longitude": 101.1654029, "Latitude": 4.471721, "Region": "Perak", "Category": "地缘", "PageNumber": "150" }, "geometry": { "type": "Point", "coordinates": [ 101.1654, 4.4717, 101.1654 ] } },
{ "type": "Feature", "properties": { "Name_CH": "务边会宁同乡会", "Name_ML": "Wooi Ling Thong Hian Wui, Gopeng", "Name_EN": null, "Location": "92-94, Jalan Tasik, 31600 Gopeng, Perak.", "Longitude": 101.1667662, "Latitude": 4.4748184, "Region": "Perak", "Category": "地缘", "PageNumber": "150" }, "geometry": { "type": "Point", "coordinates": [ 101.1668, 4.4748, 101.1668 ] } },
{ "type": "Feature", "properties": { "Name_CH": "务边福建公会", "Name_ML": null, "Name_EN": "Hokkien Association Gopeng Perak", "Location": "12 Jalan Sungai Raya, 31600 Gopeng, Perak.", "Longitude": 101.1638279, "Latitude": 4.4763328, "Region": "Perak", "Category": "地缘", "PageNumber": "150" }, "geometry": { "type": "Point", "coordinates": [ 101.1638, 4.4763, 101.1638 ] } },
{ "type": "Feature", "properties": { "Name_CH": "万里望嘉应五属会馆", "Name_ML": "Ka Ying Guild Menglembu", "Name_EN": null, "Location": "23 Tranchell Street, 31450 Menglembu, Perak.", "Longitude": 101.0448547, "Latitude": 4.5651981, "Region": "Perak", "Category": "地缘", "PageNumber": "150" }, "geometry": { "type": "Point", "coordinates": [ 101.0449, 4.5652, 101.0449 ] } },
{ "type": "Feature", "properties": { "Name_CH": "万里望会甯同乡会", "Name_ML": null, "Name_EN": "Wui Leng Benevolent Association", "Location": "259-260 Reqrouping Area, 31450 Menglembu, Perak.", "Longitude": 101.0428931, "Latitude": 4.5746106, "Region": "Perak", "Category": "地缘", "PageNumber": "150" }, "geometry": { "type": "Point", "coordinates": [ 101.0429, 4.5746, 101.0429 ] } },
{ "type": "Feature", "properties": { "Name_CH": "宜力广西会馆", "Name_ML": "Persatuan Kwang Sai Grik Perak", "Name_EN": null, "Location": "89 Jalan Tokong Datuk, 33300 Gerik, Perak.", "Longitude": 101.0842714, "Latitude": 4.5856018, "Region": "Perak", "Category": "地缘", "PageNumber": "150" }, "geometry": { "type": "Point", "coordinates": [ 101.0843, 4.5856, 101.0843 ] } },
{ "type": "Feature", "properties": { "Name_CH": "宜礼福建公会", "Name_ML": null, "Name_EN": "Hokkien Association Grik", "Location": "492 Jalan Tok Merah, 33300 Grik, Perak.", "Longitude": 101.1164452, "Latitude": 5.4167964, "Region": "Perak", "Category": "地缘", "PageNumber": "150" }, "geometry": { "type": "Point", "coordinates": [ 101.1164, 5.4168, 101.1164 ] } },
{ "type": "Feature", "properties": { "Name_CH": "宜力海南会馆", "Name_ML": "Persatuan Hainan Grik", "Name_EN": "Hainan Association Grik", "Location": "79, School Road, 33300 Grik, Perak.", "Longitude": 101.1164452, "Latitude": 5.4167964, "Region": "Perak", "Category": "地缘", "PageNumber": "150" }, "geometry": { "type": "Point", "coordinates": [ 101.1164, 5.4168, 101.1164 ] } },
{ "type": "Feature", "properties": { "Name_CH": "宜力广东会馆", "Name_ML": "Persatuan Kwang Tung Gerik", "Name_EN": "Kwang Tung Association Gerik U. Perak", "Location": "280, Jalan Kuala Kendrong 33300 Gerik, Perak.", "Longitude": 101.130244, "Latitude": 5.425578, "Region": "Perak", "Category": "地缘", "PageNumber": "150" }, "geometry": { "type": "Point", "coordinates": [ 101.1302, 5.4256, 101.1302 ] } },
{ "type": "Feature", "properties": { "Name_CH": "珠宝广西会馆", "Name_ML": "Persatuan Kaum Keturunan Kwangsi Chemor, Perak", "Name_EN": null, "Location": "44, Jalan Awan, 31000 Chemor, Perak", "Longitude": 101.0372376, "Latitude": 4.4277831, "Region": "Perak", "Category": "地缘", "PageNumber": "151" }, "geometry": { "type": "Point", "coordinates": [ 101.0372, 4.4278, 101.0372 ] } },
{ "type": "Feature", "properties": { "Name_CH": "珠宝福建公会", "Name_ML": "Persatuan Hock Kean Chemor", "Name_EN": null, "Location": "208 Jalan Jelapang, 31200 Chemor, Perak.", "Longitude": 101.0894263, "Latitude": 4.705508, "Region": "Perak", "Category": "地缘", "PageNumber": "151" }, "geometry": { "type": "Point", "coordinates": [ 101.0894, 4.7055, 101.0894 ] } },
{ "type": "Feature", "properties": { "Name_CH": "玲珑广东会馆", "Name_ML": "Persatuan Kwong Tung Lenggong", "Name_EN": null, "Location": "44, Main Road, 33400 Lenggong, Perak", "Longitude": 101.0033112, "Latitude": 5.0696246, "Region": "Perak", "Category": "地缘", "PageNumber": "151" }, "geometry": { "type": "Point", "coordinates": [ 101.0033, 5.0696, 101.0033 ] } }
]
}
