{
"type": "FeatureCollection",
"name": "Category_8",
"crs": { "type": "name", "properties": { "name": "urn:ogc:def:crs:OGC:1.3:CRS84" } },
"features": [
{ "type": "Feature", "properties": { "Name_CH": "爱大华真空教南华山道堂", "Name_ML": "Persatuan Meninggikan Akhlak Nam Hua Sun Toh Tong", "Name_EN": null, "Location": "133 Jalan Api Kong, 32400 Ayer Tawac Perak.", "Region": "Perak", "Category": "宗教", "PageNumber": 165, "Country": "Malaysia", "latitude": 4.3005477, "longitude": 100.7498899 }, "geometry": { "type": "Point", "coordinates": [ 100.7498899, 4.3005477 ] } },
{ "type": "Feature", "properties": { "Name_CH": "安顺德教会紫蓬阁", "Name_ML": null, "Name_EN": "Che Phong Khor Moral Uplifting Society", "Location": "792, Jalan Bandar, 36000 Teluk Intak, Perak.", "Region": "Perak", "Category": "宗教", "PageNumber": 165, "Country": "Malaysia", "latitude": 4.0294982, "longitude": 101.0216153 }, "geometry": { "type": "Point", "coordinates": [ 101.0216153, 4.0294982 ] } },
{ "type": "Feature", "properties": { "Name_CH": "安顺德教会紫麟阁", "Name_ML": "Persatuan Pendidikan Moral Che Ling Khor", "Name_EN": null, "Location": "10, Lorong 1, Taman Laksamana, 36000 Teluk Intan, Perak.", "Region": "Perak", "Category": "宗教", "PageNumber": 165, "Country": "Malaysia", "latitude": 4.0147328, "longitude": 101.0304956 }, "geometry": { "type": "Point", "coordinates": [ 101.0304956, 4.0147328 ] } },
{ "type": "Feature", "properties": { "Name_CH": "巴里文打德教会华善社振华阁", "Name_ML": "Persatuan Amal Chin Hua Kok", "Name_EN": null, "Location": "598, Jalan Abdul Raof, 34200 Parit Buntar, Perak", "Region": "Perak", "Category": "宗教", "PageNumber": 166, "Country": "Malaysia", "latitude": 5.12678, "longitude": 100.4924035 }, "geometry": { "type": "Point", "coordinates": [ 100.4924035, 5.12678 ] } },
{ "type": "Feature", "properties": { "Name_CH": "巴里文打德教会振振阁", "Name_ML": "Persatuan Amal Chin Boon Kok Parit Buntar", "Name_EN": null, "Location": "164 Jalan Dennistown, Parit Buntar, 34200 Kerian, Perak.", "Region": "Perak", "Category": "宗教", "PageNumber": 166, "Country": "Malaysia", "latitude": 5.1266959, "longitude": 100.4961173 }, "geometry": { "type": "Point", "coordinates": [ 100.4961173, 5.1266959 ] } },
{ "type": "Feature", "properties": { "Name_CH": "巴占德教会振明阁", "Name_ML": "Pertubuhan Mempertinggi Akhlak Chan Meng Khor", "Name_EN": null, "Location": "Lot No.10037 Lorong 1, Kg. Bercham, 31400 Ipoh, Perak.", "Region": "Perak", "Category": "宗教", "PageNumber": 166, "Country": "Malaysia", "latitude": 4.7755495, "longitude": 100.8403548 }, "geometry": { "type": "Point", "coordinates": [ 100.8403548, 4.7755495 ] } },
{ "type": "Feature", "properties": { "Name_CH": "邦咯慈善社振亮阁", "Name_ML": "Persatuan Amal Chia Liang Kok Pangkor", "Name_EN": "Chia Kok Charitable Society Pangkor", "Location": "176, S.P. Besar Pangkor, 32300 Manjong, Perak.", "Region": "Perak", "Category": "宗教", "PageNumber": 166, "Country": "Malaysia", "latitude": 4.2172208, "longitude": 100.5758005 }, "geometry": { "type": "Point", "coordinates": [ 100.5758005, 4.2172208 ] } },
{ "type": "Feature", "properties": { "Name_CH": "班台德教会振台阁", "Name_ML": null, "Name_EN": "Chin Tai Kok Moral Uplifting Society", "Location": "24, Jalan Pangkalan Bahru, 34900 Pantai Remis, Perak.", "Region": "Perak", "Category": "宗教", "PageNumber": 166, "Country": "Malaysia", "latitude": 4.460163, "longitude": 100.6305093 }, "geometry": { "type": "Point", "coordinates": [ 100.6305093, 4.460163 ] } },
{ "type": "Feature", "properties": { "Name_CH": "安顺斗母宫", "Name_ML": "Persatuan Penganut-Penganut Two Boo Keong", "Name_EN": null, "Location": "122, Jalan Wah Keng Jooi, 36000 Teluk Intan, Perak", "Region": "Perak", "Category": "宗教", "PageNumber": 166, "Country": "Malaysia", "latitude": 4.0260828, "longitude": 101.0158729 }, "geometry": { "type": "Point", "coordinates": [ 101.0158729, 4.0260828 ] } },
{ "type": "Feature", "properties": { "Name_CH": "安顺福顺宫", "Name_ML": "Tokong Hock Soon Keong Teluk Intan", "Name_EN": "Hock Soon Keong Temple Teluk Intan", "Location": "122 Jalan Wah Kheng Jooi, 36000 Teluk Intan, Perak.", "Region": "Perak", "Category": "宗教", "PageNumber": 166, "Country": "Malaysia", "latitude": 4.025558, "longitude": 101.018283 }, "geometry": { "type": "Point", "coordinates": [ 101.018283, 4.025558 ] } },
{ "type": "Feature", "properties": { "Name_CH": "安顺善德严", "Name_ML": "Tokong Sheh Tek Yuan Teluk Intan", "Name_EN": "Shen Tek Yuan Temple", "Location": "486, Pekan Baru, Teluk Inten, 36000, Perak.", "Region": "Perak", "Category": "宗教", "PageNumber": 166, "Country": "Malaysia", "latitude": 3.974301, "longitude": 101.048549 }, "geometry": { "type": "Point", "coordinates": [ 101.048549, 3.974301 ] } },
{ "type": "Feature", "properties": { "Name_CH": "安顺圣峰宫", "Name_ML": "Persatuan Penganut Dewa Hean Thian Seong Tey", "Name_EN": null, "Location": "829-C Jalan Mat Intan, 36000 Teluk Intan, Perak.", "Region": "Perak", "Category": "宗教", "PageNumber": 166, "Country": "Malaysia", "latitude": 3.9743008, "longitude": 101.048549 }, "geometry": { "type": "Point", "coordinates": [ 101.048549, 3.9743008 ] } },
{ "type": "Feature", "properties": { "Name_CH": "霸罗古庙", "Name_ML": "Paloh Koo Miao", "Name_EN": "Ipoh Chinese Tai Pak Koong Temple", "Location": "91, Jalan Treacher, 30000 Ipoh, Perak.", "Region": "Perak", "Category": "宗教", "PageNumber": 166, "Country": "Malaysia", "latitude": 4.5913364, "longitude": 101.0775906 }, "geometry": { "type": "Point", "coordinates": [ 101.0775906, 4.5913364 ] } },
{ "type": "Feature", "properties": { "Name_CH": "坝罗古庙(大伯公庙)", "Name_ML": "Paloh Khoo Miu (Ipoh Chinese Tai Pak Koong Temple)", "Name_EN": null, "Location": "89-91 Jalan Bijik Timah, 30000 Ipoh, Perak.", "Region": "Perak", "Category": "宗教", "PageNumber": 166, "Country": "Malaysia", "latitude": 4.5931879, "longitude": 101.0780668 }, "geometry": { "type": "Point", "coordinates": [ 101.0780668, 4.5931879 ] } },
{ "type": "Feature", "properties": { "Name_CH": "巴占福德祠", "Name_ML": "Persatuan Fook Tuck Tzee Ipoh", "Name_EN": "Bercham Fook Tuck Tzee Ipoh", "Location": "802 Kampong Bercham, 31400 Ipoh, Perak.", "Region": "Perak", "Category": "宗教", "PageNumber": 166, "Country": "Malaysia", "latitude": 4.6365383, "longitude": 101.1278888 }, "geometry": { "type": "Point", "coordinates": [ 101.1278888, 4.6365383 ] } },
{ "type": "Feature", "properties": { "Name_CH": "慈善社振安阁", "Name_ML": "Chia Aun Kok Charity Society", "Name_EN": null, "Location": "289 Main Road, 34250 Tanjong Piandang, Perak.", "Region": "Perak", "Category": "宗教", "PageNumber": 167, "Country": "Malaysia", "latitude": 5.0696776, "longitude": 100.383479 }, "geometry": { "type": "Point", "coordinates": [ 100.383479, 5.0696776 ] } },
{ "type": "Feature", "properties": { "Name_CH": "瓜拉古楼振义阁", "Name_ML": null, "Name_EN": "Chin Chee Kok Charity Uplifting Society Kuala Kurau", "Location": "Batu 61\/2, Jalan Siokp, Kg. Tok Adam, 34350 Kuala Kurau, Perak.", "Region": "Perak", "Category": "宗教", "PageNumber": 167, "Country": "Malaysia", "latitude": 5.023277, "longitude": 100.405592 }, "geometry": { "type": "Point", "coordinates": [ 100.405592, 5.023277 ] } },
{ "type": "Feature", "properties": { "Name_CH": "瓜拉古楼导善社振德阁", "Name_ML": "Persatuan Menggalakkan Chariti Chin Teck Kok Kuala Kurau", "Name_EN": "Chin Teck Kok Uplifting Society", "Location": "537, Jalan Pantai, 34350 Kuala Kurau, Perak.", "Region": "Perak", "Category": "宗教", "PageNumber": 167, "Country": "Malaysia", "latitude": 5.0069594, "longitude": 100.4234581 }, "geometry": { "type": "Point", "coordinates": [ 100.4234581, 5.0069594 ] } },
{ "type": "Feature", "properties": { "Name_CH": "瓜拉牛拉德教会紫民阁", "Name_ML": null, "Name_EN": "Chee Beng Kok Moral Uplifting Society", "Location": "89A, Kuala Gula, 34350 Krian District Perak.", "Region": "Perak", "Category": "宗教", "PageNumber": 167, "Country": "Malaysia", "latitude": 4.9338635, "longitude": 100.4665284 }, "geometry": { "type": "Point", "coordinates": [ 100.4665284, 4.9338635 ] } },
{ "type": "Feature", "properties": { "Name_CH": "邦咯广东会馆", "Name_ML": "Persatuan Kwang Tung Pangkar", "Name_EN": "Pangkor Kwang Tung Association Perak", "Location": "541 Sungei Pinang Kecil 32300 Pangkor, Perak.", "Region": "Perak", "Category": "宗教", "PageNumber": 167, "Country": "Malaysia", "latitude": 4.225557, "longitude": 100.572438 }, "geometry": { "type": "Point", "coordinates": [ 100.572438, 4.225557 ] } },
{ "type": "Feature", "properties": { "Name_CH": "慈心庙", "Name_ML": "Jawatan Pengurusan Cher Sim Beow", "Name_EN": "Cher Sim Beow Management Committee", "Location": "20-B4, Jalan Kg. Perak Baru, 34500 Batu Kurau, Perak.", "Region": "Perak", "Category": "宗教", "PageNumber": 167, "Country": "Malaysia", "latitude": 4.974388, "longitude": 100.7984249 }, "geometry": { "type": "Point", "coordinates": [ 100.7984249, 4.974388 ] } },
{ "type": "Feature", "properties": { "Name_CH": "大仙堂", "Name_ML": "Tokong Tai Sin Tong", "Name_EN": null, "Location": "Kawasan Perindustrian Kuala Kangsar, 33000 Kuala Kangsar, Perak.", "Region": "Perak", "Category": "宗教", "PageNumber": 167, "Country": "Malaysia", "latitude": 4.772697, "longitude": 100.9403071 }, "geometry": { "type": "Point", "coordinates": [ 100.9403071, 4.772697 ] } },
{ "type": "Feature", "properties": { "Name_CH": "和平精社", "Name_ML": "Persatuan Meninggikan Akhlak Who Peng Cheang Seah Kinta", "Name_EN": null, "Location": "2 A, Jalan Taiping Lim Garden, 30100 Ipoh, Perak.", "Region": "Perak", "Category": "宗教", "PageNumber": 167, "Country": "Malaysia", "latitude": 4.6084757, "longitude": 101.0671812 }, "geometry": { "type": "Point", "coordinates": [ 101.0671812, 4.6084757 ] } },
{ "type": "Feature", "properties": { "Name_CH": "保善堂", "Name_ML": "Jawatankuasa Pentadbir Poh Seen Thong, Perak", "Name_EN": null, "Location": "23 & 21 Jalan Haji Eusoff Housing Trust, 30250 Ipoh, Perak.", "Region": "Perak", "Category": "宗教", "PageNumber": 167, "Country": "Malaysia", "latitude": 4.5827311, "longitude": 101.0914085 }, "geometry": { "type": "Point", "coordinates": [ 101.0914085, 4.5827311 ] } },
{ "type": "Feature", "properties": { "Name_CH": "观音信徒会", "Name_ML": "Persatuan Penganut Agama Tao Guan Yin", "Name_EN": null, "Location": "Pesara Bercham Timur 11, Tepi Gunung Bercham, Taman Ramai, 31400 Ipoh, Perak.", "Region": "Perak", "Category": "宗教", "PageNumber": 167, "Country": "Malaysia", "latitude": 4.6437481, "longitude": 101.1333827 }, "geometry": { "type": "Point", "coordinates": [ 101.1333827, 4.6437481 ] } },
{ "type": "Feature", "properties": { "Name_CH": "瓜拉美金那督公里事会", "Name_ML": "Persatuan Penganut Dewa La Tok Kong Kuala Bikam, Bidor, Perak", "Name_EN": null, "Location": "K-5, Kg. Kuala Bikam, 35500 Bidor, Perak.", "Region": "Perak", "Category": "宗教", "PageNumber": 167, "Country": "Malaysia", "latitude": 4.0225851, "longitude": 101.2423731 }, "geometry": { "type": "Point", "coordinates": [ 101.2423731, 4.0225851 ] } },
{ "type": "Feature", "properties": { "Name_CH": "丹绒马林德教会紫丹阁", "Name_ML": "Persatuan Menperbaiki Akhlak Che Tan Khor Tanjong Malim Perak", "Name_EN": null, "Location": "4 Jalan Bernam 9\/4, Taman Bernam Baru, 35900 Tanjong Malim, Perak.", "Region": "Perak", "Category": "宗教", "PageNumber": 167, "Country": "Malaysia", "latitude": 3.6934912, "longitude": 101.5333621 }, "geometry": { "type": "Point", "coordinates": [ 101.5333621, 3.6934912 ] } },
{ "type": "Feature", "properties": { "Name_CH": "角头振云阁", "Name_ML": "Persatuan Amal Chin Hoon Kor Tanjung Pidang Krian", "Name_EN": null, "Location": "24,26,28,30, Jalan Piandang Indah, 34250 Tanjung Piandang, Perak.", "Region": "Perak", "Category": "宗教", "PageNumber": 168, "Country": "Malaysia", "latitude": 5.0699415, "longitude": 100.3853158 }, "geometry": { "type": "Point", "coordinates": [ 100.3853158, 5.0699415 ] } },
{ "type": "Feature", "properties": { "Name_CH": "江沙昭惠庙理事会", "Name_ML": "Tokong Cina Chiau Hooi Beo", "Name_EN": "Chiau Hooi Beo Chinese Temple", "Location": "38, Jalan Taiping, Talang, 33000 Kuala Kangsar, Perak.", "Region": "Perak", "Category": "宗教", "PageNumber": 168, "Country": "Malaysia", "latitude": 4.7723751, "longitude": 100.9240596 }, "geometry": { "type": "Point", "coordinates": [ 100.9240596, 4.7723751 ] } },
{ "type": "Feature", "properties": { "Name_CH": "江沙打浪晋安宫", "Name_ML": "Tokong Cheng Aun Keong", "Name_EN": null, "Location": "Lot No. 7108, 33000 Talang Kuala Kangsar, Perak.", "Region": "Perak", "Category": "宗教", "PageNumber": 168, "Country": "Malaysia", "latitude": 4.7735275, "longitude": 100.9218001 }, "geometry": { "type": "Point", "coordinates": [ 100.9218001, 4.7735275 ] } },
{ "type": "Feature", "properties": { "Name_CH": "江沙樱花园盂兰胜会", "Name_ML": "Pertubuhan Perayaan Yu Lan Sheng Hui Taman Indah Kuala Kangsar, Perak", "Name_EN": null, "Location": "15, Taman Indah Talang Jalan Taiping, 33000 Kuala Kangsar, Perak.", "Region": "Perak", "Category": "宗教", "PageNumber": 168, "Country": "Malaysia", "latitude": 4.7723778, "longitude": 100.9218097 }, "geometry": { "type": "Point", "coordinates": [ 100.9218097, 4.7723778 ] } },
{ "type": "Feature", "properties": { "Name_CH": "江沙德教会紫江阁", "Name_ML": "Persatuan Meninggikan Akhlak Che Chian Khor", "Name_EN": "Che Chian Khor Moral Uplifting Society", "Location": "36, Taman Kenas, Jalan Kenas, 33000 Kuala Kangsan Perak.", "Region": "Perak", "Category": "宗教", "PageNumber": 168, "Country": "Malaysia", "latitude": 4.759213, "longitude": 100.92654 }, "geometry": { "type": "Point", "coordinates": [ 100.92654, 4.759213 ] } },
{ "type": "Feature", "properties": { "Name_CH": "江沙佛学会", "Name_ML": "Pertubuhan Buddhist Kuala Kangsar", "Name_EN": null, "Location": "36, Jalan Sultan Iskandar Shah, 33000 Kuala Kangsar, Perak", "Region": "Perak", "Category": "宗教", "PageNumber": 168, "Country": "Malaysia", "latitude": 4.7655689, "longitude": 100.9306472 }, "geometry": { "type": "Point", "coordinates": [ 100.9306472, 4.7655689 ] } },
{ "type": "Feature", "properties": { "Name_CH": "江沙玄天宫", "Name_ML": "Persatuan Penganut Dewa Hean Then Kong", "Name_EN": null, "Location": "62-A, Kampung Station, 33000 Kuala Kangsar, Perak.", "Region": "Perak", "Category": "宗教", "PageNumber": 168, "Country": "Malaysia", "latitude": 4.777067, "longitude": 100.93216 }, "geometry": { "type": "Point", "coordinates": [ 100.93216, 4.777067 ] } },
{ "type": "Feature", "properties": { "Name_CH": "江沙两广义冢委员会", "Name_ML": "Kwangtung And Kwangsai Burial Ground, Kuala Kangsar", "Name_EN": null, "Location": "59, Jalan Kangsar, 33000 Kuala Kangsar, Perak.", "Region": "Perak", "Category": "宗教", "PageNumber": 168, "Country": "Malaysia", "latitude": 4.770057, "longitude": 100.940922 }, "geometry": { "type": "Point", "coordinates": [ 100.940922, 4.770057 ] } },
{ "type": "Feature", "properties": { "Name_CH": "江沙净宗学会", "Name_ML": "Persatuan Penganut Agama Buddha Amitabha Kuala Kangsar", "Name_EN": "Amitabha Buddhist Society Kuala Kangsar", "Location": "38 Tingkat 2, Jalan Daeng Selili, 33000 Kuala Kangsar, Perak", "Region": "Perak", "Category": "宗教", "PageNumber": 168, "Country": "Malaysia", "latitude": 4.7768291, "longitude": 100.9421803 }, "geometry": { "type": "Point", "coordinates": [ 100.9421803, 4.7768291 ] } },
{ "type": "Feature", "properties": { "Name_CH": "江沙东天宫", "Name_ML": "Dong Tian Dai Sheng", "Name_EN": null, "Location": "9-4A,Bangunan Tai Seng,Jalan Kalong,off Jalan Sungai Best 55200 Kuala Lumpur. 4388 Kampong Stesyen, 33000 Kuala Kangsar,Perak", "Region": "Perak", "Category": "宗教", "PageNumber": 168, "Country": "Malaysia", "latitude": 4.7796792, "longitude": 100.9349933 }, "geometry": { "type": "Point", "coordinates": [ 100.9349933, 4.7796792 ] } },
{ "type": "Feature", "properties": { "Name_CH": "悟禅德教会紫缘阁", "Name_ML": "Persatuan Pendidikan Moral Ngoh Siam Chee Wan Khor", "Name_EN": null, "Location": "Lot 111723, Persiaran Kelabang Selatan 8, Taman Bertuah, 31200 Chemor, Perak.", "Region": "Perak", "Category": "宗教", "PageNumber": 168, "Country": "Malaysia", "latitude": 4.6628885, "longitude": 101.1049082 }, "geometry": { "type": "Point", "coordinates": [ 101.1049082, 4.6628885 ] } },
{ "type": "Feature", "properties": { "Name_CH": "红毛丹徳教会振光阁", "Name_ML": "Persatuan Meninggikan Akhlak Chan Kong Kok", "Name_EN": "Chan Kong Kok Moral Uplifting Society Tg. Rambutan", "Location": "81 Perkampungan BT 8, 31150 Ulu Kinta, Perak.", "Region": "Perak", "Category": "宗教", "PageNumber": 168, "Country": "Malaysia", "latitude": 4.6413935, "longitude": 101.1532421 }, "geometry": { "type": "Point", "coordinates": [ 101.1532421, 4.6413935 ] } },
{ "type": "Feature", "properties": { "Name_CH": "霹雳瓜拉古楼德教会振恩阁", "Name_ML": "Persatuan Pendidikan Akhlak Chin Onn Kok", "Name_EN": null, "Location": "468, Jalan Aman, Off Jalan Pantai Taman Pantai, 34350 Kuala Kurau, Perak.", "Region": "Perak", "Category": "宗教", "PageNumber": 169, "Country": "Malaysia", "latitude": 5.033603, "longitude": 100.4002041 }, "geometry": { "type": "Point", "coordinates": [ 100.4002041, 5.033603 ] } },
{ "type": "Feature", "properties": { "Name_CH": "聚仙庙阴阳仙师", "Name_ML": "Persatuan Penganut Dewa Shee Hong", "Name_EN": "Chee Sean Thang", "Location": "D-28 Kampung Jaya, 33700 Padang Rengas, Kuala Kangsar, Perak.", "Region": "Perak", "Category": "宗教", "PageNumber": 169, "Country": "Malaysia", "latitude": 4.7961982, "longitude": 100.8564355 }, "geometry": { "type": "Point", "coordinates": [ 100.8564355, 4.7961982 ] } },
{ "type": "Feature", "properties": { "Name_CH": "利民加地佛教会", "Name_ML": "Persatuan Buddha Liman Kati", "Name_EN": "Liman Kati Buddhist Society", "Location": "211, Liman Kati, 33020 Kuala Kangsar, Perak", "Region": "Perak", "Category": "宗教", "PageNumber": 169, "Country": "Malaysia", "latitude": 4.8517844, "longitude": 100.9042951 }, "geometry": { "type": "Point", "coordinates": [ 100.9042951, 4.8517844 ] } },
{ "type": "Feature", "properties": { "Name_CH": "南天宫", "Name_ML": "Nam Thian Keong", "Name_EN": null, "Location": "19, Lorong Tembaga 5, Jalan Maharajalela, Taman Sri Emas, 36000 Teluk Intan, Perak.", "Region": "Perak", "Category": "宗教", "PageNumber": 169, "Country": "Malaysia", "latitude": 3.99852, "longitude": 101.008547 }, "geometry": { "type": "Point", "coordinates": [ 101.008547, 3.99852 ] } },
{ "type": "Feature", "properties": { "Name_CH": "霹雳乐善社功德堂", "Name_ML": "Pertubuahan Meningkat Akhlak Lok Sin Seah Perak", "Name_EN": "Perak Lok Sin Seah Moral Uplifting Society", "Location": "2, Laluan Saujana 1, Taman Saujana, 31000 Batu Gajah, Perak.", "Region": "Perak", "Category": "宗教", "PageNumber": 169, "Country": "Malaysia", "latitude": 4.4910247, "longitude": 101.0253177 }, "geometry": { "type": "Point", "coordinates": [ 101.0253177, 4.4910247 ] } },
{ "type": "Feature", "properties": { "Name_CH": "霹雳济德阁", "Name_ML": "Perak Chee Tek Kok", "Name_EN": null, "Location": "540, Jalan Pasir Puteh, 31650 Ipoh, Perak.", "Region": "Perak", "Category": "宗教", "PageNumber": 169, "Country": "Malaysia", "latitude": 4.5742938, "longitude": 101.0811209 }, "geometry": { "type": "Point", "coordinates": [ 101.0811209, 4.5742938 ] } },
{ "type": "Feature", "properties": { "Name_CH": "霹雳德教会紫明阁", "Name_ML": "Persatuan Pendidikan Akhlak Perak Che Meng Khor", "Name_EN": "Perak Che Meng Khor Moral Uplifting Society", "Location": "215, Jalan Kampar, 30250 Ipoh, Perak.", "Region": "Perak", "Category": "宗教", "PageNumber": 169, "Country": "Malaysia", "latitude": 4.5878891, "longitude": 101.0840266 }, "geometry": { "type": "Point", "coordinates": [ 101.0840266, 4.5878891 ] } },
{ "type": "Feature", "properties": { "Name_CH": "霹雳佛教联谊会", "Name_ML": "Organisasi Ugama Buddha Negeri Perak", "Name_EN": "Union Of Buddhist Organisations And Friends Of Buddhist Perak", "Location": "219-A, Jalan Kampar, 30250 Ipoh, Perak", "Region": "Perak", "Category": "宗教", "PageNumber": 169, "Country": "Malaysia", "latitude": 4.5878891, "longitude": 101.0840266 }, "geometry": { "type": "Point", "coordinates": [ 101.0840266, 4.5878891 ] } },
{ "type": "Feature", "properties": { "Name_CH": "霹雳近打佛教会", "Name_ML": "Persatuan Penganut Agama Buddha Kinta", "Name_EN": "Kinta Buddhist Society, Kampar.", "Location": "10, Jalan 10, New Wah Loong, 31900 Kampar, Perak.", "Region": "Perak", "Category": "宗教", "PageNumber": 169, "Country": "Malaysia", "latitude": 4.3100664, "longitude": 101.1493384 }, "geometry": { "type": "Point", "coordinates": [ 101.1493384, 4.3100664 ] } },
{ "type": "Feature", "properties": { "Name_CH": "金宝德教会振辰阁", "Name_ML": "Pertubuhan Pemulihan Akhlak Chin Shan Khor, Kampar", "Name_EN": "Chin Shan Khor Moral Uplifting Society", "Location": "50 Jalan Ampang, 31900 Kampar, Perak.", "Region": "Perak", "Category": "宗教", "PageNumber": 169, "Country": "Malaysia", "latitude": 4.3142515, "longitude": 101.154604 }, "geometry": { "type": "Point", "coordinates": [ 101.154604, 4.3142515 ] } },
{ "type": "Feature", "properties": { "Name_CH": "美罗太上老君庙暨华人义冢理事会", "Name_ML": "Jawatankuasa Pengurus Rumah Berhala Thai Seong Loew Kuan Dan Tanah Perkubuhan Orang-Orang China, Bidor", "Name_EN": null, "Location": "Jalan Bruseh, 35500 Bidor, Perak.", "Region": "Perak", "Category": "宗教", "PageNumber": 169, "Country": "Malaysia", "latitude": 4.1051405, "longitude": 101.2959787 }, "geometry": { "type": "Point", "coordinates": [ 101.2959787, 4.1051405 ] } },
{ "type": "Feature", "properties": { "Name_CH": "美罗德教会振道阁", "Name_ML": "Persatuan Meninggikan Akhlak Chan Tao Khor", "Name_EN": "Chan Tao Khor Moral Uplifting Society Bidor", "Location": "10, Persiaran 1, Taman Batang Padang, 35500 Bidor, Perak.", "Region": "Perak", "Category": "宗教", "PageNumber": 169, "Country": "Malaysia", "latitude": 4.1055341, "longitude": 101.2959801 }, "geometry": { "type": "Point", "coordinates": [ 101.2959801, 4.1055341 ] } },
{ "type": "Feature", "properties": { "Name_CH": "天定州德教会紫邦阁", "Name_ML": null, "Name_EN": "Dinding Chee Pang Khor Moral Uplifting Society", "Location": "Ferry Station Road, 32300 Pangkor, Perak.", "Region": "Perak", "Category": "宗教", "PageNumber": 170, "Country": "Malaysia", "latitude": 4.2126485, "longitude": 100.6023089 }, "geometry": { "type": "Point", "coordinates": [ 100.6023089, 4.2126485 ] } },
{ "type": "Feature", "properties": { "Name_CH": "霹雳实兆远德教会振兴阁", "Name_ML": "Persatuan Amal Chin Heng Kok Sitiawan", "Name_EN": "Chin Heng Khor Moral Uplifting Society", "Location": "Batu 1, Jalan Lumut, 32000 Setiawan, Perak.", "Region": "Perak", "Category": "宗教", "PageNumber": 170, "Country": "Malaysia", "latitude": 4.2126545, "longitude": 100.6838037 }, "geometry": { "type": "Point", "coordinates": [ 100.6838037, 4.2126545 ] } },
{ "type": "Feature", "properties": { "Name_CH": "霹雳州实兆远佛教会", "Name_ML": "Persatuan Buddhist Sitiawan", "Name_EN": "Buddhist Association Sitiawan", "Location": "56A - 57 Behind Taman Setia, Jalan Raja Omar, 32000 Setiawan, Perak.", "Region": "Perak", "Category": "宗教", "PageNumber": 170, "Country": "Malaysia", "latitude": 4.212302, "longitude": 100.6955395 }, "geometry": { "type": "Point", "coordinates": [ 100.6955395, 4.212302 ] } },
{ "type": "Feature", "properties": { "Name_CH": "十八丁德徳社济雄阁", "Name_ML": "Teck-Teck Seah Chee Heong Koh", "Name_EN": null, "Location": "22, Jalan Tiga 34650, Kuala Sepatang, Taiping, Perak.", "Region": "Perak", "Category": "宗教", "PageNumber": 170, "Country": "Malaysia", "latitude": 4.8250782, "longitude": 100.7311465 }, "geometry": { "type": "Point", "coordinates": [ 100.7311465, 4.8250782 ] } },
{ "type": "Feature", "properties": { "Name_CH": "太平德教会紫平阁", "Name_ML": "Persatuan Mempertinggi Akhlak Che Peng Khor Taiping", "Name_EN": null, "Location": "Lot 7328, Jalan Mata Kucing, Kampung Jambu, 34000 Taiping, Perak.", "Region": "Perak", "Category": "宗教", "PageNumber": 170, "Country": "Malaysia", "latitude": 4.848369, "longitude": 100.7398664 }, "geometry": { "type": "Point", "coordinates": [ 100.7398664, 4.848369 ] } },
{ "type": "Feature", "properties": { "Name_CH": "太平德德社济诚阁", "Name_ML": "Teck Teck Seah Chee Seng Koh", "Name_EN": null, "Location": "51-53, Jalan Barrack, 34000 Taiping, Perak.", "Region": "Perak", "Category": "宗教", "PageNumber": 170, "Country": "Malaysia", "latitude": 4.8542267, "longitude": 100.7414726 }, "geometry": { "type": "Point", "coordinates": [ 100.7414726, 4.8542267 ] } },
{ "type": "Feature", "properties": { "Name_CH": "新寿活佛教会", "Name_ML": "Persatuan Penganut Agama Buddha Sauk", "Name_EN": null, "Location": "S-10 Kg. Baru Sauk 33500 Sauk, Perak.", "Region": "Perak", "Category": "宗教", "PageNumber": 170, "Country": "Malaysia", "latitude": 4.9346031, "longitude": 100.9229636 }, "geometry": { "type": "Point", "coordinates": [ 100.9229636, 4.9346031 ] } },
{ "type": "Feature", "properties": { "Name_CH": "怡保徳教会振和阁", "Name_ML": "Persatuan Memperbaiki Akhlak Cheng Who Kok", "Name_EN": "Cheng Who Kok Moral Uplifting Society", "Location": "B-46, Kuan Who Yuen, 31650 Ipoh, Perak.", "Region": "Perak", "Category": "宗教", "PageNumber": 170, "Country": "Malaysia", "latitude": 4.5751583, "longitude": 101.0758527 }, "geometry": { "type": "Point", "coordinates": [ 101.0758527, 4.5751583 ] } },
{ "type": "Feature", "properties": { "Name_CH": "霹雳真空道堂", "Name_ML": "Perak Chin Khong Tho Tong", "Name_EN": null, "Location": "K 244, Jalan Pasir Puteh, Lot 139445, Jalan Prince Pasir Pinji, 31650 Ipoh, Perak.", "Region": "Perak", "Category": "宗教", "PageNumber": 170, "Country": "Malaysia", "latitude": 4.5843999, "longitude": 101.0821282 }, "geometry": { "type": "Point", "coordinates": [ 101.0821282, 4.5843999 ] } },
{ "type": "Feature", "properties": { "Name_CH": "万寿宫", "Name_ML": "Pertubuhan Penganut-Penganut Man Satu Khong Ipoh Perak", "Name_EN": null, "Location": "1036 Jalan Sultan Pasir Pinji, 31650 Ipoh, Perak", "Region": "Perak", "Category": "宗教", "PageNumber": 170, "Country": "Malaysia", "latitude": 4.5758069, "longitude": 101.0884861 }, "geometry": { "type": "Point", "coordinates": [ 101.0884861, 4.5758069 ] } },
{ "type": "Feature", "properties": { "Name_CH": "万圣宫理事会", "Name_ML": "Jjawatankuasa Pentadbir Rumah Berhala Man Sin Kung", "Name_EN": null, "Location": "452, Lorong 9, Simpang Pulai, 31300 Ipoh, Perak.", "Region": "Perak", "Category": "宗教", "PageNumber": 170, "Country": "Malaysia", "latitude": 4.528985, "longitude": 101.1292301 }, "geometry": { "type": "Point", "coordinates": [ 101.1292301, 4.528985 ] } },
{ "type": "Feature", "properties": { "Name_CH": "霹雳仕林河天后宫", "Name_ML": "Persatuan Penganut Agama Tao Hainam Sin Ann Hin, Slim River", "Name_EN": null, "Location": "31 Taman Yang Ming 35800 Slim River, Perak", "Region": "Perak", "Category": "宗教", "PageNumber": 170, "Country": "Malaysia", "latitude": 3.8368367, "longitude": 101.3981055 }, "geometry": { "type": "Point", "coordinates": [ 101.3981055, 3.8368367 ] } },
{ "type": "Feature", "properties": { "Name_CH": "元顺宫", "Name_ML": "Tokong Guan Soon Keong", "Name_EN": null, "Location": "1974, Jalan Maharajalela, 36000 Teluk Intan, Perak.", "Region": "Perak", "Category": "宗教", "PageNumber": 171, "Country": "Malaysia", "latitude": 4.0059565, "longitude": 101.013771 }, "geometry": { "type": "Point", "coordinates": [ 101.013771, 4.0059565 ] } },
{ "type": "Feature", "properties": { "Name_CH": "怡保云仙洞紫霄阁", "Name_ML": "Persatuan Memperbaiki Akhlak Hoon Sear Tong Chee Seow Khor", "Name_EN": null, "Location": "Jalan Batu Mamak BT. 2, Jalan Kuala Kangsar, 30010 Ipoh, Perak.", "Region": "Perak", "Category": "宗教", "PageNumber": 171, "Country": "Malaysia", "latitude": 4.6166926, "longitude": 101.0795563 }, "geometry": { "type": "Point", "coordinates": [ 101.0795563, 4.6166926 ] } },
{ "type": "Feature", "properties": { "Name_CH": "怡保斗母宫", "Name_ML": "Tokong Tow Boh Keong", "Name_EN": "Kow Ong Year Temple", "Location": "12 Jalan Tokong, 31650 Ipoh, Perak.", "Region": "Perak", "Category": "宗教", "PageNumber": 171, "Country": "Malaysia", "latitude": 4.5849977, "longitude": 101.0841766 }, "geometry": { "type": "Point", "coordinates": [ 101.0841766, 4.5849977 ] } },
{ "type": "Feature", "properties": { "Name_CH": "怡保缘诚阁", "Name_ML": "Pertubuhan Yuen Seng Yok Ipoh", "Name_EN": null, "Location": "2 Selasar Wah Keong, Taman Wah Keong, 31400 Ipoh, Perak.", "Region": "Perak", "Category": "宗教", "PageNumber": 171, "Country": "Malaysia", "latitude": 4.6235475, "longitude": 101.1101362 }, "geometry": { "type": "Point", "coordinates": [ 101.1101362, 4.6235475 ] } }
]
}
