{
"type": "FeatureCollection",
"name": "Category_3",
"crs": { "type": "name", "properties": { "name": "urn:ogc:def:crs:OGC:1.3:CRS84" } },
"features": [
{ "type": "Feature", "properties": { "Name_CH": "话望生广东会馆", "Name_ML": "Persatuan Kwang Tung Gua Musang", "Name_EN": null, "Location": "143 Tepi Sungai Ketil Gua Musang, 18300 Kelantan. ", "Longitude": 101.893301, "Latitude": 4.896737, "Region": "Kelantan", "Category": "地缘", "PageNumber": "324" }, "geometry": { "type": "Point", "coordinates": [ 101.8933, 4.8967, 101.8933 ] } },
{ "type": "Feature", "properties": { "Name_CH": "吉赖客家公会", "Name_ML": null, "Name_EN": "Hakka Community Association", "Location": "200-201 Jalan Ah Sang, 18000 Kuala Krai, Kelantan. ", "Longitude": 102.200073, "Latitude": 5.53103, "Region": "Kelantan", "Category": "地缘", "PageNumber": "324" }, "geometry": { "type": "Point", "coordinates": [ 102.2001, 5.531, 102.2001 ] } },
{ "type": "Feature", "properties": { "Name_CH": "吉兰丹华人钓鱼公会", "Name_ML": "Persatuan Peminat Memancing Cina (Hua Ren) Kelantan", "Name_EN": null, "Location": "Lot No.337, Kg. Bakat 18500 Machang, Kelantan.", "Longitude": 102.218681, "Latitude": 5.764757, "Region": "Kelantan", "Category": "地缘", "PageNumber": "324" }, "geometry": { "type": "Point", "coordinates": [ 102.2187, 5.7648, 102.2187 ] } },
{ "type": "Feature", "properties": { "Name_CH": "吉兰丹海南会馆", "Name_ML": "Persatuan Hainan Kelantan", "Name_EN": null, "Location": "3930-3931 Jalan Sultanah Zainab, 15050 Kota Bharu, Kelantan.", "Longitude": 102.23643, "Latitude": 6.130135, "Region": "Kelantan", "Category": "地缘", "PageNumber": "324" }, "geometry": { "type": "Point", "coordinates": [ 102.2364, 6.1301, 102.2364 ] } },
{ "type": "Feature", "properties": { "Name_CH": "吉兰丹潮州会馆", "Name_ML": "Persatuan Teo Chew Kelantan", "Name_EN": null, "Location": "6000-6002 Jalan Hamzah, 10150 Kota Bharu, Kelantan. ", "Longitude": 102.238303, "Latitude": 6.116594, "Region": "Kelantan", "Category": "地缘", "PageNumber": "324" }, "geometry": { "type": "Point", "coordinates": [ 102.2383, 6.1166, 102.2383 ] } },
{ "type": "Feature", "properties": { "Name_CH": "吉兰丹广东会馆 ", "Name_ML": "Persatuan Kwang Tung Kelantan ", "Name_EN": "Kelantan Kwang lung Association", "Location": "A-2, Jalan Pasar Lama, 15000 Kota Bharu, Kelantan. ", "Longitude": 102.234485, "Latitude": 6.131214, "Region": "Kelantan", "Category": "地缘", "PageNumber": "324" }, "geometry": { "type": "Point", "coordinates": [ 102.2345, 6.1312, 102.2345 ] } },
{ "type": "Feature", "properties": { "Name_CH": "吉兰丹福建会馆", "Name_ML": "Persatuan Hokkien Kelantan (Hokkien Hoay Kuan Kelantan )", "Name_EN": null, "Location": "5444 A & B， Tingkat 4, Jalan Sultanah Zainab, 15000 Kota Bharu, Kelantan. ", "Longitude": 102.236835, "Latitude": 6.132507, "Region": "Kelantan", "Category": "地缘", "PageNumber": "324" }, "geometry": { "type": "Point", "coordinates": [ 102.2368, 6.1325, 102.2368 ] } },
{ "type": "Feature", "properties": { "Name_CH": "哥打峇鲁客家公会", "Name_ML": "Persatuan Hakka Kota Bharu Kelantan", "Name_EN": null, "Location": "3512-F, Tingkat 2, Jalan Sultanah Zainab, Kg. Sireh, 15050 Kota Bharu, Kelantan. ", "Longitude": 102.236849, "Latitude": 6.132928, "Region": "Kelantan", "Category": "地缘", "PageNumber": "324" }, "geometry": { "type": "Point", "coordinates": [ 102.2368, 6.1329, 102.2368 ] } },
{ "type": "Feature", "properties": { "Name_CH": "吉兰丹南安会馆", "Name_ML": "Persatuan Lam Ann Kelantan", "Name_EN": null, "Location": "Section 9, Lot 699, Tingkat 3, Jalan Tok Hakim, 15000 Kota Bharu, Kelantan. ", "Longitude": 102.234569, "Latitude": 6.129642, "Region": "Kelantan", "Category": "地缘", "PageNumber": "325" }, "geometry": { "type": "Point", "coordinates": [ 102.2346, 6.1296, 102.2346 ] } },
{ "type": "Feature", "properties": { "Name_CH": "吉兰丹土生华裔协会 ", "Name_ML": " Persatuan Peranakan Cina Kelantan Dewan Orang Ramai Wat Pracaciparam", "Name_EN": null, "Location": "Kg. Kulim, 16250 Wakaf Bharu, Kelantan.", "Longitude": 102.193489, "Latitude": 6.112823, "Region": "Kelantan", "Category": "地缘", "PageNumber": "325" }, "geometry": { "type": "Point", "coordinates": [ 102.1935, 6.1128, 102.1935 ] } },
{ "type": "Feature", "properties": { "Name_CH": "吉兰丹兴安会馆 ", "Name_ML": "Persatuan Shing Ann Kelantan ", "Name_EN": "Kelantan Shing Ann Association", "Location": "2583 Jalan Suara Muda, 15000 Kota Bharu, Kelantan.", "Longitude": 102.23917, "Latitude": 6.127203, "Region": "Kelantan", "Category": "地缘", "PageNumber": "325" }, "geometry": { "type": "Point", "coordinates": [ 102.2392, 6.1272, 102.2392 ] } },
{ "type": "Feature", "properties": { "Name_CH": "永春会馆 ", "Name_ML": "Persatuan Eng Choon Kelantan ", "Name_EN": "Kelantan Eng Choon Hoey Kuan", "Location": "Eng Choon Huey Kuan, 2818-G, Tingkat 3, Jalan Che Su, 15000 Kota Bharu, Kelantan. ", "Longitude": 102.240434, "Latitude": 6.128382, "Region": "Kelantan", "Category": "地缘", "PageNumber": "325" }, "geometry": { "type": "Point", "coordinates": [ 102.2404, 6.1284, 102.2404 ] } },
{ "type": "Feature", "properties": { "Name_CH": "吉兰丹晋江会馆  ", "Name_ML": "Persatuan Chin Kang Kelantan", "Name_EN": null, "Location": "390 Tingkat 4 Jalan Pintu Pong, 15000 Kota Bharu, Kelantan. ", "Longitude": 102.242032, "Latitude": 6.130297, "Region": "Kelantan", "Category": "地缘", "PageNumber": "325" }, "geometry": { "type": "Point", "coordinates": [ 102.242, 6.1303, 102.242 ] } },
{ "type": "Feature", "properties": { "Name_CH": "吉兰丹吉赖客属公会", "Name_ML": "Persatuan Hakka Community Of Kuala Krai Kelantan", "Name_EN": "Hakka Community Of Kuala Krai", "Location": "200-201, Tingkat 1, Jalan Ah Sang, 18000 Kuala Krai, Kelantan.", "Longitude": 102.199988, "Latitude": 5.531121, "Region": "Kelantan", "Category": "地缘", "PageNumber": "325" }, "geometry": { "type": "Point", "coordinates": [ 102.2, 5.5311, 102.2 ] } }
]
}
