{
"type": "FeatureCollection",
"name": "Category_6",
"crs": { "type": "name", "properties": { "name": "urn:ogc:def:crs:OGC:1.3:CRS84" } },
"features": [
{ "type": "Feature", "properties": { "Name_CH": "慈慧坛 ", "Name_ML": "Persatuan Pengajian Confucius Kelantan", "Name_EN": null, "Location": "PT 4204 Jalan Panggong, 18000 Kuala Kroi, Kelantan. ", "Longitude": 101.697101, "Latitude": 3.141969, "Region": "Kelantan", "Category": "宗教", "PageNumber": "327" }, "geometry": { "type": "Point", "coordinates": [ 101.6971, 3.142, 101.6971 ] } },
{ "type": "Feature", "properties": { "Name_CH": "哥打答鲁真佛宗修会 ", "Name_ML": "Persatuan Penganut Agama Buddha Chen Foh Chong :Kota Bharu Kelantan", "Name_EN": null, "Location": "Lot 1320 Taman Tengku Ahmad Panglima, jalan Wakaf Mek Zainal, Kelantan.", "Longitude": 102.038801, "Latitude": 5.129746, "Region": "Kelantan", "Category": "宗教", "PageNumber": "327" }, "geometry": { "type": "Point", "coordinates": [ 102.0388, 5.1297, 102.0388 ] } },
{ "type": "Feature", "properties": { "Name_CH": "巴西敦布北帝宫 ", "Name_ML": "Persatuan Penganut Buddha Pak Tay Keong Kota Bharu Kelantan", "Name_EN": null, "Location": "Lot PT 1857, Pasir Tumboh, 16150 Kota Bharu, Kelantan.\n", "Longitude": 102.283387, "Latitude": 6.105829, "Region": "Kelantan", "Category": "宗教", "PageNumber": "327" }, "geometry": { "type": "Point", "coordinates": [ 102.2834, 6.1058, 102.2834 ] } },
{ "type": "Feature", "properties": { "Name_CH": "哥打答鲁圣教会", "Name_ML": "Persatuan Penganut Agama Konfusima Kota Bharu Kelantan", "Name_EN": null, "Location": "3055-A Jalan Hamzah, 15050 Kota Bharu, Kelantan.", "Longitude": 102.238823, "Latitude": 6.116788, "Region": "Kelantan", "Category": "宗教", "PageNumber": "327" }, "geometry": { "type": "Point", "coordinates": [ 102.2388, 6.1168, 102.2388 ] } },
{ "type": "Feature", "properties": { "Name_CH": "吉兰丹巴西富地佛教会 ", "Name_ML": "Persatuan Buddhist Pasir Puteh Kelantan", "Name_EN": null, "Location": "148 Atas Jalan Sekolah Pasir Puteh, 16800 Kelantan.", "Longitude": 102.223526, "Latitude": 5.765881, "Region": "Kelantan", "Category": "宗教", "PageNumber": "328" }, "geometry": { "type": "Point", "coordinates": [ 102.2235, 5.7659, 102.2235 ] } },
{ "type": "Feature", "properties": { "Name_CH": "吉兰丹斗母宫九皇大帝", "Name_ML": "Pertubuhan Tow Boo Keong Kiu Ong Tai Tay Kelantan", "Name_EN": null, "Location": "Lorong Limau Manis Barat, Kampung Limau Manis, 15050, Kota Bharu, Kelantan, Malaysia", "Longitude": 102.238126, "Latitude": 6.115104, "Region": "Kelantan", "Category": "宗教", "PageNumber": "328" }, "geometry": { "type": "Point", "coordinates": [ 102.2381, 6.1151, 102.2381 ] } },
{ "type": "Feature", "properties": { "Name_CH": "关帝庙 ", "Name_ML": null, "Name_EN": "Persatuan The Committee Of Management Of The Kuan Thai Meow", "Location": "49 Jalan Besar Gua Musang Ulu, Kelantan.", "Longitude": 101.958317, "Latitude": 4.861668, "Region": "Kelantan", "Category": "宗教", "PageNumber": "328" }, "geometry": { "type": "Point", "coordinates": [ 101.9583, 4.8617, 101.9583 ] } },
{ "type": "Feature", "properties": { "Name_CH": "吉赖王圣宫 ", "Name_ML": "Persatuan Penganut Buddha Yit Sin Kong Kuala Krai Kelantan", "Name_EN": null, "Location": "173 Jalan Chin Wah, 18000 Kuala Krai, Kelantan.", "Longitude": 102.201776, "Latitude": 5.531201, "Region": "Kelantan", "Category": "宗教", "PageNumber": "328" }, "geometry": { "type": "Point", "coordinates": [ 102.2018, 5.5312, 102.2018 ] } },
{ "type": "Feature", "properties": { "Name_CH": "吉兰丹瓜拉吉赖佛教会", "Name_ML": "Persatuan Penganut Kuala Krai Kelantan ", "Name_EN": "Kuala Krai Buddhist Society Kelantan ", "Location": "95 Jalan Chin Hwa，18000 Kuala Krai, Kelantan.", "Longitude": 102.199847, "Latitude": 5.531652, "Region": "Kelantan", "Category": "宗教", "PageNumber": "328" }, "geometry": { "type": "Point", "coordinates": [ 102.1998, 5.5317, 102.1998 ] } },
{ "type": "Feature", "properties": { "Name_CH": "吉兰丹东马岸佛教会 ", "Name_ML": "Persatuan Buddhist Temangan Machang Kelantan ", "Name_EN": "Temangan Buddhist Society Machang Kelantan", "Location": "597, Jalan Besar, Temangan, 18400 Machang, Kelantan.", "Longitude": 102.147483, "Latitude": 5.694813, "Region": "Kelantan", "Category": "宗教", "PageNumber": "328" }, "geometry": { "type": "Point", "coordinates": [ 102.1475, 5.6948, 102.1475 ] } },
{ "type": "Feature", "properties": { "Name_CH": "吉兰丹巴西马佛教会 ", "Name_ML": "Persatuan Buddha Pasir Mas Kelantan ", "Name_EN": null, "Location": "D\/A Tin Hu Keng Chinese Temple 哗 1 Pengkalan, 17000 Pasir Mas, Kelantan.", "Longitude": 102.196436, "Latitude": 6.041327, "Region": "Kelantan", "Category": "宗教", "PageNumber": "328" }, "geometry": { "type": "Point", "coordinates": [ 102.1964, 6.0413, 102.1964 ] } },
{ "type": "Feature", "properties": { "Name_CH": "华佳巴鲁古林暹庙 ", "Name_ML": "Persatuan Buddha Wakaf Bharu Wat Kampong Kulim Wakaf Bharu Kelantan", "Name_EN": null, "Location": "Wat Kampong Kulim, 16250 Wakaf Bharu, Kelantan.", "Longitude": 102.193489, "Latitude": 6.112823, "Region": "Kelantan", "Category": "宗教", "PageNumber": "328" }, "geometry": { "type": "Point", "coordinates": [ 102.1935, 6.1128, 102.1935 ] } },
{ "type": "Feature", "properties": { "Name_CH": "吉兰丹德教会振心阁 ", "Name_ML": "Persatuan Pendidik Akhlak Chin Sim Kok Kelantan ", "Name_EN": null, "Location": "6009 Jalan Hamzah, 15050 Kota Bharu, Kelantan.", "Longitude": 102.239065, "Latitude": 6.116477, "Region": "Kelantan", "Category": "宗教", "PageNumber": "328" }, "geometry": { "type": "Point", "coordinates": [ 102.2391, 6.1165, 102.2391 ] } },
{ "type": "Feature", "properties": { "Name_CH": "吉兰丹德教会紫灵阁 ", "Name_ML": "Persatuan Pendidikan Akhlak Che Lena Khor Kelantan ", "Name_EN": null, "Location": "6004 Jalan Hamzah, 15050 Kota Bharu, Kelantan.", "Longitude": 102.23841, "Latitude": 6.116637, "Region": "Kelantan", "Category": "宗教", "PageNumber": "328" }, "geometry": { "type": "Point", "coordinates": [ 102.2384, 6.1166, 102.2384 ] } },
{ "type": "Feature", "properties": { "Name_CH": "吉兰丹佛教会", "Name_ML": "Persatuan Buddhist Kelantan", "Name_EN": null, "Location": "3400 B C Jalan Zainal Abidin, Kota Bharu, Kelantan. ", "Longitude": 102.236836, "Latitude": 6.122964, "Region": "Kelantan", "Category": "宗教", "PageNumber": "328" }, "geometry": { "type": "Point", "coordinates": [ 102.2368, 6.123, 102.2368 ] } },
{ "type": "Feature", "properties": { "Name_CH": "吉兰丹潮音寺 ", "Name_ML": "Pertubuhan Penganut Buddha Tiaw Imm Sea Kota Bharu Kelantan", "Name_EN": null, "Location": "3937-3938 Jalan Tengku Chik 15000 Kota Bharu, Kelantan.", "Longitude": 102.235561, "Latitude": 6.130006, "Region": "Kelantan", "Category": "宗教", "PageNumber": "328" }, "geometry": { "type": "Point", "coordinates": [ 102.2356, 6.13, 102.2356 ] } },
{ "type": "Feature", "properties": { "Name_CH": "真佛宗话望生护行堂 ", "Name_ML": "Persatuan Penganut Agama Buddha Dhamma Zheng Fuo Zong Gua Musang Kelantan", "Name_EN": null, "Location": "Tingkat 2 Lot PT 1004(103), Bandar Baru, 18300 Gua Musang, Kelantan.", "Longitude": 101.958504, "Latitude": 4.841652, "Region": "Kelantan", "Category": "宗教", "PageNumber": "329" }, "geometry": { "type": "Point", "coordinates": [ 101.9585, 4.8417, 101.9585 ] } },
{ "type": "Feature", "properties": { "Name_CH": "吉兰丹话望生佛教会", "Name_ML": "Persatuan Buddha Gua Musang Hulu Kelantan ", "Name_EN": null, "Location": "264 Kampong Baru, 18300 Gua Musang, Kelantan.", "Longitude": 101.961428, "Latitude": 4.865414, "Region": "Kelantan", "Category": "宗教", "PageNumber": "329" }, "geometry": { "type": "Point", "coordinates": [ 101.9614, 4.8654, 101.9614 ] } },
{ "type": "Feature", "properties": { "Name_CH": "南英宫", "Name_ML": "Pertubuhan Penganut Agama Buddha Nang Ying Gong Kota Bharu Kelantan ", "Name_EN": null, "Location": "PT 298 Kampung Cina, 15000 Kota Bharuz Kelantan.", "Longitude": 101.5779, "Latitude": 4.9988, "Region": "Kelantan", "Category": "宗教", "PageNumber": "329" }, "geometry": { "type": "Point", "coordinates": [ 101.5779, 4.9988, 101.5779 ] } },
{ "type": "Feature", "properties": { "Name_CH": "吉兰丹吉赖瑞青禅院", "Name_ML": "Persatuan Penganut Agama Buddha Guan Yin Si(Rui Qing Chan Yuan)", "Name_EN": null, "Location": "70 Jalan Pintas, 18000 Kuala Krai,  Kelantan.", "Longitude": 102.203292, "Latitude": 5.539499, "Region": "Kelantan", "Category": "宗教", "PageNumber": "329" }, "geometry": { "type": "Point", "coordinates": [ 102.2033, 5.5395, 102.2033 ] } },
{ "type": "Feature", "properties": { "Name_CH": "马章观音堂 ", "Name_ML": "Pertubuhan Penganut Dewi Kuan Inn Bandar Machang Kelantan", "Name_EN": null, "Location": "PT 370 Jalan Bakat, 18500 Machang, Kelantan. ", "Longitude": 102.218624, "Latitude": 5.765468, "Region": "Kelantan", "Category": "宗教", "PageNumber": "329" }, "geometry": { "type": "Point", "coordinates": [ 102.2186, 5.7655, 102.2186 ] } },
{ "type": "Feature", "properties": { "Name_CH": "吉兰丹那美拉佛教会", "Name_ML": "Persatuan Buddhist Tanah Merah Kelantan", "Name_EN": null, "Location": "Lot 1924 Tingkat 4，Jalan Jedok, 17500 Tanah Merah, Kelantan. ", "Longitude": 102.146732, "Latitude": 5.809328, "Region": "Kelantan", "Category": "宗教", "PageNumber": "329" }, "geometry": { "type": "Point", "coordinates": [ 102.1467, 5.8093, 102.1467 ] } },
{ "type": "Feature", "properties": { "Name_CH": "玄天庙 ", "Name_ML": "Pertubuhan Penganut Buddha Hian Thian Tanah Merah Kelantan", "Name_EN": null, "Location": "Kampung Pasir Pinji, 17500 Tanah Merah, Kelantan.", "Longitude": 102.138179, "Latitude": 5.820254, "Region": "Kelantan", "Category": "宗教", "PageNumber": "329" }, "geometry": { "type": "Point", "coordinates": [ 102.1382, 5.8203, 102.1382 ] } },
{ "type": "Feature", "properties": { "Name_CH": "吉兰丹马章佛教会 ", "Name_ML": "Persatuan Buddist Machang Kelantan", "Name_EN": null, "Location": "Lot PT (B) 7, Jalan Tanjung, 18500 Machang, Kelantan. ", "Longitude": 102.204592, "Latitude": 6.042654, "Region": "Kelantan", "Category": "宗教", "PageNumber": "329" }, "geometry": { "type": "Point", "coordinates": [ 102.2046, 6.0427, 102.2046 ] } },
{ "type": "Feature", "properties": { "Name_CH": "吉兰丹修禅学会 ", "Name_ML": "Persatuan Meditasi Buddhist Kelantan", "Name_EN": null, "Location": "3599 Jalan Ismail，15000 Kota Bharu, Kelantan.", "Longitude": 102.237955, "Latitude": 6.126985, "Region": "Kelantan", "Category": "宗教", "PageNumber": "329" }, "geometry": { "type": "Point", "coordinates": [ 102.238, 6.127, 102.238 ] } }
]
}
