{
"type": "FeatureCollection",
"name": "Category_0",
"crs": { "type": "name", "properties": { "name": "urn:ogc:def:crs:OGC:1.3:CRS84" } },
"features": [
{ "type": "Feature", "properties": { "Name_CH": "关丹咖啡旅餐公会", "Name_ML": "Persatuan Café Hotel Dan Restoran Kuantan", "Name_EN": "The Café Hotel & Restaurant Association Kuantan", "Location": "9, Tingkat 2, Lorong Rusa 1, Jalan Bukit Ubi, 25200 Kuantan, Pahang,", "Longitude": 103.319471, "Latitude": 3.815263, "Region": "Pahang", "Category": "业缘", "PageNumber": "343" }, "geometry": { "type": "Point", "coordinates": [ 103.3195, 3.8153, 103.3195 ] } },
{ "type": "Feature", "properties": { "Name_CH": "淡马鲁属咖啡商公会", "Name_ML": "Persatuan Pekedai Kopi Daerah Temerloh", "Name_EN": null, "Location": "104, Jalan Temerloh, 28400 Mentakab, Pahang.", "Longitude": 102.351345, "Latitude": 3.484153, "Region": "Pahang", "Category": "业缘", "PageNumber": "343" }, "geometry": { "type": "Point", "coordinates": [ 102.3513, 3.4842, 102.3513 ] } },
{ "type": "Feature", "properties": { "Name_CH": "淡属中华工商会", "Name_ML": "Dewan Perniagaan & Perindustrian Chian Daerah Temerloh", "Name_EN": null, "Location": "23-A, Jalan Zabidin, 28400 Mentakab, Pahang.", "Longitude": 102.34767, "Latitude": 3.485543, "Region": "Pahang", "Category": "业缘", "PageNumber": "343" }, "geometry": { "type": "Point", "coordinates": [ 102.3477, 3.4855, 102.3477 ] } },
{ "type": "Feature", "properties": { "Name_CH": "甘孟中华商会", "Name_ML": "Dewan Perniagaan Cina Gambang", "Name_EN": null, "Location": "8, Jalan Besar, 26300 Gambang, Pahang.", "Longitude": 103.084304, "Latitude": 3.721629, "Region": "Pahang", "Category": "业缘", "PageNumber": "343" }, "geometry": { "type": "Point", "coordinates": [ 103.0843, 3.7216, 103.0843 ] } },
{ "type": "Feature", "properties": { "Name_CH": "百乐县中华工商联合会", "Name_ML": "Persatuan Perdagangan & Perindustrian Tiong Hua Daerah Bera", "Name_EN": null, "Location": "13,Tkt1, Taman Cheng Siew, 28300 Triang, Pahang.", "Longitude": 103.306026, "Latitude": 3.794602, "Region": "Pahang", "Category": "业缘", "PageNumber": "343" }, "geometry": { "type": "Point", "coordinates": [ 103.306, 3.7946, 103.306 ] } },
{ "type": "Feature", "properties": { "Name_CH": "关丹建造行", "Name_ML": "Persatuan Kin Cho Hong Kuantan", "Name_EN": null, "Location": "61, Tingkat 1, Jalan Dato' Wong Ah Jang, 25100 Kuantan, Pahang.", "Longitude": 103.315071, "Latitude": 3.795076, "Region": "Pahang", "Category": "业缘", "PageNumber": "343" }, "geometry": { "type": "Point", "coordinates": [ 103.3151, 3.7951, 103.3151 ] } },
{ "type": "Feature", "properties": { "Name_CH": "关丹渔业公会", "Name_ML": "Persatuan Perikanan Kuantan", "Name_EN": null, "Location": "22, Tkt 1, Jalan Wong Ah Jang, 25100 Kuantan, Pahang.", "Longitude": 103.297105, "Latitude": 3.798407, "Region": "Pahang", "Category": "业缘", "PageNumber": "343" }, "geometry": { "type": "Point", "coordinates": [ 103.2971, 3.7984, 103.2971 ] } },
{ "type": "Feature", "properties": { "Name_CH": "关丹中华工商会", "Name_ML": "Dewan Perniagaan Dan Perindustrian Cina Kuantan", "Name_EN": "Kuantan Chinese Chamber Of Commerce & Industry", "Location": "65-67, Tingkat 2, Jalan Besar, 25000 Kuantan, Pahang.", "Longitude": 103.329529, "Latitude": 3.807215, "Region": "Pahang", "Category": "业缘", "PageNumber": "343" }, "geometry": { "type": "Point", "coordinates": [ 103.3295, 3.8072, 103.3295 ] } },
{ "type": "Feature", "properties": { "Name_CH": "彭亨中华工商总会", "Name_ML": null, "Name_EN": "The Associated Chinese Chambers of Commerce and Industry Pahang", "Location": "65-67, 2nd floor, Jalan Besar, 25000 Kuantan, Pahang.", "Longitude": 103.329529, "Latitude": 3.807215, "Region": "Pahang", "Category": "业缘", "PageNumber": "343" }, "geometry": { "type": "Point", "coordinates": [ 103.3295, 3.8072, 103.3295 ] } },
{ "type": "Feature", "properties": { "Name_CH": "而连突中华商会", "Name_ML": "Dewan Perniagaan Cina Jerantut", "Name_EN": null, "Location": "Lot 18, (Tingkat 2), Bandar Inderapura, Jalan Kuantan, 27000 Jerantut, Pahang.", "Longitude": 102.375573, "Latitude": 3.93446, "Region": "Pahang", "Category": "业缘", "PageNumber": "343" }, "geometry": { "type": "Point", "coordinates": [ 102.3756, 3.9345, 102.3756 ] } },
{ "type": "Feature", "properties": { "Name_CH": "关丹中医中药联合会", "Name_ML": null, "Name_EN": "The Chinese Physicians & Druggists Association", "Location": "20-22, Lorong Seri Kuantan 62, Perkampungan Seri Kuantan,25000 Kuantan, Pahang.", "Longitude": 103.338971, "Latitude": 3.817764, "Region": "Pahang", "Category": "业缘", "PageNumber": "343" }, "geometry": { "type": "Point", "coordinates": [ 103.339, 3.8178, 103.339 ] } },
{ "type": "Feature", "properties": { "Name_CH": "文德甲小贩小商业公会", "Name_ML": "Persatuan Peniaga Kecil Mentakab Pahang", "Name_EN": "Pahang Mentakab Petty Traders Association", "Location": "73, Tingkat 3, Jalan Melati, 28400 Mentakab, Pahang.", "Longitude": 102.347926, "Latitude": 3.484444, "Region": "Pahang", "Category": "业缘", "PageNumber": "344" }, "geometry": { "type": "Point", "coordinates": [ 102.3479, 3.4844, 102.3479 ] } },
{ "type": "Feature", "properties": { "Name_CH": "文冬小贩小商公会", "Name_ML": "Persatuan Penjaja-Penjaja & Peniaga Kecil Bentong", "Name_EN": null, "Location": "4, Jalan Chui Yin, 28700 Bentong, Pahang.", "Longitude": 101.906753, "Latitude": 3.523396, "Region": "Pahang", "Category": "业缘", "PageNumber": "344" }, "geometry": { "type": "Point", "coordinates": [ 101.9068, 3.5234, 101.9068 ] } },
{ "type": "Feature", "properties": { "Name_CH": "文冬中华商会", "Name_ML": "Chinese Chamber Of Commerce Bentong", "Name_EN": null, "Location": "87, Jalan Ah Peng, 28700 Bentong, Pahang.", "Longitude": 101.907987, "Latitude": 3.523353, "Region": "Pahang", "Category": "业缘", "PageNumber": "344" }, "geometry": { "type": "Point", "coordinates": [ 101.908, 3.5234, 101.908 ] } },
{ "type": "Feature", "properties": { "Name_CH": "彭亨五金机械商公会", "Name_ML": "Persatuan Peniaga Logam Dan Jentera Pahang", "Name_EN": "Pahang Hardware Association", "Location": "16, Tingkat 1, Off Jalan Wong Ah Jang, 25100 Kuantan, Pahang.", "Longitude": 103.321639, "Latitude": 3.808629, "Region": "Pahang", "Category": "业缘", "PageNumber": "344" }, "geometry": { "type": "Point", "coordinates": [ 103.3216, 3.8086, 103.3216 ] } },
{ "type": "Feature", "properties": { "Name_CH": "彭亨中华工商总会", "Name_ML": "Persekutuan Dewan-Dewan Perniagaan Dan Perindustrian China Pahang", "Name_EN": "The Association Chinese Chambers Of Commerce And Industry Pahang", "Location": "65-67, Tingkat 2, Jalan Besar, 25000 Kuantan, Pahang.", "Longitude": 103.329529, "Latitude": 3.807215, "Region": "Pahang", "Category": "业缘", "PageNumber": "344" }, "geometry": { "type": "Point", "coordinates": [ 103.3295, 3.8072, 103.3295 ] } }
]
}
