{
"type": "FeatureCollection",
"name": "Category_0",
"crs": { "type": "name", "properties": { "name": "urn:ogc:def:crs:OGC:1.3:CRS84" } },
"features": [
{ "type": "Feature", "properties": { "Name_CH": "登嘉楼甘马仕海南会馆", "Name_ML": "Persatuan Hainan Kemasek Terengganu", "Name_EN": null, "Location": "8-131(K-31)Ayer Jerneh, 24210 Kemasek, Terenggun", "Longitude": 101.717224, "Latitude": 3.193595, "Region": "Terengganu", "Category": "地缘", "PageNumber": "332" }, "geometry": { "type": "Point", "coordinates": [ 101.7172, 3.1936, 101.7172 ] } },
{ "type": "Feature", "properties": { "Name_CH": "登嘉楼兴安会馆", "Name_ML": "Persatuan Hin Ann Terengganu", "Name_EN": null, "Location": "6F Tingkat 4＆5, Bangunan Hin Ann, Jalan Air Jernih, 20300 Kuala Terengganu, Terengganu", "Longitude": 101.730915, "Latitude": 3.214612, "Region": "Terengganu", "Category": "地缘", "PageNumber": "332" }, "geometry": { "type": "Point", "coordinates": [ 101.7309, 3.2146, 101.7309 ] } },
{ "type": "Feature", "properties": { "Name_CH": "北加海南会馆", "Name_ML": "Persatuan Hainan Paka", "Name_EN": null, "Location": "421 MMTP Jalan Limbong, Kuala Paka, Paka, Dungun, Terengganu", "Longitude": 103.156758, "Latitude": 5.296702, "Region": "Terengganu", "Category": "地缘", "PageNumber": "332" }, "geometry": { "type": "Point", "coordinates": [ 103.1568, 5.2967, 103.1568 ] } },
{ "type": "Feature", "properties": { "Name_CH": "登嘉楼潮州会馆", "Name_ML": "Persatuan Tech Chew Terengganu", "Name_EN": null, "Location": "91＆93, Jalan Banggol, 20100 Kuala Terengganu, Terengganu", "Longitude": 103.135492, "Latitude": 5.332991, "Region": "Terengganu", "Category": "地缘", "PageNumber": "332" }, "geometry": { "type": "Point", "coordinates": [ 103.1355, 5.333, 103.1355 ] } },
{ "type": "Feature", "properties": { "Name_CH": "登嘉楼福建会馆", "Name_ML": "Persatuan Hokkien Terngganu", "Name_EN": null, "Location": "104-A＆B Tingkat 2＆3， Jalan Sultan Ismail, 20200 Kuala Terengganu, Terengganu", "Longitude": 103.143761, "Latitude": 5.328436, "Region": "Terengganu", "Category": "地缘", "PageNumber": "332" }, "geometry": { "type": "Point", "coordinates": [ 103.1438, 5.3284, 103.1438 ] } },
{ "type": "Feature", "properties": { "Name_CH": "登嘉楼海南会馆", "Name_ML": "Persatuan Hainan Terengganu", "Name_EN": null, "Location": "6 Jalan Kata, 20000 Kuala Terengganu, Terengganu", "Longitude": 103.129381, "Latitude": 5.221217, "Region": "Terengganu", "Category": "地缘", "PageNumber": "332" }, "geometry": { "type": "Point", "coordinates": [ 103.1294, 5.2212, 103.1294 ] } },
{ "type": "Feature", "properties": { "Name_CH": "登嘉楼南安会馆", "Name_ML": "Persatuan Namann Terengganu", "Name_EN": null, "Location": "235B Ground Floor, Jalan Sulan Zainal Abidin, 20000 Kuala Terengganu, Terengganu", "Longitude": 103.147004, "Latitude": 5.32984, "Region": "Terengganu", "Category": "地缘", "PageNumber": "332" }, "geometry": { "type": "Point", "coordinates": [ 103.147, 5.3298, 103.147 ] } },
{ "type": "Feature", "properties": { "Name_CH": "登嘉楼广东会馆", "Name_ML": "Persatuan Kwang Tung Terengganu", "Name_EN": "Terengganu Kwang Tung Assonciation", "Location": "114, Jalan Sultan Ismail, 20200 Kuala Terengganu, Terengganu", "Longitude": 103.143093, "Latitude": 5.328132, "Region": "Terengganu", "Category": "地缘", "PageNumber": "332" }, "geometry": { "type": "Point", "coordinates": [ 103.1431, 5.3281, 103.1431 ] } },
{ "type": "Feature", "properties": { "Name_CH": "登嘉楼晋江会馆", "Name_ML": "Persatuan Chin Kang Terengganu", "Name_EN": null, "Location": "138-C Tingkat 1 Jalan Zainal Abidin, 20300 Kuala Terengganu, Terengganu", "Longitude": 103.135208, "Latitude": 5.328416, "Region": "Terengganu", "Category": "地缘", "PageNumber": "332" }, "geometry": { "type": "Point", "coordinates": [ 103.1352, 5.3284, 103.1352 ] } },
{ "type": "Feature", "properties": { "Name_CH": "甘马挽潮州会馆", "Name_ML": null, "Name_EN": "Kemaman Teo Chew Association", "Location": "K-97 Jalan Pasar, 24000 Kemaman, Terengganu", "Longitude": 103.42973, "Latitude": 4.228001, "Region": "Terengganu", "Category": "地缘", "PageNumber": "333" }, "geometry": { "type": "Point", "coordinates": [ 103.4297, 4.228, 103.4297 ] } },
{ "type": "Feature", "properties": { "Name_CH": "甘马挽福建会馆", "Name_ML": null, "Name_EN": "The Hokkien Association", "Location": "K-328, 1st Floor, Jalan Jakar, 24000 Kemaman, Terengganu", "Longitude": 103.42859, "Latitude": 4.230174, "Region": "Terengganu", "Category": "地缘", "PageNumber": "333" }, "geometry": { "type": "Point", "coordinates": [ 103.4286, 4.2302, 103.4286 ] } },
{ "type": "Feature", "properties": { "Name_CH": "甘马挽广东会馆", "Name_ML": "Persatuan Kwang Tung Kemaman Terengganu", "Name_EN": null, "Location": "K-7334 Tingkat 1, Jalan Jakar,24000 Kemaman, Terengganu", "Longitude": 103.444, "Latitude": 4.508645, "Region": "Terengganu", "Category": "地缘", "PageNumber": "333" }, "geometry": { "type": "Point", "coordinates": [ 103.444, 4.5086, 103.444 ] } },
{ "type": "Feature", "properties": { "Name_CH": "龙运海南会馆", "Name_ML": "Persatuan Hainan Dungun", "Name_EN": null, "Location": "50 Ti1ngkat 1, Jalan Teck Wan, Dungun, Terengganu", "Longitude": 103.410846, "Latitude": 4.713131, "Region": "Terengganu", "Category": "地缘", "PageNumber": "333" }, "geometry": { "type": "Point", "coordinates": [ 103.4108, 4.7131, 103.4108 ] } },
{ "type": "Feature", "properties": { "Name_CH": "龙运福建会馆", "Name_ML": "Persatuan Hokkien Dungun Terengganu", "Name_EN": null, "Location": "K-222 Tingkat 3, Jalan Lim Teck Guan, 23000 Dungun, Terengganu", "Longitude": 103.425749, "Latitude": 4.728216, "Region": "Terengganu", "Category": "地缘", "PageNumber": "333" }, "geometry": { "type": "Point", "coordinates": [ 103.4257, 4.7282, 103.4257 ] } },
{ "type": "Feature", "properties": { "Name_CH": "甘马挽海南会馆", "Name_ML": "Persatuan Hainan Kemaman", "Name_EN": null, "Location": "K-323, Tingkat Satu, Wisma Kheng Chew, Jalan Jalar,24000 Kemaman, Terengganu", "Longitude": 103.424667, "Latitude": 4.220412, "Region": "Terengganu", "Category": "地缘", "PageNumber": "333" }, "geometry": { "type": "Point", "coordinates": [ 103.4247, 4.2204, 103.4247 ] } }
]
}
