{
"type": "FeatureCollection",
"name": "Category_5",
"crs": { "type": "name", "properties": { "name": "urn:ogc:def:crs:OGC:1.3:CRS84" } },
"features": [
{ "type": "Feature", "properties": { "Name_CH": "甘榜挽孔孟圣道", "Name_ML": "Pers Penyokong Kong Mengs Sheng Dao Terengganu", "Name_EN": null, "Location": "K-85 Tinggkat 1＆2, Jalan Jakar, 24000 Kemaman, Terengganu.", "Longitude": 103.424688, "Latitude": 4.220476, "Region": "Terengganu", "Category": "宗教", "PageNumber": "335" }, "geometry": { "type": "Point", "coordinates": [ 103.4247, 4.2205, 103.4247 ] } },
{ "type": "Feature", "properties": { "Name_CH": "甘马挽威灵坛", "Name_ML": "Persatuan Kebajikan Wei Lin Tong Kemaman, Terengganu", "Name_EN": null, "Location": "Lot 3701 Kg. Fikri, 24000 Kemaman, Terengganu.", "Longitude": 103.365209, "Latitude": 4.321739, "Region": "Terengganu", "Category": "宗教", "PageNumber": "335" }, "geometry": { "type": "Point", "coordinates": [ 103.3652, 4.3217, 103.3652 ] } },
{ "type": "Feature", "properties": { "Name_CH": "华佳达拜佛教会", "Name_ML": "Persatuan Penganut Agama Buddha Wakaf Tapai", "Name_EN": "Wakaf Tapas Buddhist Association", "Location": "234 Taman Istiwa, Jalan Kuala Berang, 21040 Wokaf Tapai, Terengganu.", "Longitude": 103.1104, "Latitude": 5.3167, "Region": "Terengganu", "Category": "宗教", "PageNumber": "335" }, "geometry": { "type": "Point", "coordinates": [ 103.1104, 5.3167, 103.1104 ] } },
{ "type": "Feature", "properties": { "Name_CH": "登嘉楼德教会紫乎阁", "Name_ML": null, "Name_EN": "Che Hoo Khor Moral Uplifting Society", "Location": "37, Jalan Sultan Zainal Abidin, 20000 Kuala Terengganu, Terengganu.", "Longitude": 103.140066, "Latitude": 5.337273, "Region": "Terengganu", "Category": "宗教", "PageNumber": "335" }, "geometry": { "type": "Point", "coordinates": [ 103.1401, 5.3373, 103.1401 ] } },
{ "type": "Feature", "properties": { "Name_CH": "登嘉楼佛教会", "Name_ML": "Persatuan Pengganut-Penganut Buddha Terengganu", "Name_EN": "Terengganu Buddhist Association", "Location": "80-81, Jalan Syed Zain, 20300 Kuala Terengganu, Terengganu.", "Longitude": 103.133597, "Latitude": 5.326085, "Region": "Terengganu", "Category": "宗教", "PageNumber": "335" }, "geometry": { "type": "Point", "coordinates": [ 103.1336, 5.3261, 103.1336 ] } },
{ "type": "Feature", "properties": { "Name_CH": "甘榜忠关帝坛", "Name_ML": "Pers Penyokong Kuil Kwan Tee Than Kampung Tiong Kuala Terengganu", "Name_EN": null, "Location": "171 Kampong Tiong, 20100 Kuala Terengganu, Terengganu.", "Longitude": 103.133838, "Latitude": 5.332403, "Region": "Terengganu", "Category": "宗教", "PageNumber": "335" }, "geometry": { "type": "Point", "coordinates": [ 103.1338, 5.3324, 103.1338 ] } },
{ "type": "Feature", "properties": { "Name_CH": "登嘉楼真佛宗同修会", "Name_ML": "Persatuan Pengganut Agama Buddha Chan Foh Chong Kuala Terengganu", "Name_EN": null, "Location": "30-C Tingkat 2, Jalan Hiliran, 20300 Kuala Terengganu, Terengganu.", "Longitude": 103.135043, "Latitude": 5.329163, "Region": "Terengganu", "Category": "宗教", "PageNumber": "335" }, "geometry": { "type": "Point", "coordinates": [ 103.135, 5.3292, 103.135 ] } },
{ "type": "Feature", "properties": { "Name_CH": "登嘉楼三保公庙", "Name_ML": "Jawatankuasa Pengurusan Tokong Sam Kong Jeram Hulu Nerus Kuala Terengganu", "Name_EN": null, "Location": "C\/O Dewaan Perhimpunan Tiong Hua, Kuala Tre 15, Tingkat 2, Jalan Baras Baru, Kalar Terengganu, Terengganu.", "Longitude": 103.132332, "Latitude": 5.348089, "Region": "Terengganu", "Category": "宗教", "PageNumber": "335" }, "geometry": { "type": "Point", "coordinates": [ 103.1323, 5.3481, 103.1323 ] } },
{ "type": "Feature", "properties": { "Name_CH": "大马日莲本门正宗佛教会", "Name_ML": "Persatuan Agama Buddha Nichiren Shoshu Terengganu", "Name_EN": null, "Location": "14 Lot 9278, Taman Mewah, Binjai Rendah Dah Jalan Kuala Berang, 21400 Marang, Terengganu.", "Longitude": 103.082492, "Latitude": 5.380017, "Region": "Terengganu", "Category": "宗教", "PageNumber": "335" }, "geometry": { "type": "Point", "coordinates": [ 103.0825, 5.38, 103.0825 ] } },
{ "type": "Feature", "properties": { "Name_CH": "甘马仕佛教会", "Name_ML": "Persatuan Penganut Agama Buddha Ayer Erneh Kemasek Terengganu", "Name_EN": null, "Location": "K-879 Jerneh, 24210 Kemasek, Terengganu.", "Longitude": 102.818577, "Latitude": 5.587075, "Region": "Terengganu", "Category": "宗教", "PageNumber": "335" }, "geometry": { "type": "Point", "coordinates": [ 102.8186, 5.5871, 102.8186 ] } },
{ "type": "Feature", "properties": { "Name_CH": "甘马挽永安宫", "Name_ML": "Majlis Yong An Kong Kemaman", "Name_EN": "Terengganu Tong Kong Yang An Kong", "Location": "Lot 240 Jalan Che, Kemaman, Terengganu.", "Longitude": 102.818577, "Latitude": 5.587075, "Region": "Terengganu", "Category": "宗教", "PageNumber": "335" }, "geometry": { "type": "Point", "coordinates": [ 102.8186, 5.5871, 102.8186 ] } },
{ "type": "Feature", "properties": { "Name_CH": "五里新村三太子庙", "Name_ML": "Jawatankuasa Pengurusan Rumah Berhala Sam Thai Tze Kampong Batu 5 Dungun Terengganu", "Name_EN": null, "Location": "Rumah Berhala Sam Thai Tze Kg. Batu 5, 23000 Dungun, Terengganu.", "Longitude": 103.420027, "Latitude": 4.762823, "Region": "Terengganu", "Category": "宗教", "PageNumber": "336" }, "geometry": { "type": "Point", "coordinates": [ 103.42, 4.7628, 103.42 ] } },
{ "type": "Feature", "properties": { "Name_CH": "龙运北加佛教会", "Name_ML": "Persatuan Penganut-Penganut Buddha Paka, Dungun Terengganu", "Name_EN": null, "Location": "MDD. 1009 Jalan Limbong Paka, 23000 Dungun, Terengganu.", "Longitude": 103.434454, "Latitude": 4.63861, "Region": "Terengganu", "Category": "宗教", "PageNumber": "336" }, "geometry": { "type": "Point", "coordinates": [ 103.4345, 4.6386, 103.4345 ] } },
{ "type": "Feature", "properties": { "Name_CH": "日底关帝坛", "Name_ML": "Persatuan Pengganut Buddha Kuan Tay Toa Jerteh Terengganu", "Name_EN": null, "Location": "53 Taman Teratur, 22000 Jerteh, Terengganu.", "Longitude": 102.811215, "Latitude": 5.074465, "Region": "Terengganu", "Category": "宗教", "PageNumber": "336" }, "geometry": { "type": "Point", "coordinates": [ 102.8112, 5.0745, 102.8112 ] } },
{ "type": "Feature", "properties": { "Name_CH": "龙运佛教会", "Name_ML": "Persatuan Penganut Agama Buddha Dungun", "Name_EN": null, "Location": "Rumah Berhala Hong Tien Tiang, Jalan Bijangga Kuala Dungun, 23000 Dungun, Terengganu.", "Longitude": 103.124855, "Latitude": 5.318783, "Region": "Terengganu", "Category": "宗教", "PageNumber": "336" }, "geometry": { "type": "Point", "coordinates": [ 103.1249, 5.3188, 103.1249 ] } },
{ "type": "Feature", "properties": { "Name_CH": "济善坛", "Name_ML": "Persatuan Penganut Buddha Ci San Tan Terengganu", "Name_EN": null, "Location": "219-A, Lorong 4, Bandar Baru Pulau Kambing, 20300 Kuala Terengganu, Terengganu", "Longitude": 103.130873, "Latitude": 5.320193, "Region": "Terengganu", "Category": "宗教", "PageNumber": "336" }, "geometry": { "type": "Point", "coordinates": [ 103.1309, 5.3202, 103.1309 ] } },
{ "type": "Feature", "properties": { "Name_CH": "济仙坛", "Name_ML": "Persatuan Penganut Buddha Chee Sian Thang Terengganu", "Name_EN": null, "Location": "88, Jalan Balik, 23000 Kuala Terengganu, Terengganu", "Longitude": 103.132601, "Latitude": 5.326978, "Region": "Terengganu", "Category": "宗教", "PageNumber": "336" }, "geometry": { "type": "Point", "coordinates": [ 103.1326, 5.327, 103.1326 ] } },
{ "type": "Feature", "properties": { "Name_CH": "智莪广译尊王庙", "Name_ML": "Tokong Kong Teck Choon Ong", "Name_EN": "Kong Tech Choon Ong Temple", "Location": "Kg. Tirok Serada, Kuala Terengganu, Terengganu.", "Longitude": 103.090928, "Latitude": 5.325386, "Region": "Terengganu", "Category": "宗教", "PageNumber": "336" }, "geometry": { "type": "Point", "coordinates": [ 103.0909, 5.3254, 103.0909 ] } },
{ "type": "Feature", "properties": { "Name_CH": "蒲莱新村水月宫", "Name_ML": "Persatuan Penganut Agama Buddha Shui Yue Gong Tepoh Kuala Terengganu", "Name_EN": null, "Location": "Lot 5796 Kg. Pulai Baru, 21080 Kuala Terengganu, Terengganu", "Longitude": 103.082492, "Latitude": 5.380017, "Region": "Terengganu", "Category": "宗教", "PageNumber": "336" }, "geometry": { "type": "Point", "coordinates": [ 103.0825, 5.38, 103.0825 ] } },
{ "type": "Feature", "properties": { "Name_CH": "日底佛教会", "Name_ML": "Persatuan Pengganut Agama Buddha Jerteh Terengganu", "Name_EN": null, "Location": "Lot 158, Tingkat 2, Jalan Pasir Akar, 22000 Jerteh, Terengganu.", "Longitude": 102.536268, "Latitude": 5.735192, "Region": "Terengganu", "Category": "宗教", "PageNumber": "336" }, "geometry": { "type": "Point", "coordinates": [ 102.5363, 5.7352, 102.5363 ] } },
{ "type": "Feature", "properties": { "Name_CH": "南海飞来观音宫", "Name_ML": "Jawatankuasa Pengurusan Tokong Yuan Yim(Kuan Yim Kong) Kuala Terengganu", "Name_EN": null, "Location": "235-D, Tingkat 1, Jalan Bandar, 20100 Kuala Terengganu, Terengganu.", "Longitude": 102.570099, "Latitude": 2.051295, "Region": "Terengganu", "Category": "宗教", "PageNumber": "336" }, "geometry": { "type": "Point", "coordinates": [ 102.5701, 2.0513, 102.5701 ] } }
]
}
