{
"type": "FeatureCollection",
"name": "Category_5",
"crs": { "type": "name", "properties": { "name": "urn:ogc:def:crs:OGC:1.3:CRS84" } },
"features": [
{ "type": "Feature", "properties": { "Name_CH": "斗湖江忧堂黄氏公会", "Name_ML": null, "Name_EN": "Wong Kong Ha Thong Association Tawau", "Location": "P.O.Box 707, 91008 Tawau, Sabah", "Region": "Sabah", "Category": "血缘", "PageNumber": 389, "Country": "Malaysia", "latitude": 4.244651, "longitude": 117.8911861 }, "geometry": { "type": "Point", "coordinates": [ 117.8911861, 4.244651 ] } },
{ "type": "Feature", "properties": { "Name_CH": "沙巴古达张氏（清河堂）公会", "Name_ML": "Persatuan Klan Chong (Ching Ho Thong) Kudat Sabah", "Name_EN": "Kudat Clan Chong (Ching Ho Thong) Association Sabah", "Location": "Tingkat 2, Block E, 8 Sedco, Peti Surat 229, 89058 Kudat Sabah.", "Region": "Sabah", "Category": "血缘", "PageNumber": 389, "Country": "Malaysia", "latitude": 6.8830571, "longitude": 116.8466165 }, "geometry": { "type": "Point", "coordinates": [ 116.8466165, 6.8830571 ] } },
{ "type": "Feature", "properties": { "Name_CH": "沙巴黄氏（江夏）宗亲会", "Name_ML": "Persatuan Klan Huang (Jiang Xia) Kota Kinabalu", "Name_EN": null, "Location": "44-2FL, Bevely Hill Plaza, Jalan Bundusan, Kota Kinabalu, P.O.Box 20453,88761, Luyong, Kota Kinabalu, Sabah", "Region": "Sabah", "Category": "血缘", "PageNumber": 389, "Country": "Malaysia", "latitude": 5.9362791, "longitude": 116.1002362 }, "geometry": { "type": "Point", "coordinates": [ 116.1002362, 5.9362791 ] } },
{ "type": "Feature", "properties": { "Name_CH": "斗湖林西河堂", "Name_ML": null, "Name_EN": "Lim Se Ho Tong Society", "Location": "P.O.Box 60954, 91019 Tawau, Sabah. TE 3116, Batu 4 1\/2 Jalan Sin On Tawau, Sabah.", "Region": "Sabah", "Category": "血缘", "PageNumber": 389, "Country": "Malaysia", "latitude": 4.244651, "longitude": 117.8911861 }, "geometry": { "type": "Point", "coordinates": [ 117.8911861, 4.244651 ] } },
{ "type": "Feature", "properties": { "Name_CH": "斗湖雅寄杨氏福利会", "Name_ML": null, "Name_EN": "The Yongs of Nga-Khi Welfare Association, Tawau", "Location": "P.O.Box 2063, 91045 Tawau, Sabah.", "Region": "Sabah", "Category": "血缘", "PageNumber": 389, "Country": "Malaysia", "latitude": 4.244651, "longitude": 117.8911861 }, "geometry": { "type": "Point", "coordinates": [ 117.8911861, 4.244651 ] } },
{ "type": "Feature", "properties": { "Name_CH": "斗湖曾氏宗亲会", "Name_ML": null, "Name_EN": "Tawau Residency Tsen Clan Association", "Location": "P.O.Box 60506, 91015 Tawau, Sabah.", "Region": "Sabah", "Category": "血缘", "PageNumber": 389, "Country": "Malaysia", "latitude": 4.244651, "longitude": 117.8911861 }, "geometry": { "type": "Point", "coordinates": [ 117.8911861, 4.244651 ] } },
{ "type": "Feature", "properties": { "Name_CH": "沙巴斗湖李氏宗亲会", "Name_ML": null, "Name_EN": "Lee Kinship Association Sabah (Tawau Branch)", "Location": "P.O.Box 60979, 91019 Tawau, Sabah.", "Region": "Sabah", "Category": "血缘", "PageNumber": 389, "Country": "Malaysia", "latitude": 4.244651, "longitude": 117.8911861 }, "geometry": { "type": "Point", "coordinates": [ 117.8911861, 4.244651 ] } },
{ "type": "Feature", "properties": { "Name_CH": "斗湖彭氏宗亲会", "Name_ML": "Persatuan Klan Pang Tawau", "Name_EN": null, "Location": "P.O.Box 943, 91008, Tawau, Sabah", "Region": "Sabah", "Category": "血缘", "PageNumber": 389, "Country": "Malaysia", "latitude": 4.244651, "longitude": 117.8911861 }, "geometry": { "type": "Point", "coordinates": [ 117.8911861, 4.244651 ] } },
{ "type": "Feature", "properties": { "Name_CH": "斗湖张氏（清河堂）公会", "Name_ML": "Persatuan Klan Zhang (Ching Ho Thong) Tawau", "Name_EN": null, "Location": "P.O.Box 566z 91007 Tawau, Sabah.", "Region": "Sabah", "Category": "血缘", "PageNumber": 389, "Country": "Malaysia", "latitude": 4.244651, "longitude": 117.8911861 }, "geometry": { "type": "Point", "coordinates": [ 117.8911861, 4.244651 ] } },
{ "type": "Feature", "properties": { "Name_CH": "沙巴罗氏（龙川公会）", "Name_ML": "Persatuan Klan Lodong Chuan) Sabah", "Name_EN": null, "Location": "No.8, 3Floor, Bevely, Kota Kinabalu, Sabah.", "Region": "Sabah", "Category": "血缘", "PageNumber": 390, "Country": "Malaysia", "latitude": 5.9333724, "longitude": 116.1050341 }, "geometry": { "type": "Point", "coordinates": [ 116.1050341, 5.9333724 ] } },
{ "type": "Feature", "properties": { "Name_CH": "亚庇吴氏公会", "Name_ML": "Persatuan Wu Kota Kinabalu", "Name_EN": "Wu Association Kota Kinabalu, Sabah", "Location": "Bevely Plaza Lot 19, 2 Floor, Jalan Bunduson, I Kota Kinabalu, Sabah.", "Region": "Sabah", "Category": "血缘", "PageNumber": 390, "Country": "Malaysia", "latitude": 5.9367933, "longitude": 116.1018076 }, "geometry": { "type": "Point", "coordinates": [ 116.1018076, 5.9367933 ] } },
{ "type": "Feature", "properties": { "Name_CH": "沙巴州彭城刘氏宗亲会", "Name_ML": "Persatuan Klan Liu Peng-Cheng Sabah", "Name_EN": "Soboh Lius' Clan Peng-Cheng Association", "Location": "Wisma Ys Liewz, Mile 6, Jalan Penampang, P.O.Box 10483, 88300 Kota Kinabalu, Sabah", "Region": "Sabah", "Category": "血缘", "PageNumber": 390, "Country": "Malaysia", "latitude": 5.9523431, "longitude": 116.0786358 }, "geometry": { "type": "Point", "coordinates": [ 116.0786358, 5.9523431 ] } },
{ "type": "Feature", "properties": { "Name_CH": "沙巴州萧氏宗亲会", "Name_ML": "Persatuan Klan Siau Sabah", "Name_EN": "Siau Clan Association", "Location": "H. 140, Taman Fu Yen Lorong Untaz Jalan Luyang, 88300 Kota Kinabalu, Sabah.", "Region": "Sabah", "Category": "血缘", "PageNumber": 390, "Country": "Malaysia", "latitude": 5.962162, "longitude": 116.0854813 }, "geometry": { "type": "Point", "coordinates": [ 116.0854813, 5.962162 ] } },
{ "type": "Feature", "properties": { "Name_CH": "沙巴李氏宗亲会", "Name_ML": null, "Name_EN": "Lee Kinship Association Sabah", "Location": "P.O.Box 12, Taman Antrabonsa, 88300 Kota Kinabalu, Sabah.", "Region": "Sabah", "Category": "血缘", "PageNumber": 390, "Country": "Malaysia", "latitude": 5.9512678, "longitude": 116.081192 }, "geometry": { "type": "Point", "coordinates": [ 116.081192, 5.9512678 ] } },
{ "type": "Feature", "properties": { "Name_CH": "沙巴雅寄杨氏福利会", "Name_ML": "Persatuan Kebajikan Yong Nga Khi Sabah", "Name_EN": null, "Location": "P.O.Box 10196, 38802 Kota Kinabalu, Sabah.", "Region": "Sabah", "Category": "血缘", "PageNumber": 390, "Country": "Malaysia", "latitude": 5.980408, "longitude": 116.0734568 }, "geometry": { "type": "Point", "coordinates": [ 116.0734568, 5.980408 ] } },
{ "type": "Feature", "properties": { "Name_CH": "沙巴颍川堂陈氏宗亲会", "Name_ML": "Persatuan Klan Chen (Ying Chuan) Sabah", "Name_EN": null, "Location": "P.O.Box 12535,88773 Luyang, Kota Kinabalu, Sabah.", "Region": "Sabah", "Category": "血缘", "PageNumber": 390, "Country": "Malaysia", "latitude": 5.962228, "longitude": 116.090253 }, "geometry": { "type": "Point", "coordinates": [ 116.090253, 5.962228 ] } },
{ "type": "Feature", "properties": { "Name_CH": "亚庇清河堂张氏公会", "Name_ML": "Persatuan Klan Zhang Kota Kinabalu", "Name_EN": "Kota Kinabalu Zhang Clan Association", "Location": "P.O.Box 11625, 88817, Kota Kinabalu, Sabah. ", "Region": "Sabah", "Category": "血缘", "PageNumber": 390, "Country": "Malaysia", "latitude": 5.980408, "longitude": 116.0734568 }, "geometry": { "type": "Point", "coordinates": [ 116.0734568, 5.980408 ] } },
{ "type": "Feature", "properties": { "Name_CH": "沙巴州谭氏公会", "Name_ML": "Persatuan Klan Tham", "Name_EN": "Tham Clan Association Sabah", "Location": "P O.Box 157, 89007 Keningau, Sabah.", "Region": "Sabah", "Category": "血缘", "PageNumber": 390, "Country": "Malaysia", "latitude": 5.3374039, "longitude": 116.1566801 }, "geometry": { "type": "Point", "coordinates": [ 116.1566801, 5.3374039 ] } },
{ "type": "Feature", "properties": { "Name_CH": "沙巴亚庇六楼堂宗亲会", "Name_ML": "Persatuan Keturunan Liu Kwee Tang Kota Kinabalu Sabah", "Name_EN": null, "Location": "WDTO. 18, 88856 Likas, Sabah.", "Region": "Sabah", "Category": "血缘", "PageNumber": 390, "Country": "Malaysia", "latitude": 5.995982, "longitude": 116.1115942 }, "geometry": { "type": "Point", "coordinates": [ 116.1115942, 5.995982 ] } },
{ "type": "Feature", "properties": { "Name_CH": "沙巴颍川陈氏宗亲会山打根分会", "Name_ML": "Persatuan Klan Chen (Ying Chuan) Sabah Cawangan Sandakan", "Name_EN": null, "Location": "P.O.Box No. 1603, 90717.Sandakan, Sabah.", "Region": "Sabah", "Category": "血缘", "PageNumber": 390, "Country": "Malaysia", "latitude": 5.839444, "longitude": 118.1171729 }, "geometry": { "type": "Point", "coordinates": [ 118.1171729, 5.839444 ] } }
]
}
