{
"type": "FeatureCollection",
"name": "Category_3",
"crs": { "type": "name", "properties": { "name": "urn:ogc:def:crs:OGC:1.3:CRS84" } },
"features": [
{ "type": "Feature", "properties": { "Name_CH": "保佛乡联益寿会", "Name_ML": "Persatuan Faedah Bersama Hiong Len Yit Shu Beaufort, Sabah", "Name_EN": null, "Location": "Dewan Persatuan Hakka Beaufort, Peti Surat 712, 89808, Beaufort, Sabah.", "Longitude": 115.733366, "Latitude": 5.354651, "Region": "Sabah", "Category": "慈善福利", "PageNumber": "403" }, "geometry": { "type": "Point", "coordinates": [ 115.7334, 5.3547, 115.7334 ] } },
{ "type": "Feature", "properties": { "Name_CH": "保佛福寿互助会", "Name_ML": "Persatuan Faedah Persama Fook Shu Beaufort", "Name_EN": null, "Location": "P.O.Box 1195, 89808 Beaufort, Sabah.", "Longitude": 115.704204, "Latitude": 5.375257, "Region": "Sabah", "Category": "慈善福利", "PageNumber": "403" }, "geometry": { "type": "Point", "coordinates": [ 115.7042, 5.3753, 115.7042 ] } },
{ "type": "Feature", "properties": { "Name_CH": "吧巴里巴古中华义山", "Name_ML": "Perkuburan Cina Libaku Pa par", "Name_EN": null, "Location": "Chung Fook Tong, Libaku. 10-B, Jalan S.M. K. Majakir, 89607 Papar, Sabah.", "Longitude": 115.935618, "Latitude": 5.720643, "Region": "Sabah", "Category": "慈善福利", "PageNumber": "403" }, "geometry": { "type": "Point", "coordinates": [ 115.9356, 5.7206, 115.9356 ] } },
{ "type": "Feature", "properties": { "Name_CH": "吧巴基督教墓园（巴色会\/圣公会\/真耶稣教会）", "Name_ML": null, "Name_EN": "The Christian Cemetery Papar", "Location": "P.O.Box 93, 89608 Pa par, Sabah.", "Longitude": 116.293291, "Latitude": 6.214785, "Region": "Sabah", "Category": "慈善福利", "PageNumber": "403" }, "geometry": { "type": "Point", "coordinates": [ 116.2933, 6.2148, 116.2933 ] } },
{ "type": "Feature", "properties": { "Name_CH": "吧巴中华义山", "Name_ML": "Perkuburan Cina Papar Batu 8Z Kampong Lingan, Papar", "Name_EN": null, "Location": "P.O.Box 209, 89608 Papar Sabah.", "Longitude": 116.293291, "Latitude": 6.214785, "Region": "Sabah", "Category": "慈善福利", "PageNumber": "403" }, "geometry": { "type": "Point", "coordinates": [ 116.2933, 6.2148, 116.2933 ] } },
{ "type": "Feature", "properties": { "Name_CH": "斗湖阿拔士七哩半义山", "Name_ML": "Tanah Perkuburan Batu 7, Jalan Apas Tawau", "Name_EN": null, "Location": "P.O.Box 164, 91007 Tawau, Sabah", "Longitude": null, "Latitude": null, "Region": "Sabah", "Category": "慈善福利", "PageNumber": "404" }, "geometry": { "type": "Point", "coordinates": [ 0.0, 0.0, 0.0 ] } },
{ "type": "Feature", "properties": { "Name_CH": "斗湖华人义山", "Name_ML": "Tonah Perkuburan Tawau.", "Name_EN": null, "Location": "P.O.Box 164, 91007 Tawau, Sabah", "Longitude": null, "Latitude": null, "Region": "Sabah", "Category": "慈善福利", "PageNumber": "404" }, "geometry": { "type": "Point", "coordinates": [ 0.0, 0.0, 0.0 ] } },
{ "type": "Feature", "properties": { "Name_CH": "斗湖华侨协助会", "Name_ML": "Persatuan Pengebumian Hiap Lip Kinabutan Tawau", "Name_EN": null, "Location": "TB 5737, Taman Da Hua 2, 91000 Tawau, Sabah.", "Longitude": 117.890567, "Latitude": 4.246919, "Region": "Sabah", "Category": "慈善福利", "PageNumber": "404" }, "geometry": { "type": "Point", "coordinates": [ 117.8906, 4.2469, 117.8906 ] } },
{ "type": "Feature", "properties": { "Name_CH": "保福佛堂墓园", "Name_ML": null, "Name_EN": "BCCA Beaufort Graveyard", "Location": "P.O.Box No.33, 89807 Beaufort, Sabah.", "Longitude": 115.704204, "Latitude": 5.375257, "Region": "Sabah", "Category": "慈善福利", "PageNumber": "404" }, "geometry": { "type": "Point", "coordinates": [ 115.7042, 5.3753, 115.7042 ] } },
{ "type": "Feature", "properties": { "Name_CH": "兵南邦华人福利会（义山）", "Name_ML": null, "Name_EN": "Penampang Chinese Welfare Society Cemetery", "Location": "P.O.Box 13315, 88837 Kota Kinabalu, Sabah.", "Longitude": 116.108811, "Latitude": 5.999236, "Region": "Sabah", "Category": "慈善福利", "PageNumber": "404" }, "geometry": { "type": "Point", "coordinates": [ 116.1088, 5.9992, 116.1088 ] } },
{ "type": "Feature", "properties": { "Name_CH": "打里卜华人福寿会", "Name_ML": null, "Name_EN": "Telipok Chinese Public Cemetery Board", "Location": "P.O.Box 99, 88450 Telipok, Kota Kinabalu, Sabah.", "Longitude": 116.108811, "Latitude": 5.999236, "Region": "Sabah", "Category": "慈善福利", "PageNumber": "404" }, "geometry": { "type": "Point", "coordinates": [ 116.1088, 5.9992, 116.1088 ] } },
{ "type": "Feature", "properties": { "Name_CH": "丹南安达湾华人义山", "Name_ML": "Kuburan Cina Kg. Entabuan, Tenom", "Name_EN": null, "Location": "P.O.Box 134, 89907 Tenom, Sabah.", "Longitude": 116.293291, "Latitude": 6.214785, "Region": "Sabah", "Category": "慈善福利", "PageNumber": "404" }, "geometry": { "type": "Point", "coordinates": [ 116.2933, 6.2148, 116.2933 ] } },
{ "type": "Feature", "properties": { "Name_CH": "丹南珍达玛达中华义山", "Name_ML": "Kuburan Chung Hwa Yee San Tenom", "Name_EN": null, "Location": "P.O.Box 59, 89907 Tenom, Sabah.", "Longitude": 116.293291, "Latitude": 6.214785, "Region": "Sabah", "Category": "慈善福利", "PageNumber": "404" }, "geometry": { "type": "Point", "coordinates": [ 116.2933, 6.2148, 116.2933 ] } },
{ "type": "Feature", "properties": { "Name_CH": "丹南中华商会义山小组", "Name_ML": "Dewan Perniagaan Tionghua (AJK Perkuburan Tenom)", "Name_EN": null, "Location": "P.O.Box 22, 89907 Tenom, Sabah.", "Longitude": 116.293291, "Latitude": 6.214785, "Region": "Sabah", "Category": "慈善福利", "PageNumber": "404" }, "geometry": { "type": "Point", "coordinates": [ 116.2933, 6.2148, 116.2933 ] } },
{ "type": "Feature", "properties": { "Name_CH": "担波罗里众福堂人寿会", "Name_ML": "Persatuan Chung Fook Tong Tamparuli", "Name_EN": null, "Location": "P.O.Box 139, 89257 Tamparuli, Sabah.", "Longitude": 116.293291, "Latitude": 6.214785, "Region": "Sabah", "Category": "慈善福利", "PageNumber": "404" }, "geometry": { "type": "Point", "coordinates": [ 116.2933, 6.2148, 116.2933 ] } },
{ "type": "Feature", "properties": { "Name_CH": "斗湖安平福利社", "Name_ML": null, "Name_EN": "Tawau Onn Ping Sha Association", "Location": "P.O.Box 60185, Tawau, Sabah.", "Longitude": 116.293291, "Latitude": 6.214785, "Region": "Sabah", "Category": "慈善福利", "PageNumber": "404" }, "geometry": { "type": "Point", "coordinates": [ 116.2933, 6.2148, 116.2933 ] } },
{ "type": "Feature", "properties": { "Name_CH": "斗湖丹绒巴都义山", "Name_ML": "Tanah Perkuburan Kg. Tanjung Batu Tawau", "Name_EN": null, "Location": null, "Longitude": null, "Latitude": null, "Region": "Sabah", "Category": "慈善福利", "PageNumber": "404" }, "geometry": null },
{ "type": "Feature", "properties": { "Name_CH": "马来西亚基督教巴色会山打根区会西埔架墓园", "Name_ML": null, "Name_EN": "BCCM Sandakan Parish Sibuga Cemetery", "Location": "P.O.Box No.1100, 90712 Sandakan Sabah.", "Longitude": 118.068549, "Latitude": 5.865902, "Region": "Sabah", "Category": "慈善福利", "PageNumber": "405" }, "geometry": { "type": "Point", "coordinates": [ 118.0685, 5.8659, 118.0685 ] } },
{ "type": "Feature", "properties": { "Name_CH": "斗亚兰中华商会属下华人义山", "Name_ML": null, "Name_EN": "Tuaran Chinese Chamber Of Commerce Cemetery Management Committee", "Location": "2nd Floor, Lot 12, Block 4, Jalan Teo Teck Ong, P.O.Box 37, 89207 Tuaran, Sabah.", "Longitude": 116.077171, "Latitude": 5.927755, "Region": "Sabah", "Category": "慈善福利", "PageNumber": "405" }, "geometry": { "type": "Point", "coordinates": [ 116.0772, 5.9278, 116.0772 ] } },
{ "type": "Feature", "properties": { "Name_CH": "根地咬中华义山", "Name_ML": "Perkuburan Cina Keningau", "Name_EN": null, "Location": "Lot 7,8,9, Sri Padasa Keningau, P.O.Box 14, 89007, Keningau, Sabah.", "Longitude": 116.079832, "Latitude": 5.940064, "Region": "Sabah", "Category": "慈善福利", "PageNumber": "405" }, "geometry": { "type": "Point", "coordinates": [ 116.0798, 5.9401, 116.0798 ] } },
{ "type": "Feature", "properties": { "Name_CH": "哥打马鲁都中华义山", "Name_ML": "Perkuburan Cina Kota Marudu", "Name_EN": null, "Location": "Lot 6, Block A, Bangunan Haxan,Kota Marudu. P.O.Box 357, 89108 Kota Kinabalu, Sabah.", "Longitude": 116.079702, "Latitude": 5.940153, "Region": "Sabah", "Category": "慈善福利", "PageNumber": "405" }, "geometry": { "type": "Point", "coordinates": [ 116.0797, 5.9402, 116.0797 ] } },
{ "type": "Feature", "properties": { "Name_CH": "京那律华人义山", "Name_ML": "Perkuburan Cina Kinarut", "Name_EN": null, "Location": "Kefai No 5, Kinarut Sabah, 89608 Papar Sabah.", "Longitude": 116.079068, "Latitude": 5.944139, "Region": "Sabah", "Category": "慈善福利", "PageNumber": "405" }, "geometry": { "type": "Point", "coordinates": [ 116.0791, 5.9441, 116.0791 ] } },
{ "type": "Feature", "properties": { "Name_CH": "马来西亚基督教巴色会德里福堂", "Name_ML": null, "Name_EN": "Basel Christian Church Of Malaysia, Telipok", "Location": "Mile 15, Jalan Tuaran, Telipok, Kota Kinabalu, Sabah .", "Longitude": 116.108811, "Latitude": 5.999236, "Region": "Sabah", "Category": "慈善福利", "PageNumber": "405" }, "geometry": { "type": "Point", "coordinates": [ 116.1088, 5.9992, 116.1088 ] } },
{ "type": "Feature", "properties": { "Name_CH": "古达福建义山", "Name_ML": "Kudat Hokkien Cemetery", "Name_EN": null, "Location": "P.O.Box 39, 89057 Kudat Sabah.", "Longitude": 116.293291, "Latitude": 6.214785, "Region": "Sabah", "Category": "慈善福利", "PageNumber": "405" }, "geometry": { "type": "Point", "coordinates": [ 116.2933, 6.2148, 116.2933 ] } },
{ "type": "Feature", "properties": { "Name_CH": "古打毛律中华义山（1），（2）&（3）", "Name_ML": "Kuburan Cina (1),(2) & (3) Kota Belud", "Name_EN": null, "Location": "P.O.Box 66, 89157 Kota Belud, Sabah.", "Longitude": 116.293291, "Latitude": 6.214785, "Region": "Sabah", "Category": "慈善福利", "PageNumber": "405" }, "geometry": { "type": "Point", "coordinates": [ 116.2933, 6.2148, 116.2933 ] } },
{ "type": "Feature", "properties": { "Name_CH": "古纳华人福寿会", "Name_ML": "Persatuan Faedah Bersama China Fook Siew Kunak", "Name_EN": null, "Location": "P.O.Box 108, 91209 Kunak, Sabah.", "Longitude": 116.293291, "Latitude": 6.214785, "Region": "Sabah", "Category": "慈善福利", "PageNumber": "405" }, "geometry": { "type": "Point", "coordinates": [ 116.2933, 6.2148, 116.2933 ] } },
{ "type": "Feature", "properties": { "Name_CH": "马来西亚基督教巴色会孟加达堂墓园", "Name_ML": null, "Name_EN": "BCCM Menggatal Cemetery", "Location": "P.O.Box No.455, Menggatal 88450 Kota Kinabalu, Sabah.", "Longitude": 116.293291, "Latitude": 6.214785, "Region": "Sabah", "Category": "慈善福利", "PageNumber": "405" }, "geometry": { "type": "Point", "coordinates": [ 116.2933, 6.2148, 116.2933 ] } },
{ "type": "Feature", "properties": { "Name_CH": "古达巴色会埠堂墓园", "Name_ML": null, "Name_EN": "Basel Cemetery Kudat Town", "Location": "P.O.Box No.61, Kudat Sabah.", "Longitude": 116.84469, "Latitude": 6.903964, "Region": "Sabah", "Category": "慈善福利", "PageNumber": "405" }, "geometry": { "type": "Point", "coordinates": [ 116.8447, 6.904, 116.8447 ] } },
{ "type": "Feature", "properties": { "Name_CH": "老山巴色会墓园", "Name_ML": null, "Name_EN": "BCCM Lau San Cemetery Kudat", "Location": "P.O.Box No.110, 89057 Kudat, Sabah.", "Longitude": 116.84469, "Latitude": 6.903964, "Region": "Sabah", "Category": "慈善福利", "PageNumber": "405" }, "geometry": { "type": "Point", "coordinates": [ 116.8447, 6.904, 116.8447 ] } },
{ "type": "Feature", "properties": { "Name_CH": "纳闽文华狮子会", "Name_ML": null, "Name_EN": "The Lions Club Of Labuan Mandarin", "Location": "Lot A2, Manmohan' s Warehouse, Jalan Patau-Patau, 87007 W.P.Labuan.", "Longitude": 103.124655, "Latitude": 3.721557, "Region": "Sabah", "Category": "慈善福利", "PageNumber": "406" }, "geometry": { "type": "Point", "coordinates": [ 103.1247, 3.7216, 103.1247 ] } },
{ "type": "Feature", "properties": { "Name_CH": "拿笃埠旧华人义山", "Name_ML": null, "Name_EN": "Lahad Datu Old Chinese Cemetery", "Location": "P.O.Box 60170, 91100 Lahad Datu, Sabah.", "Longitude": 118.294759, "Latitude": 5.028548, "Region": "Sabah", "Category": "慈善福利", "PageNumber": "406" }, "geometry": { "type": "Point", "coordinates": [ 118.2948, 5.0285, 118.2948 ] } },
{ "type": "Feature", "properties": { "Name_CH": "拿笃中华义山（诗南路）", "Name_ML": "Lahad Datu New Chinese Cemetery(Jalan Silam)", "Name_EN": null, "Location": "P.O.Box 60170, 91100 Lahad Datu, Sabah.", "Longitude": 118.294759, "Latitude": 5.028548, "Region": "Sabah", "Category": "慈善福利", "PageNumber": "406" }, "geometry": { "type": "Point", "coordinates": [ 118.2948, 5.0285, 118.2948 ] } },
{ "type": "Feature", "properties": { "Name_CH": "山打根北部扶轮社", "Name_ML": null, "Name_EN": "Rotary Club Of Sandakan North", "Location": "P.O.Box 2032, 90723 Sandakan, Sabah.", "Longitude": 118.068549, "Latitude": 5.865902, "Region": "Sabah", "Category": "慈善福利", "PageNumber": "406" }, "geometry": { "type": "Point", "coordinates": [ 118.0685, 5.8659, 118.0685 ] } },
{ "type": "Feature", "properties": { "Name_CH": "山打根福建互助会", "Name_ML": null, "Name_EN": "The Hockien Benevolent Society", "Location": "P.O.Box 3486,90739 Sandakan, Sabah", "Longitude": 118.068549, "Latitude": 5.865902, "Region": "Sabah", "Category": "慈善福利", "PageNumber": "406" }, "geometry": { "type": "Point", "coordinates": [ 118.0685, 5.8659, 118.0685 ] } },
{ "type": "Feature", "properties": { "Name_CH": "马来西亚基督教巴色会下南南墓园", "Name_ML": null, "Name_EN": "BCCM Inanam Cemetery", "Location": "Batu 1\/2, Jalan Kiansom Inanam. P.O.Box A429, 89357 Inanam, Sabah.", "Longitude": 116.1321, "Latitude": 5.9922, "Region": "Sabah", "Category": "慈善福利", "PageNumber": "406" }, "geometry": { "type": "Point", "coordinates": [ 116.1321, 5.9922, 116.1321 ] } },
{ "type": "Feature", "properties": { "Name_CH": "马来西亚基督教巴色会亚庇堂墓园", "Name_ML": null, "Name_EN": "The Basel Christian Church of Malaysia, Kota Kinabalu Cemetery", "Location": "P.O.Box 10188, 88802 Kota Kinabalu, Sabah.", "Longitude": 116.108811, "Latitude": 5.999236, "Region": "Sabah", "Category": "慈善福利", "PageNumber": "406" }, "geometry": { "type": "Point", "coordinates": [ 116.1088, 5.9992, 116.1088 ] } },
{ "type": "Feature", "properties": { "Name_CH": "拿笃育才长寿互助会", "Name_ML": "Pertubuhan Faedah Bersama Chong Shu Kampung Yuk Choi", "Name_EN": null, "Location": "P.O.Box 60331, 91112, Lahad Datu Miles 3,Jalan Segama, Lahad Datu, Sabah.", "Longitude": 116.293291, "Latitude": 6.214785, "Region": "Sabah", "Category": "慈善福利", "PageNumber": "406" }, "geometry": { "type": "Point", "coordinates": [ 116.2933, 6.2148, 116.2933 ] } },
{ "type": "Feature", "properties": { "Name_CH": "纳闽福建义山理事会", "Name_ML": "Suruhanjaya Tanah Perkuburan Masyarakat Hokkien W.P.Labuan", "Name_EN": null, "Location": "P.O.Box 126, 87008 W.P.Labuan", "Longitude": 116.293291, "Latitude": 6.214785, "Region": "Sabah", "Category": "慈善福利", "PageNumber": "406" }, "geometry": { "type": "Point", "coordinates": [ 116.2933, 6.2148, 116.2933 ] } },
{ "type": "Feature", "properties": { "Name_CH": "纳闽广东义山", "Name_ML": null, "Name_EN": "Guangdong Cemetery Affairs Committee", "Location": "P.O.Box 28, 87008 W.P.Labuan.", "Longitude": 116.293291, "Latitude": 6.214785, "Region": "Sabah", "Category": "慈善福利", "PageNumber": "406" }, "geometry": { "type": "Point", "coordinates": [ 116.2933, 6.2148, 116.2933 ] } },
{ "type": "Feature", "properties": { "Name_CH": "沙巴丹南文华狮子会", "Name_ML": "Kelab Lion Mandarin TenomSabah", "Name_EN": "The Lion Club Of Tenom Sabah", "Location": "P.O.Box 393, 89008 Keningau , Sabah.", "Longitude": 116.293291, "Latitude": 6.214785, "Region": "Sabah", "Category": "慈善福利", "PageNumber": "406" }, "geometry": { "type": "Point", "coordinates": [ 116.2933, 6.2148, 116.2933 ] } },
{ "type": "Feature", "properties": { "Name_CH": "沙巴州亚庇福州公会义山", "Name_ML": "Persatuan Foo Chow Cemetery Kota Kinabalu", "Name_EN": null, "Location": null, "Longitude": null, "Latitude": null, "Region": "Sabah", "Category": "慈善福利", "PageNumber": "406" }, "geometry": null },
{ "type": "Feature", "properties": { "Name_CH": "乌鲁沙拔同福堂", "Name_ML": "Tung Fook Tong Ulu Sapat.", "Name_EN": null, "Location": "Kedai No.78 7\/B, Bandaran Okk Hj. Mohali, 89600 Papar, Sabah", "Longitude": null, "Latitude": null, "Region": "Sabah", "Category": "慈善福利", "PageNumber": "407" }, "geometry": { "type": "Point", "coordinates": [ 0.0, 0.0, 0.0 ] } },
{ "type": "Feature", "properties": { "Name_CH": "天主教义山", "Name_ML": null, "Name_EN": "The Registered Trustee of The Diocese of Kota Kinabalu", "Location": "P.O.Box 10049, 88800 Kota Kinabalu, Sabah.", "Longitude": 116.108811, "Latitude": 5.999236, "Region": "Sabah", "Category": "慈善福利", "PageNumber": "407" }, "geometry": { "type": "Point", "coordinates": [ 116.1088, 5.9992, 116.1088 ] } },
{ "type": "Feature", "properties": { "Name_CH": "亚庇恩惠堂墓园", "Name_ML": null, "Name_EN": "Grace Chapel Cemetery Kota Kinabalu Jalan Kolam, Luyang, Kota Kinabalu, Sabah.", "Location": "P.O.Box 21811 Luyang, Kota Kinabalu, Sabah.", "Longitude": 116.108811, "Latitude": 5.999236, "Region": "Sabah", "Category": "慈善福利", "PageNumber": "407" }, "geometry": { "type": "Point", "coordinates": [ 116.1088, 5.9992, 116.1088 ] } },
{ "type": "Feature", "properties": { "Name_CH": "亚庇客家公会人寿互助股义山", "Name_ML": null, "Name_EN": "Buriol Ground (Cemetery) Of The Life Mutual Aid Division Of Kota Kinabalu Hakka Association Papar", "Location": "P.O.Box 10158, 88801 Kota Kinabalu, Sabah.", "Longitude": 116.108811, "Latitude": 5.999236, "Region": "Sabah", "Category": "慈善福利", "PageNumber": "407" }, "geometry": { "type": "Point", "coordinates": [ 116.1088, 5.9992, 116.1088 ] } },
{ "type": "Feature", "properties": { "Name_CH": "山打根中华商会华人义山", "Name_ML": null, "Name_EN": "Cemetery Of Sandakan Chinese Chamber Of Commerce", "Location": "P.O.Box 161, 90702 Sandakan, Sabah.", "Longitude": 116.293291, "Latitude": 6.214785, "Region": "Sabah", "Category": "慈善福利", "PageNumber": "407" }, "geometry": { "type": "Point", "coordinates": [ 116.2933, 6.2148, 116.2933 ] } },
{ "type": "Feature", "properties": { "Name_CH": "文那纳华人义山", "Name_ML": null, "Name_EN": "Chinese Cemetery Melalap", "Location": "P.O.Box 27, Tenom, Sabah", "Longitude": 116.293291, "Latitude": 6.214785, "Region": "Sabah", "Category": "慈善福利", "PageNumber": "407" }, "geometry": { "type": "Point", "coordinates": [ 116.2933, 6.2148, 116.2933 ] } },
{ "type": "Feature", "properties": { "Name_CH": "亚庇文华国际狮子会", "Name_ML": null, "Name_EN": "Lion Club Of Kota Kinabalu", "Location": "P.O.Box 22717, 88787 Luyang Kota Kinabalu, Sabah.", "Longitude": 116.293291, "Latitude": 6.214785, "Region": "Sabah", "Category": "慈善福利", "PageNumber": "407" }, "geometry": { "type": "Point", "coordinates": [ 116.2933, 6.2148, 116.2933 ] } },
{ "type": "Feature", "properties": { "Name_CH": "西加地巴色会墓园", "Name_ML": null, "Name_EN": "BCCA Cemetery Siquoti, Kudat", "Location": "P.O.Box No.583, 89058 Kudat Sabah.", "Longitude": 116.84469, "Latitude": 6.903964, "Region": "Sabah", "Category": "慈善福利", "PageNumber": "407" }, "geometry": { "type": "Point", "coordinates": [ 116.8447, 6.904, 116.8447 ] } }
]
}
