{
"type": "FeatureCollection",
"name": "Region_11",
"crs": { "type": "name", "properties": { "name": "urn:ogc:def:crs:OGC:1.3:CRS84" } },
"features": [
{ "type": "Feature", "properties": { "Name_CH": "吉玻广西会馆", "Name_ML": "Perdatuan Kwang Sai Association", "Name_EN": null, "Location": "1 Jalan Petani, Sungai Petani, Kedah.", "Longitude": 100.4834508, "Latitude": 5.634133, "Region": "Kedah", "Category": "地缘", "PageNumber": "41" }, "geometry": { "type": "Point", "coordinates": [ 100.4835, 5.6341, 100.4835 ] } },
{ "type": "Feature", "properties": { "Name_CH": "双溪大年华人注册社团联合会", "Name_ML": "Gabungan Persatuan Orang-Orang China", "Name_EN": "Sungai Petani Kedah", "Location": "21 Jalan Merbok, 08000 Sungai Petani, Kedah.", "Longitude": 100.486279, "Latitude": 5.6404689, "Region": "Kedah", "Category": "综合", "PageNumber": "41" }, "geometry": { "type": "Point", "coordinates": [ 100.4863, 5.6405, 100.4863 ] } },
{ "type": "Feature", "properties": { "Name_CH": "吉打州华人大会堂", "Name_ML": "Dewan Perhimpunan Cina Keda", "Name_EN": "Kedah Chinese Assembly Hall", "Location": "8, Jalan Tanjung Bendahara, 05300 Alor Setae Kedah.", "Longitude": 100.37, "Latitude": 6.1018647, "Region": "Kedah", "Category": "综合", "PageNumber": "41" }, "geometry": { "type": "Point", "coordinates": [ 100.37, 6.1019, 100.37 ] } },
{ "type": "Feature", "properties": { "Name_CH": "吉玻惠安公会", "Name_ML": "Persatuan Hui Aun Kedah \/ Perlis", "Name_EN": null, "Location": "51. KLM. Kampong Perak, 05100 Alor Star, Kedah.  ", "Longitude": 100.363888, "Latitude": 6.121473, "Region": "Kedah", "Category": "地缘", "PageNumber": "41" }, "geometry": { "type": "Point", "coordinates": [ 100.3639, 6.1215, 100.3639 ] } },
{ "type": "Feature", "properties": { "Name_CH": "吉玻潮州会馆", "Name_ML": "Persatuan Teochew Kedah \/ Perlis", "Name_EN": null, "Location": "27-B, Lebuhraya Darul Aman, 05000 Alor Setar, Kedah.", "Longitude": 100.3670486, "Latitude": 6.1225038, "Region": "Kedah", "Category": "地缘", "PageNumber": "41" }, "geometry": { "type": "Point", "coordinates": [ 100.367, 6.1225, 100.367 ] } },
{ "type": "Feature", "properties": { "Name_CH": "吉玻海南会馆", "Name_ML": "Persatuan Hainan Kedah \/ Perlis", "Name_EN": "Hainan Association, Kedah And Perlis", "Location": "36, Jalan Putra, 05100 Alor Setar, Kedah.", "Longitude": 100.3631808, "Latitude": 6.1228432, "Region": "Kedah", "Category": "地缘", "PageNumber": "41" }, "geometry": { "type": "Point", "coordinates": [ 100.3632, 6.1228, 100.3632 ] } },
{ "type": "Feature", "properties": { "Name_CH": "吉玻海南会馆", "Name_ML": "Persatuan Hainan Kedah \/ Perlis", "Name_EN": "Hainan Association, Kedah And Perlis", "Location": "36, Jalan Putra, 05100 Alor Setar, Kedah.", "Longitude": 100.3631808, "Latitude": 6.1228432, "Region": "Kedah", "Category": "地缘", "PageNumber": "41" }, "geometry": { "type": "Point", "coordinates": [ 100.3632, 6.1228, 100.3632 ] } },
{ "type": "Feature", "properties": { "Name_CH": "吉玻福莆仙同乡会", "Name_ML": "Kedah \/ Perlis Hock Phor Sean Association", "Name_EN": null, "Location": "40, Jalan Putra, 05100 Alor Star, Kedah.", "Longitude": 100.3621919, "Latitude": 6.123256, "Region": "Kedah", "Category": "地缘", "PageNumber": "41" }, "geometry": { "type": "Point", "coordinates": [ 100.3622, 6.1233, 100.3622 ] } },
{ "type": "Feature", "properties": { "Name_CH": "吉玻惠州会馆", "Name_ML": "Persatuan Fui Chiu Kedah\/Perlis Chen & Association", "Name_EN": null, "Location": "68 Komplek Alor Malai Batu 2, Jalang Langgar, 054460 Alor Setar, Kedah.", "Longitude": 100.3890951, "Latitude": 6.1308965, "Region": "Kedah", "Category": "地缘", "PageNumber": "41" }, "geometry": { "type": "Point", "coordinates": [ 100.3891, 6.1309, 100.3891 ] } },
{ "type": "Feature", "properties": { "Name_CH": "浮罗交怡海南会馆", "Name_ML": "Persatuan Hainan Langkawi Kedah", "Name_EN": null, "Location": "1 Pekan Kuah, 07000 Langkawi, Kedah.", "Longitude": 99.8439119, "Latitude": 6.3265033, "Region": "Kedah", "Category": "地缘", "PageNumber": "41" }, "geometry": { "type": "Point", "coordinates": [ 99.8439, 6.3265, 99.8439 ] } },
{ "type": "Feature", "properties": { "Name_CH": "浮罗交怡福建会馆", "Name_ML": "Pulau Langkawi Hokkien Association", "Name_EN": null, "Location": "217, Taman Langkawai, Mukim Kuahz 07000 Pulau Langkawi, Kedah.", "Longitude": 99.8, "Latitude": 6.35, "Region": "Kedah", "Category": "地缘", "PageNumber": "41" }, "geometry": { "type": "Point", "coordinates": [ 99.8, 6.35, 99.8 ] } },
{ "type": "Feature", "properties": { "Name_CH": "吉南福建公会", "Name_ML": "Persatuan Hokkien Kedah Selatan", "Name_EN": "South Kedah Hokkien Association", "Location": "291, Jalan Pasar, 09000 Kulim, Kedah.", "Longitude": 100.5556366, "Latitude": 5.3694705, "Region": "Kedah", "Category": "地缘", "PageNumber": "42" }, "geometry": { "type": "Point", "coordinates": [ 100.5556, 5.3695, 100.5556 ] } },
{ "type": "Feature", "properties": { "Name_CH": "吉打永大会馆", "Name_ML": "Persatuan Yoon Thai", "Name_EN": "Yoon Thai Association", "Location": "99, Pekan China, 05000 Alor Setar, Kedah.", "Longitude": 100.363097, "Latitude": 6.117492, "Region": "Kedah", "Category": "地缘", "PageNumber": "42" }, "geometry": { "type": "Point", "coordinates": [ 100.3631, 6.1175, 100.3631 ] } },
{ "type": "Feature", "properties": { "Name_CH": "吉打广东暨汀州会馆", "Name_ML": "Persatuan Kwangtung & Tengchow Kedah", "Name_EN": null, "Location": "24-A, Jalan Pengkalan Kapal 05000 Alor Setae Kedah.", "Longitude": 100.3680364, "Latitude": 6.1169404, "Region": "Kedah", "Category": "地缘", "PageNumber": "42" }, "geometry": { "type": "Point", "coordinates": [ 100.368, 6.1169, 100.368 ] } },
{ "type": "Feature", "properties": { "Name_CH": "吉打福建公会", "Name_ML": "Persatuan Hokkien Kedah", "Name_EN": "Kedah Hokkien Association", "Location": "189-191, (Tingkat Satu), Jalan Penjara Lama, 05000 Alor Star, Kedah.", "Longitude": 100.3643947, "Latitude": 6.1172751, "Region": "Kedah", "Category": "地缘", "PageNumber": "42" }, "geometry": { "type": "Point", "coordinates": [ 100.3644, 6.1173, 100.3644 ] } },
{ "type": "Feature", "properties": { "Name_CH": "吉打漳泉公所", "Name_ML": "Kedah Chang Chuan Kong Sor", "Name_EN": null, "Location": "190, Jalan Penjara Lama, 05000 Alor Star, Kedah.", "Longitude": 100.3640173, "Latitude": 6.117623, "Region": "Kedah", "Category": "地缘", "PageNumber": "42" }, "geometry": { "type": "Point", "coordinates": [ 100.364, 6.1176, 100.364 ] } },
{ "type": "Feature", "properties": { "Name_CH": "吉打客家公会", "Name_ML": "Persatuan Hakka Kedah", "Name_EN": null, "Location": "2-B , Jalan Kampong Perak, 05100 Alor Star, Kedah.", "Longitude": 100.3646997, "Latitude": 6.1210698, "Region": "Kedah", "Category": "地缘", "PageNumber": "42" }, "geometry": { "type": "Point", "coordinates": [ 100.3647, 6.1211, 100.3647 ] } },
{ "type": "Feature", "properties": { "Name_CH": "吉玻台山会馆", "Name_ML": "Persatuan Orang Orang Toishan Kedah \/ Perlis Toishan Association Kedah And Perlis", "Name_EN": null, "Location": "2-C, Kampong Baru, 05000 Alor Star, Kedah.", "Longitude": 100.3675918, "Latitude": 6.1218631, "Region": "Kedah", "Category": "地缘", "PageNumber": "42" }, "geometry": { "type": "Point", "coordinates": [ 100.3676, 6.1219, 100.3676 ] } },
{ "type": "Feature", "properties": { "Name_CH": "吉打中山公会", "Name_ML": "Persatuan Chung Sun", "Name_EN": "Chung Sun Association", "Location": "65, Jalan Putra 05100, Alor Star, Kedah.", "Longitude": 100.3628097, "Latitude": 6.1229942, "Region": "Kedah", "Category": "地缘", "PageNumber": "42" }, "geometry": { "type": "Point", "coordinates": [ 100.3628, 6.123, 100.3628 ] } },
{ "type": "Feature", "properties": { "Name_CH": "吉玻南安会馆", "Name_ML": "Persatuan Nan Ann Kedah\/Perlis", "Name_EN": "The Nan Ann Association Kedah\/Perlis", "Location": "169-D, Jalan Putra 05100 Alor Star, Kedah.", "Longitude": 100.3605645, "Latitude": 6.1239428, "Region": "Kedah", "Category": "地缘", "PageNumber": "42" }, "geometry": { "type": "Point", "coordinates": [ 100.3606, 6.1239, 100.3606 ] } },
{ "type": "Feature", "properties": { "Name_CH": "吉玻晋江会馆", "Name_ML": "Persatuan Chin Kang Kedah\/Perlis", "Name_EN": null, "Location": "3B,C Tingkat 1, Jalan Gangsa, Seberang Jalan Putra, 05150 Alor Star, Kedah.", "Longitude": 100.3581289, "Latitude": 6.1265935, "Region": "Kedah", "Category": "地缘", "PageNumber": "42" }, "geometry": { "type": "Point", "coordinates": [ 100.3581, 6.1266, 100.3581 ] } },
{ "type": "Feature", "properties": { "Name_CH": "吉玻龙答同乡会", "Name_ML": "Persatuan Lungyen Kedah \/ Perlis", "Name_EN": null, "Location": "750, Lebuhraya Darul Aman, 05000 Alor Setar, Kedah.", "Longitude": 100.3683117, "Latitude": 6.1317004, "Region": "Kedah", "Category": "地缘", "PageNumber": "42" }, "geometry": { "type": "Point", "coordinates": [ 100.3683, 6.1317, 100.3683 ] } },
{ "type": "Feature", "properties": { "Name_CH": "吉打州福州会馆", "Name_ML": "Persatuan Foochow Kedah", "Name_EN": "Kedah Foochow Association", "Location": "785, Jalan Langgar, 05460 Alor Star, Kedah.", "Longitude": 100.4198472, "Latitude": 6.1486921, "Region": "Kedah", "Category": "地缘", "PageNumber": "42" }, "geometry": { "type": "Point", "coordinates": [ 100.4198, 6.1487, 100.4198 ] } },
{ "type": "Feature", "properties": { "Name_CH": "吉南嘉应五属同乡会", "Name_ML": "Persatuan Kah Yin Kedah Selatan", "Name_EN": null, "Location": "52, Jalan Raya, 09000 Kulim, Kedah.", "Longitude": 100.5539893, "Latitude": 5.366648, "Region": "Kedah", "Category": "地缘", "PageNumber": "43" }, "geometry": { "type": "Point", "coordinates": [ 100.554, 5.3666, 100.554 ] } },
{ "type": "Feature", "properties": { "Name_CH": "吉南韩江公会", "Name_ML": "Persatuan Hang Kang Kedah Selatan ", "Name_EN": null, "Location": "29 Jalan Ray, Kulim, Kedah.", "Longitude": 100.5552646, "Latitude": 5.3680671, "Region": "Kedah", "Category": "地缘", "PageNumber": "43" }, "geometry": { "type": "Point", "coordinates": [ 100.5553, 5.3681, 100.5553 ] } },
{ "type": "Feature", "properties": { "Name_CH": "吉南广惠肇会馆", "Name_ML": "Persatuan Kwong Wai Slew Kedah Selatan", "Name_EN": null, "Location": "30, Jalan Raya, 09000 Kulim, Kedah.", "Longitude": 100.5551418, "Latitude": 5.368179, "Region": "Kedah", "Category": "地缘", "PageNumber": "43" }, "geometry": { "type": "Point", "coordinates": [ 100.5551, 5.3682, 100.5551 ] } },
{ "type": "Feature", "properties": { "Name_CH": "吉属高州会馆", "Name_ML": "Kedah Koh Chow Wooi Koon", "Name_EN": null, "Location": "287-M, Jalan Aman ,09000 Kulim, Kedah.", "Longitude": 100.554537, "Latitude": 5.370651, "Region": "Kedah", "Category": "地缘", "PageNumber": "43" }, "geometry": { "type": "Point", "coordinates": [ 100.5545, 5.3707, 100.5545 ] } },
{ "type": "Feature", "properties": { "Name_CH": "吉南客家公会", "Name_ML": "Persatuan Kaum Orang-Orang Hakka Kedah Selatan", "Name_EN": "South Kedah Hakka Community Association", "Location": "1125-1126, Lorong Belibis 1\/1, Taman Tunku Putra, 09000 Kulim, Kedah.", "Longitude": 100.5582809, "Latitude": 5.3736648, "Region": "Kedah", "Category": "地缘", "PageNumber": "43" }, "geometry": { "type": "Point", "coordinates": [ 100.5583, 5.3737, 100.5583 ] } },
{ "type": "Feature", "properties": { "Name_CH": "吉中福建会馆", "Name_ML": "Hokkien Association Central Kedah", "Name_EN": null, "Location": "1G, 1st Floor, Jalan Kampung Baru, 08000 Sungai Petani, Kedah.", "Longitude": 100.486348, "Latitude": 5.635983, "Region": "Kedah", "Category": "地缘", "PageNumber": "43" }, "geometry": { "type": "Point", "coordinates": [ 100.4863, 5.636, 100.4863 ] } },
{ "type": "Feature", "properties": { "Name_CH": "吉中客家公会", "Name_ML": "Persatuan Hakka Kedah Tengah", "Name_EN": null, "Location": "20 Jalan Merbok, 08000 Sungai Petani, Kedah.", "Longitude": 100.486228, "Latitude": 5.6404679, "Region": "Kedah", "Category": "地缘", "PageNumber": "43" }, "geometry": { "type": "Point", "coordinates": [ 100.4862, 5.6405, 100.4862 ] } },
{ "type": "Feature", "properties": { "Name_CH": "吉玻嘉应会馆", "Name_ML": "Persatuan Kah Yin Kedah\/Perlis", "Name_EN": "Kedah Perlis Kah Yin Association", "Location": "115, Jalan Langgar, 05460, Alor Star, Kedah.", "Longitude": 100.3707448, "Latitude": 6.1169556, "Region": "Kedah", "Category": "地缘", "PageNumber": "43" }, "geometry": { "type": "Point", "coordinates": [ 100.3707, 6.117, 100.3707 ] } },
{ "type": "Feature", "properties": { "Name_CH": "吉玻江夏堂黄氏宗祠", "Name_ML": "Persatuan Kang Har Tong (Ooi Si Chong Soo) Kedah \/ Perlis", "Name_EN": null, "Location": "10-G, Jalan Datuk Syed Omar, Seberang, Jalan Putra, 05150 Alor Setar, Kedah.", "Longitude": 100.3853782, "Latitude": 6.124713, "Region": "Kedah", "Category": "血缘", "PageNumber": "43" }, "geometry": { "type": "Point", "coordinates": [ 100.3854, 6.1247, 100.3854 ] } },
{ "type": "Feature", "properties": { "Name_CH": "吉玻关氏延陵堂", "Name_ML": "Pertubuhan Keturunan Goh' s(Ean Leng Tong)", "Name_EN": "Kedah Perlis", "Location": "50 Taman Thean Peng Seberang, Jalan Putra, 05150 Alor Setae Kedah.", "Longitude": 100.3441771, "Latitude": 6.13352, "Region": "Kedah", "Category": "血缘", "PageNumber": "43" }, "geometry": { "type": "Point", "coordinates": [ 100.3442, 6.1335, 100.3442 ] } },
{ "type": "Feature", "properties": { "Name_CH": "吉南琼崖同乡会", "Name_ML": "Pert Thye Guang (Ong Si Choong Soo) Kedah\/Perlis", "Name_EN": null, "Location": "70-L\/M Taman Mahawangsa Seberang, Jalan Alor Setar, 05150 Kedah.", "Longitude": 100.3311919, "Latitude": 6.1428582, "Region": "Kedah", "Category": "地缘", "PageNumber": "43" }, "geometry": { "type": "Point", "coordinates": [ 100.3312, 6.1429, 100.3312 ] } },
{ "type": "Feature", "properties": { "Name_CH": "吉玻苏许连宗祠", "Name_ML": "Persatuan Saw Khaw Lean Kedah \/ Perlis", "Name_EN": null, "Location": "88, Batu 6, Simpang Empat, 06650 Alor Star, Kedah.", "Longitude": 100.3831873, "Latitude": 6.022917, "Region": "Kedah", "Category": "血缘", "PageNumber": "44" }, "geometry": { "type": "Point", "coordinates": [ 100.3832, 6.0229, 100.3832 ] } },
{ "type": "Feature", "properties": { "Name_CH": "吉玻龙山堂曾氏公会", "Name_ML": "Persatuan Loong Sun Tong Kedah\/Perlis", "Name_EN": null, "Location": "192 Batu 5, Taman Bersatu Simpang Empat, Alor Setar, Kedah.", "Longitude": 100.38073, "Latitude": 6.043171, "Region": "Kedah", "Category": "血缘", "PageNumber": "44" }, "geometry": { "type": "Point", "coordinates": [ 100.3807, 6.0432, 100.3807 ] } },
{ "type": "Feature", "properties": { "Name_CH": "吉玻施氏公会", "Name_ML": "Persatuan See Kedah\/Perlias", "Name_EN": null, "Location": "173-B Taman Sri Tandop, Jalan Lencong Barat Alor Setar, Kedah.", "Longitude": 100.3635728, "Latitude": 6.0730443, "Region": "Kedah", "Category": "血缘", "PageNumber": "44" }, "geometry": { "type": "Point", "coordinates": [ 100.3636, 6.073, 100.3636 ] } },
{ "type": "Feature", "properties": { "Name_CH": "吉玻刘关张赵古城会", "Name_ML": "Persatuan Liu Guan Zhang Zhao Gu Cheng Hui", "Name_EN": "Kedah \/ Perlis", "Location": "168, Lebuhraya Sultan Abdul Halim, 05400 Alor Star, Kedah.", "Longitude": 100.3629725, "Latitude": 6.083403, "Region": "Kedah", "Category": "血缘", "PageNumber": "44" }, "geometry": { "type": "Point", "coordinates": [ 100.363, 6.0834, 100.363 ] } },
{ "type": "Feature", "properties": { "Name_CH": "吉玻孙氏宗祠", "Name_ML": "Persatuan Suku Kaum Soon Shi Zong Ci Kedah\/Perlis", "Name_EN": "Indera Kayangan", "Location": "99 Jalan Kundor, 05400 Alor Setar, Kedah. ", "Longitude": 100.367359, "Latitude": 6.0938389, "Region": "Kedah", "Category": "血缘", "PageNumber": "44" }, "geometry": { "type": "Point", "coordinates": [ 100.3674, 6.0938, 100.3674 ] } },
{ "type": "Feature", "properties": { "Name_CH": "吉玻四美堂庄氏宗祠", "Name_ML": "Pertubuhan Soo Bee Tong Ch' ng Si Chong Soo Kedah Dan Perlis(1992)", "Name_EN": null, "Location": "111 Jalan Pekan Melayu, Alor Setar, Kedah.", "Longitude": 100.364923, "Latitude": 6.119678, "Region": "Kedah", "Category": "血缘", "PageNumber": "44" }, "geometry": { "type": "Point", "coordinates": [ 100.3649, 6.1197, 100.3649 ] } },
{ "type": "Feature", "properties": { "Name_CH": "吉玻谢氏宗亲会", "Name_ML": "Persatuan Cheah Kedah\/Perlis", "Name_EN": null, "Location": "23 Tingkat 1, Jalan Tunku Yaakub, Alor Setar, Kedah.", "Longitude": 100.3626123, "Latitude": 6.1170733, "Region": "Kedah", "Category": "血缘", "PageNumber": "44" }, "geometry": { "type": "Point", "coordinates": [ 100.3626, 6.1171, 100.3626 ] } },
{ "type": "Feature", "properties": { "Name_CH": "吉玻王氏太原堂", "Name_ML": "Pertubuhan Thye Guan Tong (Ong Si Chong Soo)", "Name_EN": "Kedah \/ Perlis", "Location": "70-L & 70-M, Taman Mahawangsa, Seberang Jalan Putra, 05150 Alor Setar, Kedah,", "Longitude": 100.3594005, "Latitude": 6.1200058, "Region": "Kedah", "Category": "血缘", "PageNumber": "44" }, "geometry": { "type": "Point", "coordinates": [ 100.3594, 6.12, 100.3594 ] } },
{ "type": "Feature", "properties": { "Name_CH": "吉玻辛柯蔡宗祠", "Name_ML": "Sin Quah Chuah Chong Soo, Kedah \/ Perlis", "Name_EN": null, "Location": "737, Lebuh Raya Darulaman 05100, Alor Setar, Kedah.", "Longitude": 100.3683117, "Latitude": 6.1317004, "Region": "Kedah", "Category": "血缘", "PageNumber": "44" }, "geometry": { "type": "Point", "coordinates": [ 100.3683, 6.1317, 100.3683 ] } },
{ "type": "Feature", "properties": { "Name_CH": "吉玻梁氏宗亲会", "Name_ML": "Persatuan Kebajikan Liang Kedah \/ Perlis,", "Name_EN": null, "Location": "2536 Tingkat 1, Kompleks Pumpang, Pekan Pumpong, 05250 Alor Setar, Kedah.", "Longitude": 100.36952, "Latitude": 6.1357614, "Region": "Kedah", "Category": "血缘", "PageNumber": "44" }, "geometry": { "type": "Point", "coordinates": [ 100.3695, 6.1358, 100.3695 ] } },
{ "type": "Feature", "properties": { "Name_CH": "吉玻陇西堂", "Name_ML": "Persatuan Leong Say Tong Kedah\/Perlis", "Name_EN": null, "Location": "6 Lorong Suka Ramai, Bakar Bata, 05100 Alor Star, Kedah.", "Longitude": 100.370275, "Latitude": 6.13899, "Region": "Kedah", "Category": "血缘", "PageNumber": "44" }, "geometry": { "type": "Point", "coordinates": [ 100.3703, 6.139, 100.3703 ] } },
{ "type": "Feature", "properties": { "Name_CH": "吉中李氏宗亲会", "Name_ML": "Pertubuhan Lee Sih Chong Soo Kedah Tengah", "Name_EN": null, "Location": "5, Hadapan Sek. Men. Che Tom, Jalan Bakar Arang, 08000 Sungai Petani, Kedah.", "Longitude": 100.478342, "Latitude": 5.6233449, "Region": "Kedah", "Category": "血缘", "PageNumber": "45" }, "geometry": { "type": "Point", "coordinates": [ 100.4783, 5.6233, 100.4783 ] } },
{ "type": "Feature", "properties": { "Name_CH": "吉玻当商公会", "Name_ML": "Pertubuhan Pengusaha Pajak Gadai Kedah ", "Name_EN": null, "Location": "1 Jalan Petani, Sungai Petani, Kedah.", "Longitude": 100.4834508, "Latitude": 5.6341331, "Region": "Kedah", "Category": "业缘", "PageNumber": "45" }, "geometry": { "type": "Point", "coordinates": [ 100.4835, 5.6341, 100.4835 ] } },
{ "type": "Feature", "properties": { "Name_CH": "吉中忠顺世家", "Name_ML": "Tiong Soon See Kah Kedah Tengah", "Name_EN": null, "Location": "739-B, Jalan Bakar Sampah, 08000 Sungai Petani, Kedah.", "Longitude": 100.4990311, "Latitude": 5.6364846, "Region": "Kedah", "Category": "血缘", "PageNumber": "45" }, "geometry": { "type": "Point", "coordinates": [ 100.499, 5.6365, 100.499 ] } },
{ "type": "Feature", "properties": { "Name_CH": "吉中林氏宗祠", "Name_ML": "Persatuan Um See Chong Soo", "Name_EN": null, "Location": "5-G Jalan Kampong Baru 08000, Sungai Petani, Kedah.", "Longitude": 100.4884533, "Latitude": 5.6378644, "Region": "Kedah", "Category": "血缘", "PageNumber": "45" }, "geometry": { "type": "Point", "coordinates": [ 100.4885, 5.6379, 100.4885 ] } },
{ "type": "Feature", "properties": { "Name_CH": "吉玻庄严同宗会", "Name_ML": "Persatuan Zhuang\/Yam Kedah Dan Perlis", "Name_EN": null, "Location": "4, Tingkat 2, Taman Selesa, Simpang Kuala, 05400 Alor Setan Kedah.", "Longitude": 100.3666021, "Latitude": 6.095685, "Region": "Kedah", "Category": "血缘", "PageNumber": "45" }, "geometry": { "type": "Point", "coordinates": [ 100.3666, 6.0957, 100.3666 ] } },
{ "type": "Feature", "properties": { "Name_CH": "吉玻陈氏颖川堂", "Name_ML": "Tan Si Eng Chuan Tong Kedah Perlis", "Name_EN": null, "Location": "666-B, Lorong Tangki Limbong Kapal, 05000 Alor Star, Kedah.", "Longitude": 100.366859, "Latitude": 6.115349, "Region": "Kedah", "Category": "血缘", "PageNumber": "45" }, "geometry": { "type": "Point", "coordinates": [ 100.3669, 6.1153, 100.3669 ] } },
{ "type": "Feature", "properties": { "Name_CH": "吉打嘉和俱乐部", "Name_ML": "Kelab Rekrasi Kah Who Kedah", "Name_EN": null, "Location": "73-B, Tingkat 2, Komplek Jalan Nagor, 05000 Alor Star, Kedah.", "Longitude": 100.366611, "Latitude": 6.13126, "Region": "Kedah", "Category": "血缘", "PageNumber": "45" }, "geometry": { "type": "Point", "coordinates": [ 100.3666, 6.1313, 100.3666 ] } },
{ "type": "Feature", "properties": { "Name_CH": "吉打九龙堂林姓公会", "Name_ML": "Persatuan Um Kew Leong Tong Kedah Darul Aman  ", "Name_EN": "Lim Association Kew Leong Tong", "Location": "4-A, Kampong Perak, 05100 Alor Setar, Kedah.", "Longitude": 100.363888, "Latitude": 6.121473, "Region": "Kedah", "Category": "血缘", "PageNumber": "45" }, "geometry": { "type": "Point", "coordinates": [ 100.3639, 6.1215, 100.3639 ] } },
{ "type": "Feature", "properties": { "Name_CH": "吉玻郑氏英阳堂", "Name_ML": "Persatuan The Si Eng Eong Tong Kedah, Perak", "Name_EN": null, "Location": "33,  Jalan Biru 2, Kg Berjaya Sag Jalan Putra, 05150 A\/S Kedah.", "Longitude": 100.3559783, "Latitude": 6.1246006, "Region": "Kedah", "Category": "血缘", "PageNumber": "45" }, "geometry": { "type": "Point", "coordinates": [ 100.356, 6.1246, 100.356 ] } },
{ "type": "Feature", "properties": { "Name_CH": "吉玻电单车汽车商暨银业公会", "Name_ML": "Persatuan Peniaga Kenderaan Bermotor \/ Kereta Terpakai Dan Kewangan", "Name_EN": null, "Location": "307, Jalan Tengah, Off Jalan Putra, 05100 Alor Setar, Kedah.", "Longitude": 100.3624587, "Latitude": 6.1253543, "Region": "Kedah", "Category": "业缘", "PageNumber": "45" }, "geometry": { "type": "Point", "coordinates": [ 100.3625, 6.1254, 100.3625 ] } },
{ "type": "Feature", "properties": { "Name_CH": "吉玻缝业公会", "Name_ML": "Persatuan Tukang-Tukang Jahit Negeri Kedah \/Perlis", "Name_EN": null, "Location": "82, Seberang Jalan Putra 05150 Alor Setar, Kedah.", "Longitude": 100.350241, "Latitude": 6.129868, "Region": "Kedah", "Category": "业缘", "PageNumber": "45" }, "geometry": { "type": "Point", "coordinates": [ 100.3502, 6.1299, 100.3502 ] } },
{ "type": "Feature", "properties": { "Name_CH": "吉北华人摩多工人公会", "Name_ML": null, "Name_EN": "North Kedah Chinese Motor Workers Association", "Location": "8 Jalan Kanchut, Alor Setar, Kedah.", "Longitude": 100.3683435, "Latitude": 6.1328103, "Region": "Kedah", "Category": "业缘", "PageNumber": "45" }, "geometry": { "type": "Point", "coordinates": [ 100.3683, 6.1328, 100.3683 ] } },
{ "type": "Feature", "properties": { "Name_CH": "吉玻摄影公会", "Name_ML": null, "Name_EN": "The Kedah Perlis Photo Graphers Association", "Location": "A-17, Jalan Saga Ria, Taman Saga, 05400 Alor Setar, Kedah.", "Longitude": 100.3785116, "Latitude": 6.0891102, "Region": "Kedah", "Category": "业缘", "PageNumber": "46" }, "geometry": { "type": "Point", "coordinates": [ 100.3785, 6.0891, 100.3785 ] } },
{ "type": "Feature", "properties": { "Name_CH": "吉打屠业公会", "Name_ML": null, "Name_EN": "Persatuan Peniaga Dan Penyembelih Babi Kedah", "Location": "20-A, Taman Berjaya, Jalan Pengawal, 05050 Alor Star, Kedah.", "Longitude": 100.3539164, "Latitude": 6.1023367, "Region": "Kedah", "Category": "业缘", "PageNumber": "46" }, "geometry": { "type": "Point", "coordinates": [ 100.3539, 6.1023, 100.3539 ] } },
{ "type": "Feature", "properties": { "Name_CH": "吉玻金钻珠宝公会", "Name_ML": "Persatuan Perniagaan Emas Dan Permata Kedah \/ Perlis", "Name_EN": null, "Location": "2203-K Tingkat Satu, Seberang Perak, 05050 Alor Setar, Kedah.", "Longitude": 100.3612979, "Latitude": 6.114328, "Region": "Kedah", "Category": "业缘", "PageNumber": "46" }, "geometry": { "type": "Point", "coordinates": [ 100.3613, 6.1143, 100.3613 ] } },
{ "type": "Feature", "properties": { "Name_CH": "吉打什货商公会", "Name_ML": "Persatuan Peniaga Am Kedah", "Name_EN": "Kedah General Merchants' Association", "Location": "2190, 1st Floor, Lorong Kemuning Seberang Perak, 05400 Alor Star, Kedah.", "Longitude": 100.3611063, "Latitude": 6.11448, "Region": "Kedah", "Category": "业缘", "PageNumber": "46" }, "geometry": { "type": "Point", "coordinates": [ 100.3611, 6.1145, 100.3611 ] } },
{ "type": "Feature", "properties": { "Name_CH": "吉打华人生果同业公会", "Name_ML": null, "Name_EN": "Kedah Chinese Furniture Association", "Location": "72-B, Jalan Nagor, 05000 Alor Setar, Kedah.", "Longitude": 100.366611, "Latitude": 6.13126, "Region": "Kedah", "Category": "业缘", "PageNumber": "46" }, "geometry": { "type": "Point", "coordinates": [ 100.3666, 6.1313, 100.3666 ] } },
{ "type": "Feature", "properties": { "Name_CH": "吉玻米较公会", "Name_ML": "Persatuan Pengilang-Pengilang Beras", "Name_EN": "Kedah & Perlis Kedah & Perlis Rice Millers Association", "Location": "400 (2nd) Floor, Jalan Pintu Sepuluh, 05000 Alor Setar, Kedah.", "Longitude": 100.3647999, "Latitude": 6.1246473, "Region": "Kedah", "Category": "业缘", "PageNumber": "46" }, "geometry": { "type": "Point", "coordinates": [ 100.3648, 6.1246, 100.3648 ] } },
{ "type": "Feature", "properties": { "Name_CH": "吉玻汽车修理工商公会", "Name_ML": null, "Name_EN": "Persatuan Auto Mobil Workshop Kedah \/ Perlis", "Location": "212 C, Medan Putra, Sbg Jalan Putra, 05150 Alor Setar Kedah.", "Longitude": 100.3556513, "Latitude": 6.1259264, "Region": "Kedah", "Category": "业缘", "PageNumber": "46" }, "geometry": { "type": "Point", "coordinates": [ 100.3557, 6.1259, 100.3557 ] } },
{ "type": "Feature", "properties": { "Name_CH": "吉打华商咖啡公会", "Name_ML": "Persatuan Kedai-Kedai Kopi China Kedah", "Name_EN": "Kedah Chinese Shopkeepers Association", "Location": "169 E & F, Jalan Putra 05100 Alor Star, Kedah.", "Longitude": 100.3537412, "Latitude": 6.1268221, "Region": "Kedah", "Category": "业缘", "PageNumber": "46" }, "geometry": { "type": "Point", "coordinates": [ 100.3537, 6.1268, 100.3537 ] } },
{ "type": "Feature", "properties": { "Name_CH": "吉打菜业公会", "Name_ML": "Persatuan Peniaga-Peniaga Sayur Negeri Kedah", "Name_EN": null, "Location": "S15 Pasar Pemborong Sayur Syarikat Saudagar-Saudagar Ikan (K) Sdn. Bhd. Sbg, Jalan Putra, Alor Setar, Kedah.", "Longitude": 100.3590375, "Latitude": 6.1273853, "Region": "Kedah", "Category": "业缘", "PageNumber": "46" }, "geometry": { "type": "Point", "coordinates": [ 100.359, 6.1274, 100.359 ] } },
{ "type": "Feature", "properties": { "Name_CH": "吉打华巫米较公会", "Name_ML": "Persatuan Pengilang-Pengilang Beras Cina Melayu Kedah.", "Name_EN": null, "Location": "121-A&B, Seberang Jalan Putra, 05150 Alor Setar, Kedah.", "Longitude": 100.3503911, "Latitude": 6.128609, "Region": "Kedah", "Category": "业缘", "PageNumber": "46" }, "geometry": { "type": "Point", "coordinates": [ 100.3504, 6.1286, 100.3504 ] } },
{ "type": "Feature", "properties": { "Name_CH": "吉玻机械及车辆零件商会", "Name_ML": null, "Name_EN": "Kedah Perlis Spare Parts Dealers Association", "Location": "25, 1st Floor, Seberang Jalan Putra, 05150 Alor Star, Kedah.", "Longitude": 100.3480107, "Latitude": 6.1299161, "Region": "Kedah", "Category": "业缘", "PageNumber": "46" }, "geometry": { "type": "Point", "coordinates": [ 100.348, 6.1299, 100.348 ] } },
{ "type": "Feature", "properties": { "Name_CH": "吉玻家电商公会", "Name_ML": "Persatuan Peniaga Alat-Alat Elektrikal Dometik Kedah \/ Perlis", "Name_EN": null, "Location": "186, Tingkat 2, Shahab Perdana, Jalan Shahab Perdana 5, Jalan Sultanah Sembungan, 05350 Alor Star, Kedah.", "Longitude": 100.3885712, "Latitude": 6.1400601, "Region": "Kedah", "Category": "业缘", "PageNumber": "46" }, "geometry": { "type": "Point", "coordinates": [ 100.3886, 6.1401, 100.3886 ] } },
{ "type": "Feature", "properties": { "Name_CH": "吉中咖啡公会", "Name_ML": "Persatuan Pemilik Kedai Kopi Kedah Tengah ", "Name_EN": "Central Kedah Coffee Shop Owners' Association", "Location": "6, Jalan Petri, 08000 Sungai Petani, Kedah.", "Longitude": 100.4861629, "Latitude": 5.640045, "Region": "Kedah", "Category": "业缘", "PageNumber": "47" }, "geometry": { "type": "Point", "coordinates": [ 100.4862, 5.64, 100.4862 ] } },
{ "type": "Feature", "properties": { "Name_CH": "吉中小贩商业公会", "Name_ML": "Persatuan Panjaja-Panjaja Kedah Tengah", "Name_EN": null, "Location": "55-N, Jalan Sekarat 08000 Sungai Petani, Kedah.", "Longitude": 100.4945566, "Latitude": 5.6414961, "Region": "Kedah", "Category": "业缘", "PageNumber": "47" }, "geometry": { "type": "Point", "coordinates": [ 100.4946, 5.6415, 100.4946 ] } },
{ "type": "Feature", "properties": { "Name_CH": "吉打州柴炭商公会", "Name_ML": "Persatuan Peniagaan Kayu Api & Arang Negeri Kedah", "Name_EN": null, "Location": "13-C Taman Aman Kg. Baru, 08000 Sungai Petani, Johor.", "Longitude": 100.4894179, "Latitude": 5.643589, "Region": "Kedah", "Category": "业缘", "PageNumber": "47" }, "geometry": { "type": "Point", "coordinates": [ 100.4894, 5.6436, 100.4894 ] } },
{ "type": "Feature", "properties": { "Name_CH": "吉打州家私同业公会", "Name_ML": "Persatuan Pembuat-Pembuat Dan Peniaga-Peniaga Perabot Negeri Kedah", "Name_EN": null, "Location": "228 &229 (Tingkat Atas), Kawasan Perusahaan Tandop Baru, 05050 Alor Star, Kedah.", "Longitude": 100.3617197, "Latitude": 6.0811629, "Region": "Kedah", "Category": "业缘", "PageNumber": "47" }, "geometry": { "type": "Point", "coordinates": [ 100.3617, 6.0812, 100.3617 ] } },
{ "type": "Feature", "properties": { "Name_CH": "吉打州米商公会", "Name_ML": "Pertubuhan Peniaga-Peniaga Bekas Negeri Kedah", "Name_EN": null, "Location": "46-A, Kompleks Sukan Muazam Shah, Lebuhraya Sulfan Abdul Halim, 05400 Alor Star, Kedah.", "Longitude": 100.364, "Latitude": 6.09779, "Region": "Kedah", "Category": "业缘", "PageNumber": "47" }, "geometry": { "type": "Point", "coordinates": [ 100.364, 6.0978, 100.364 ] } },
{ "type": "Feature", "properties": { "Name_CH": "吉礁建筑商暨建筑材料商公会", "Name_ML": "Persatuan Pemborong-Pemborong Dan Pembekal- Pembekal Barang-Barang Bangunan Kedah", "Name_EN": null, "Location": "169-A&B, Jalan Kampong Perak, 05100 Alor Star, Kedah.", "Longitude": 100.3629177, "Latitude": 6.1217677, "Region": "Kedah", "Category": "业缘", "PageNumber": "47" }, "geometry": { "type": "Point", "coordinates": [ 100.3629, 6.1218, 100.3629 ] } },
{ "type": "Feature", "properties": { "Name_CH": "吉打小贩商业公会", "Name_ML": "Persatuan Penjaja-Penjaja Kedah", "Name_EN": null, "Location": "51, S&T,  Jalan Kampong Perak, 05100 Alor Setar, Kedah.", "Longitude": 100.3625921, "Latitude": 6.1221261, "Region": "Kedah", "Category": "业缘", "PageNumber": "47" }, "geometry": { "type": "Point", "coordinates": [ 100.3626, 6.1221, 100.3626 ] } },
{ "type": "Feature", "properties": { "Name_CH": "吉打州枝职文凭公会", "Name_ML": "Persatuan Pemilik Sijil Kemahiran Malaysia Negeri Keda", "Name_EN": null, "Location": "4A, Batu 2, Seberang Jalan Putra, Mergong, 05150 Alor Setar, Kedah.", "Longitude": 100.350838, "Latitude": 6.12801, "Region": "Kedah", "Category": "业缘", "PageNumber": "47" }, "geometry": { "type": "Point", "coordinates": [ 100.3508, 6.128, 100.3508 ] } },
{ "type": "Feature", "properties": { "Name_CH": "吉打州拖车及修车公会", "Name_ML": "Persatuan Pemilik Kereta Penunda Dan Membaiki", "Name_EN": null, "Location": "4A, Baru 2, Seberang Jalan Putra Mergong, 05150 Alor Setar, Kedah.", "Longitude": 100.3503911, "Latitude": 6.128609, "Region": "Kedah", "Category": "业缘", "PageNumber": "47" }, "geometry": { "type": "Point", "coordinates": [ 100.3504, 6.1286, 100.3504 ] } },
{ "type": "Feature", "properties": { "Name_CH": "吉打鱼商公会", "Name_ML": null, "Name_EN": "Kedah Fish Merchants Association", "Location": "37-R, Seberang Jalan Putra, 05150 Alor Setar, Kedah.", "Longitude": 100.350241, "Latitude": 6.129484, "Region": "Kedah", "Category": "业缘", "PageNumber": "47" }, "geometry": { "type": "Point", "coordinates": [ 100.3502, 6.1295, 100.3502 ] } },
{ "type": "Feature", "properties": { "Name_CH": "吉打州修车公会", "Name_ML": "Persatuan Pemilik Bengkel Kenderaan Negeri Kedah", "Name_EN": null, "Location": "4A, Batu 2, Seberang Jalan Putra, Mergong, 05150 Alor Setar, Kedah.", "Longitude": 100.3503911, "Latitude": 6.128609, "Region": "Kedah", "Category": "业缘", "PageNumber": "47" }, "geometry": { "type": "Point", "coordinates": [ 100.3504, 6.1286, 100.3504 ] } },
{ "type": "Feature", "properties": { "Name_CH": "吉打中华工商总会", "Name_ML": "Dewan Peniangaan Dan Perindustrian Tiong Hua", "Name_EN": "Kedah Chinese Chamber Of Commerce Industry", "Location": "749, 1st Floor, Lebuhraya Darul Aman, 05100 Alor Star, Kedah.", "Longitude": 100.3680132, "Latitude": 6.1302589, "Region": "Kedah", "Category": "业缘", "PageNumber": "47" }, "geometry": { "type": "Point", "coordinates": [ 100.368, 6.1303, 100.368 ] } },
{ "type": "Feature", "properties": { "Name_CH": "南吉打中华商会", "Name_ML": "Dewan Perniagaan Tionghoa Kedah Selatan", "Name_EN": "South Kedah Chinese Chamber Of Commerce", "Location": "1190, Lorong Bebilis 1\/1, Taman Tunku Putra, 09000 Kulim, Kedah.", "Longitude": 100.5579764, "Latitude": 5.3731295, "Region": "Kedah", "Category": "业缘", "PageNumber": "48" }, "geometry": { "type": "Point", "coordinates": [ 100.558, 5.3731, 100.558 ] } },
{ "type": "Feature", "properties": { "Name_CH": "吉玻留台同学会", "Name_ML": "Persatuan Siswazah-Siswazah Taiwan Kedah Perlis", "Name_EN": null, "Location": "1, Lorong 23, Taman Patani Jaya, 08000 Sungai Petani Kedah.", "Longitude": 100.4885642, "Latitude": 5.6294811, "Region": "Kedah", "Category": "文教", "PageNumber": "48" }, "geometry": { "type": "Point", "coordinates": [ 100.4886, 5.6295, 100.4886 ] } },
{ "type": "Feature", "properties": { "Name_CH": "潮商公会", "Name_ML": "Persatuan Saudagar-Saudagar Teochew Sungai Petani", "Name_EN": null, "Location": "136-C, Taman Bersatu, 08000 Sungai Petani, Kedah.", "Longitude": 100.4917894, "Latitude": 5.6372309, "Region": "Kedah", "Category": "业缘", "PageNumber": "48" }, "geometry": { "type": "Point", "coordinates": [ 100.4918, 5.6372, 100.4918 ] } },
{ "type": "Feature", "properties": { "Name_CH": "双溪大年建造行", "Name_ML": "Persatuan Kin Cho Hong", "Name_EN": null, "Location": "584, Jalan Kuala Ketil, 08000 Sungai Petani, Kedah.", "Longitude": 100.492513, "Latitude": 5.6392999, "Region": "Kedah", "Category": "业缘", "PageNumber": "48" }, "geometry": { "type": "Point", "coordinates": [ 100.4925, 5.6393, 100.4925 ] } },
{ "type": "Feature", "properties": { "Name_CH": "吉玻校长职工会", "Name_ML": "KKGGBM Cawangan Kedah \/ Perlis", "Name_EN": null, "Location": "SJK(C) Sin Min A, Jalan Pegawai, 08000 Sungai Petani, Kedah.", "Longitude": 100.485215, "Latitude": 5.652956, "Region": "Kedah", "Category": "文教", "PageNumber": "48" }, "geometry": { "type": "Point", "coordinates": [ 100.4852, 5.653, 100.4852 ] } },
{ "type": "Feature", "properties": { "Name_CH": "吉中中华工商联合会", "Name_ML": "Persatuan Perniagaan & Perindustrian Cina Kedah Tengah ", "Name_EN": "The Chinese Chamber Of Commerce&Industry Of Central Kedah", "Location": "143, 1st Floor, Jalan Kelab Cinta Sayang, Taman Ria Jaya, 08000 Sungai Petani, Kedah.", "Longitude": 100.5131261, "Latitude": 5.652979, "Region": "Kedah", "Category": "业缘", "PageNumber": "48" }, "geometry": { "type": "Point", "coordinates": [ 100.5131, 5.653, 100.5131 ] } },
{ "type": "Feature", "properties": { "Name_CH": "吉玻日间师训同学会", "Name_ML": "Persatuan Guru-Guru Lepasan DTC Kedah Perlis", "Name_EN": null, "Location": "180, Taman Sri Ampang, Jalan Kenanga 11 05050 Alor Star, Kedah.", "Longitude": 100.3390124, "Latitude": 6.1071718, "Region": "Kedah", "Category": "文教", "PageNumber": "48" }, "geometry": { "type": "Point", "coordinates": [ 100.339, 6.1072, 100.339 ] } },
{ "type": "Feature", "properties": { "Name_CH": "亚罗士打建造业", "Name_ML": "Kin Cho Hong Alor Setar", "Name_EN": null, "Location": "3, Jalan Tunku Abdul Rahman Putra, (Jalan Putra), 05100 Alor Star, Kedah.", "Longitude": 100.3655763, "Latitude": 6.1217452, "Region": "Kedah", "Category": "业缘", "PageNumber": "48" }, "geometry": { "type": "Point", "coordinates": [ 100.3656, 6.1217, 100.3656 ] } },
{ "type": "Feature", "properties": { "Name_CH": "吉北华校教师公会", "Name_ML": "Persatuan Guru-Guru Sekolah Cina Kedah Utara", "Name_EN": "North Kedah Chinese School Teachers Association", "Location": "25B, Jalan Alor Semadom, 05250 Alor Setar, Kedah.", "Longitude": 100.3766421, "Latitude": 6.1409135, "Region": "Kedah", "Category": "文教", "PageNumber": "48" }, "geometry": { "type": "Point", "coordinates": [ 100.3766, 6.1409, 100.3766 ] } },
{ "type": "Feature", "properties": { "Name_CH": "吉州学生车公会", "Name_ML": "Persatuan Operator Bas Bas Sekolah Negeri Kedah", "Name_EN": null, "Location": "2500(Tingkat1) Kompleks Tunku Yaacob, Jalan Lebuhraya Darulaman, 05100 Alor Star, Kedah.", "Longitude": 100.306147, "Latitude": 6.1707361, "Region": "Kedah", "Category": "业缘", "PageNumber": "48" }, "geometry": { "type": "Point", "coordinates": [ 100.3061, 6.1707, 100.3061 ] } },
{ "type": "Feature", "properties": { "Name_CH": "树胶商公会(古邦巴素)", "Name_ML": "Persatuan Peniaga-Peniaga Getah Kubang Pasu Kedah", "Name_EN": null, "Location": "854 Jalan Masjid, Kubang Pasu, Kedah.", "Longitude": 100.4225461, "Latitude": 6.35777, "Region": "Kedah", "Category": "业缘", "PageNumber": "48" }, "geometry": { "type": "Point", "coordinates": [ 100.4225, 6.3578, 100.4225 ] } },
{ "type": "Feature", "properties": { "Name_CH": "吉打华校校友会联合会", "Name_ML": "Gabungan Persatuan-Persatuan Bekas Palajar Sekolah Negeri Kedah", "Name_EN": null, "Location": "271, Taman Keranji 2, 09000 Kulim, Kedah.", "Longitude": 100.5408068, "Latitude": 5.3686469, "Region": "Kedah", "Category": "文教", "PageNumber": "49" }, "geometry": { "type": "Point", "coordinates": [ 100.5408, 5.3686, 100.5408 ] } },
{ "type": "Feature", "properties": { "Name_CH": "吉南觉民校友会 .", "Name_ML": "Persatuan Murid-Murid Lepasan Sekolah Chio Min, Kedah Selatan", "Name_EN": null, "Location": "271 Taman Keranji 2, 09000 Kulim, Kedah.", "Longitude": 100.541701, "Latitude": 5.36983, "Region": "Kedah", "Category": "文教", "PageNumber": "49" }, "geometry": { "type": "Point", "coordinates": [ 100.5417, 5.3698, 100.5417 ] } },
{ "type": "Feature", "properties": { "Name_CH": "吉南华校教师公会", "Name_ML": "Persatuan Guru-Guru Sekolah Cina Kedah Selatan", "Name_EN": null, "Location": "D\/A SJK(C) Chio Min B' , 09000 Kulim, Kedah. ", "Longitude": 100.5498415, "Latitude": 5.3732881, "Region": "Kedah", "Category": "文教", "PageNumber": "49" }, "geometry": { "type": "Point", "coordinates": [ 100.5498, 5.3733, 100.5498 ] } },
{ "type": "Feature", "properties": { "Name_CH": "吉南鲁乃华民校友会", "Name_ML": "Persatuan Bekas Murid-Murid Sekolah Hwa Min, Lunas Kedah", "Name_EN": null, "Location": "285, Tingkat Atas, Jalan Desa Makmur 3, Taman Desa Makmur, 09600 Lunas, Kedah.", "Longitude": 100.5396992, "Latitude": 5.4326799, "Region": "Kedah", "Category": "文教", "PageNumber": "49" }, "geometry": { "type": "Point", "coordinates": [ 100.5397, 5.4327, 100.5397 ] } },
{ "type": "Feature", "properties": { "Name_CH": "吉中华校教师会", "Name_ML": "Persatuan Guru-Guru Sek Cina Kedah Tengah", "Name_EN": null, "Location": "SJK(C) TaiTong, Taman Kempas Sg. Pasir, 08000 Sungai Petani, Kedah.", "Longitude": 100.4788199, "Latitude": 5.594427, "Region": "Kedah", "Category": "文教", "PageNumber": "49" }, "geometry": { "type": "Point", "coordinates": [ 100.4788, 5.5944, 100.4788 ] } },
{ "type": "Feature", "properties": { "Name_CH": "吉打双溪大年新民校友会", "Name_ML": "Persatuan Murid Murid Tua Sin Min Sungai Petani Kedah", "Name_EN": null, "Location": "10, Jalan Merbok, 08000 Sungai Petani, Kedah.", "Longitude": 100.4853948, "Latitude": 5.6404, "Region": "Kedah", "Category": "文教", "PageNumber": "49" }, "geometry": { "type": "Point", "coordinates": [ 100.4854, 5.6404, 100.4854 ] } },
{ "type": "Feature", "properties": { "Name_CH": "吉大韩江校友会", "Name_ML": "Persatuan Bekas Murid Han Chiang Kedah", "Name_EN": "Penang Han Chiang School Ex-Pupils'  Kedah Association", "Location": "46(3\/F) Jalan Pengkalan, Taman Pekan Baru, 08000 Sungai Petani, Kedah.", "Longitude": 100.4875089, "Latitude": 5.641611, "Region": "Kedah", "Category": "文教", "PageNumber": "49" }, "geometry": { "type": "Point", "coordinates": [ 100.4875, 5.6416, 100.4875 ] } },
{ "type": "Feature", "properties": { "Name_CH": "吉打竹城明新校友会", "Name_ML": "Persatuan Bekas Murid Sekolah Min Sin Kota Sarang Semut Alor Star", "Name_EN": null, "Location": "SRJK(C) Min Sin Kota Sarang Semut, 06800 Alor Star, Kedah.", "Longitude": 100.4021258, "Latitude": 5.973825, "Region": "Kedah", "Category": "文教", "PageNumber": "49" }, "geometry": { "type": "Point", "coordinates": [ 100.4021, 5.9738, 100.4021 ] } },
{ "type": "Feature", "properties": { "Name_CH": "吉打十字港益民校友会", "Name_ML": "Persatuan Murid-Murid Tua Yih Min", "Name_EN": null, "Location": "295, Taman Orkid Simpang Empat, 06650 Alor Star, Kedah.", "Longitude": 100.378418, "Latitude": 6.032684, "Region": "Kedah", "Category": "文教", "PageNumber": "49" }, "geometry": { "type": "Point", "coordinates": [ 100.3784, 6.0327, 100.3784 ] } },
{ "type": "Feature", "properties": { "Name_CH": "吉打华校董联会", "Name_ML": "Persatuan Lembaga-Lembaga Pengurus Sekolah Cina Keday", "Name_EN": "United Chinese School Comm, Associtaion of Kedah", "Location": "D\/A Sekolah Menengah Persendirian Sin Min No 1, Jalan Alor Mengkudu, 05400 Alor Setar, Johor.", "Longitude": 100.3918634, "Latitude": 6.0895976, "Region": "Kedah", "Category": "文教", "PageNumber": "49" }, "geometry": { "type": "Point", "coordinates": [ 100.3919, 6.0896, 100.3919 ] } },
{ "type": "Feature", "properties": { "Name_CH": "吉玻種灵校友会", "Name_ML": "Persatuan Alumni ChungLing, Kedah\/Perlis", "Name_EN": null, "Location": "7-A, Lorong Lintang, 05200 Alor Star, Kedah.", "Longitude": 100.3736284, "Latitude": 6.1197605, "Region": "Kedah", "Category": "文教", "PageNumber": "49" }, "geometry": { "type": "Point", "coordinates": [ 100.3736, 6.1198, 100.3736 ] } },
{ "type": "Feature", "properties": { "Name_CH": "吉打波各先那同育校友会", "Name_ML": "Persatuan Murid-AAurid Tua SRJK (C) Tong Yuh PokokSena Kedah", "Name_EN": null, "Location": "181A, Lorong 4 Kiri, 06400 Pokok Sena, Kedah.", "Longitude": 100.6872457, "Latitude": 6.1511113, "Region": "Kedah", "Category": "文教", "PageNumber": "49" }, "geometry": { "type": "Point", "coordinates": [ 100.6872, 6.1511, 100.6872 ] } },
{ "type": "Feature", "properties": { "Name_CH": "加拉岸幵明校友会", "Name_ML": "Persatuan Bekas Murid-Murid SekKhai Min Karangan Kedah", "Name_EN": null, "Location": "40, Pekan Karangan, 09700 Karangan, Kedah.", "Longitude": 100.6715287, "Latitude": 5.4040874, "Region": "Kedah", "Category": "文教", "PageNumber": "50" }, "geometry": { "type": "Point", "coordinates": [ 100.6715, 5.4041, 100.6715 ] } },
{ "type": "Feature", "properties": { "Name_CH": "尚正校友会", "Name_ML": "Persatuan Murid-Murid Tua Sekolah Shang Ching Pandang Serai Kedah", "Name_EN": null, "Location": "LC 36 Jalan Lunas, Padang Serai, Kedah.", "Longitude": 100.554122, "Latitude": 5.511538, "Region": "Kedah", "Category": "文教", "PageNumber": "50" }, "geometry": { "type": "Point", "coordinates": [ 100.5541, 5.5115, 100.5541 ] } },
{ "type": "Feature", "properties": { "Name_CH": "新光校友会", "Name_ML": "Persatuan Murid-Murid Tua Sin Kwang Sungai Petani Kedah", "Name_EN": null, "Location": "118, Lorong 1\/9, Taman Sri Wang, 08000 Sungai Petani, Kedah.", "Longitude": 100.499183, "Latitude": 5.618637, "Region": "Kedah", "Category": "文教", "PageNumber": "50" }, "geometry": { "type": "Point", "coordinates": [ 100.4992, 5.6186, 100.4992 ] } },
{ "type": "Feature", "properties": { "Name_CH": "双溪大年二条石明德学校校友会", "Name_ML": "Persatuan Murid-Murid Tua Min Terk", "Name_EN": null, "Location": "930-B, Batu Dua, Jalan Kuala Ketil, 08000 Sungai Petani, Kedah.", "Longitude": 100.521106, "Latitude": 5.6317433, "Region": "Kedah", "Category": "文教", "PageNumber": "50" }, "geometry": { "type": "Point", "coordinates": [ 100.5211, 5.6317, 100.5211 ] } },
{ "type": "Feature", "properties": { "Name_CH": "双溪大年新民校友会", "Name_ML": "Persatuan Murid Tua Sin Min Sungai Petani Kedah", "Name_EN": null, "Location": "10 Jalan Merbok Sungai Petani, Kedah.", "Longitude": 100.4853948, "Latitude": 5.6404, "Region": "Kedah", "Category": "文教", "PageNumber": "50" }, "geometry": { "type": "Point", "coordinates": [ 100.4854, 5.6404, 100.4854 ] } },
{ "type": "Feature", "properties": { "Name_CH": "移风剧社", "Name_ML": "Persatuan Drama Yee Fong Sungai Petani Kedah", "Name_EN": null, "Location": "33, Jalan Dewa, 08000 Sungai Petani, Kedah.", "Longitude": 100.4878118, "Latitude": 5.6407147, "Region": "Kedah", "Category": "文教", "PageNumber": "50" }, "geometry": { "type": "Point", "coordinates": [ 100.4878, 5.6407, 100.4878 ] } },
{ "type": "Feature", "properties": { "Name_CH": "亚罗士打平民校友会", "Name_ML": "Persatuan Murid-Murid Tua Peng Min", "Name_EN": null, "Location": "Sekolah RJK (C) Peng Min Bee Bee Park, 05400 Alor Setar, Kedah.", "Longitude": 100.3655428, "Latitude": 6.0950874, "Region": "Kedah", "Category": "文教", "PageNumber": "50" }, "geometry": { "type": "Point", "coordinates": [ 100.3655, 6.0951, 100.3655 ] } },
{ "type": "Feature", "properties": { "Name_CH": "亚罗士打新民校友会", "Name_ML": "Persatuan Murid-Murid Tua Sin Min", "Name_EN": null, "Location": "C\/O Weng Yick Brothers Furniture . 55Q, Jalan Telok Wanjah, 05200 Alor Setar, Kedah.", "Longitude": 100.3646608, "Latitude": 6.1173526, "Region": "Kedah", "Category": "文教", "PageNumber": "50" }, "geometry": { "type": "Point", "coordinates": [ 100.3647, 6.1174, 100.3647 ] } },
{ "type": "Feature", "properties": { "Name_CH": "亚罗士打吉华校友会", "Name_ML": "Persatuan Murid-Murid Tua Keat Hwa", "Name_EN": null, "Location": "1785, Jalan Telok Wanjah, 05200 Alor Star, Kedah.", "Longitude": 100.3783886, "Latitude": 6.1220088, "Region": "Kedah", "Category": "文教", "PageNumber": "50" }, "geometry": { "type": "Point", "coordinates": [ 100.3784, 6.122, 100.3784 ] } },
{ "type": "Feature", "properties": { "Name_CH": "亚罗士打启智校友会", "Name_ML": "Persatuan Bekas Pelajar SRJK (C) Kee Chee", "Name_EN": null, "Location": "Batu 2, Jalan Langgar, 05460 Alor Setar, Kedah.", "Longitude": 100.3868661, "Latitude": 6.1293714, "Region": "Kedah", "Category": "文教", "PageNumber": "50" }, "geometry": { "type": "Point", "coordinates": [ 100.3869, 6.1294, 100.3869 ] } },
{ "type": "Feature", "properties": { "Name_CH": "亚罗士打滂滂校友会", "Name_ML": "Persatuan Bekas Pelajar SJK (C) Pumpong\nSekolah Jenis Kebangsaan (C) Pumpong", "Name_EN": null, "Location": "Jalan Bakar Bata, 05250 Alor Star, Kedah.", "Longitude": 100.3703394, "Latitude": 6.137731, "Region": "Kedah", "Category": "文教", "PageNumber": "50" }, "geometry": { "type": "Point", "coordinates": [ 100.3703, 6.1377, 100.3703 ] } },
{ "type": "Feature", "properties": { "Name_CH": "日得拉中华校友会", "Name_ML": "Persatuan Murid-Murid Tua SRJK (C) Chung Hwa Jitra Kedah", "Name_EN": null, "Location": "26, Taman Jitra, Kedah.", "Longitude": 100.4257769, "Latitude": 6.2598848, "Region": "Kedah", "Category": "文教", "PageNumber": "50" }, "geometry": { "type": "Point", "coordinates": [ 100.4258, 6.2599, 100.4258 ] } },
{ "type": "Feature", "properties": { "Name_CH": "西岭学校校友会", "Name_ML": "Persatuan Bekas Murid Sekolah Cina Serdang, Kedah", "Name_EN": null, "Location": "85, Jalan Pecah Batu, 09800 Serdang, Kedah.", "Longitude": 100.5663381, "Latitude": 5.3955827, "Region": "Kedah", "Category": "文教", "PageNumber": "51" }, "geometry": { "type": "Point", "coordinates": [ 100.5663, 5.3956, 100.5663 ] } },
{ "type": "Feature", "properties": { "Name_CH": "二条石三山国王善信会", "Name_ML": "Pertubuhan Penganut-Penganut San Shan Guo Wang, Batu 2, Sungai Petani", "Name_EN": null, "Location": "721, Batu Dua, 08000 Sungai Petani Kedah.", "Longitude": 100.5162322, "Latitude": 5.629309, "Region": "Kedah", "Category": "宗教", "PageNumber": "51" }, "geometry": { "type": "Point", "coordinates": [ 100.5162, 5.6293, 100.5162 ] } },
{ "type": "Feature", "properties": { "Name_CH": "法主公神庙", "Name_ML": "Pertubuhan Penganut Huat Szu Kong Sungai Petani Keda", "Name_EN": null, "Location": "2210, Lorong Mak Yong 1, Taman Ria Jya, 08000 Sungai Petani, Kedah.", "Longitude": 100.5130143, "Latitude": 5.6472535, "Region": "Kedah", "Category": "宗教", "PageNumber": "51" }, "geometry": { "type": "Point", "coordinates": [ 100.513, 5.6473, 100.513 ] } },
{ "type": "Feature", "properties": { "Name_CH": "吉打莪仑德教会紫津阁", "Name_ML": null, "Name_EN": "Chee Chin Kok Moral Uplifting Society", "Location": "33-A, Jalan Jeniang, 08300 Gurun, Kedah.", "Longitude": 100.5274773, "Latitude": 5.8171971, "Region": "Kedah", "Category": "宗教", "PageNumber": "51" }, "geometry": { "type": "Point", "coordinates": [ 100.5275, 5.8172, 100.5275 ] } },
{ "type": "Feature", "properties": { "Name_CH": "峨占必力佛教会", "Name_ML": "Persatuan Ugama Buddha Guar Chempedak Guruk Kedah", "Name_EN": null, "Location": "1 Taman Sri Wangsa, Gua Chempedak, Gurun, Kedah.", "Longitude": 100.4608421, "Latitude": 5.8511967, "Region": "Kedah", "Category": "宗教", "PageNumber": "51" }, "geometry": { "type": "Point", "coordinates": [ 100.4608, 5.8512, 100.4608 ] } },
{ "type": "Feature", "properties": { "Name_CH": "吉打德教会济阳阁", "Name_ML": null, "Name_EN": "Chee Yang Kor Moral Uplifting Society Kedah", "Location": "2035, Tongkang Yard, Off Jalan Kota Tanah, 05050 Alor Setar, Kedah.", "Longitude": 100.3543595, "Latitude": 6.1166699, "Region": "Kedah", "Category": "宗教", "PageNumber": "51" }, "geometry": { "type": "Point", "coordinates": [ 100.3544, 6.1167, 100.3544 ] } },
{ "type": "Feature", "properties": { "Name_CH": "吉打斗母宫九皇大帝庙", "Name_ML": "Persatuan Penganut Tow Boo Keong Kiu Ong Tai Tay Kedah", "Name_EN": null, "Location": "Lot 1124 Jalan Bangsa, Seberang Jalan Putra, 05150 Alor Setar, Kedah.", "Longitude": 100.354874, "Latitude": 6.117715, "Region": "Kedah", "Category": "宗教", "PageNumber": "51" }, "geometry": { "type": "Point", "coordinates": [ 100.3549, 6.1177, 100.3549 ] } },
{ "type": "Feature", "properties": { "Name_CH": "吉打佛学院", "Name_ML": "Persatuan Buddhist Kedah", "Name_EN": "Kedah Buddhist Association", "Location": "1961-A, Jalan Telok Wanjah, 05200 Alor Star, Kedah.", "Longitude": 100.3783886, "Latitude": 6.1220088, "Region": "Kedah", "Category": "宗教", "PageNumber": "51" }, "geometry": { "type": "Point", "coordinates": [ 100.3784, 6.122, 100.3784 ] } },
{ "type": "Feature", "properties": { "Name_CH": "华玲育智校友会", "Name_ML": "Persatuan Bekas Pelajar Sekolah Yeok Chee Baling Kedah", "Name_EN": null, "Location": "W(LBB-36), Jalan Shariff, 09000 Baling, Kedah.", "Longitude": 100.3823483, "Latitude": 6.1259431, "Region": "Kedah", "Category": "文教", "PageNumber": "51" }, "geometry": { "type": "Point", "coordinates": [ 100.3823, 6.1259, 100.3823 ] } },
{ "type": "Feature", "properties": { "Name_CH": "华玲德教会紫华阁", "Name_ML": "Persatuan Pendidikan Akhlak Chee Wah Kor Baling Kedah", "Name_EN": null, "Location": "33-A, Jalan Shariff, 09100 Baling, Kedah.", "Longitude": 100.3823483, "Latitude": 6.1259431, "Region": "Kedah", "Category": "宗教", "PageNumber": "51" }, "geometry": { "type": "Point", "coordinates": [ 100.3823, 6.1259, 100.3823 ] } },
{ "type": "Feature", "properties": { "Name_CH": "波各先那佛教会", "Name_ML": "Persatuan Buddhist Pokok Sena", "Name_EN": "Pokok Sena Buddhist Association", "Location": "139-A, Lorong 6, Kampung Baru, 06400 Pokok Sena, Kedah.", "Longitude": 100.5080062, "Latitude": 6.166289, "Region": "Kedah", "Category": "宗教", "PageNumber": "51" }, "geometry": { "type": "Point", "coordinates": [ 100.508, 6.1663, 100.508 ] } },
{ "type": "Feature", "properties": { "Name_CH": "吉南司南马德教会振成阁", "Name_ML": "Persatuan Amal Chin Shen Khor", "Name_EN": null, "Location": "77, Jalan Raya, 09810 Selama, Kedah.", "Longitude": 101.2898938, "Latitude": 4.1796236, "Region": "Kedah", "Category": "宗教", "PageNumber": "52" }, "geometry": { "type": "Point", "coordinates": [ 101.2899, 4.1796, 101.2899 ] } },
{ "type": "Feature", "properties": { "Name_CH": "吉南三巴央广福宫", "Name_ML": "Jawatankuasa Pengurusan Tokong Kwong Hock Keong, junjong", "Name_EN": "The Committee Of Management Of Kwong Hock Keong, Junjong", "Location": "139, Pekan Junjong, 09000 Kulim, Kedah.", "Longitude": 100.534158, "Latitude": 5.2985354, "Region": "Kedah", "Category": "宗教", "PageNumber": "52" }, "geometry": { "type": "Point", "coordinates": [ 100.5342, 5.2985, 100.5342 ] } },
{ "type": "Feature", "properties": { "Name_CH": "吉南德教会紫翰阁", "Name_ML": null, "Name_EN": "Chee Han Kor Moral Uplifting Society South Kedah", "Location": "358, Kelang Sago, 09000 Kulim, Kedah.", "Longitude": 100.5513328, "Latitude": 5.3736086, "Region": "Kedah", "Category": "宗教", "PageNumber": "52" }, "geometry": { "type": "Point", "coordinates": [ 100.5513, 5.3736, 100.5513 ] } },
{ "type": "Feature", "properties": { "Name_CH": "吉南巴东色海德教会紫天阁", "Name_ML": null, "Name_EN": "Chee Thean Hkor Moral Uplifting Society", "Location": "Jalan Baling, 09400 Padang Serai, Kedah.", "Longitude": 100.5651849, "Latitude": 5.510874, "Region": "Kedah", "Category": "宗教", "PageNumber": "52" }, "geometry": { "type": "Point", "coordinates": [ 100.5652, 5.5109, 100.5652 ] } },
{ "type": "Feature", "properties": { "Name_CH": "吉打双溪大年甘边园斗母宫理事会", "Name_ML": "Pertubuhan Penganut Agama Buddha Dou Mu Gong Jiu Hwang Da Ti. Kampung Kean Peng. Sg Petani, Kedah", "Name_EN": null, "Location": "516, Kampung Kean Peng, Pekan Lama, 08000 Sungai Petani, Kedah.", "Longitude": 100.4906033, "Latitude": 5.6395609, "Region": "Kedah", "Category": "宗教", "PageNumber": "52" }, "geometry": { "type": "Point", "coordinates": [ 100.4906, 5.6396, 100.4906 ] } },
{ "type": "Feature", "properties": { "Name_CH": "吉打华玲德教会紫华阁", "Name_ML": "Persatuan Pendidikan Akhlak Chee Wan Kor", "Name_EN": null, "Location": "33-A, Jalan Shariff, 90100 Baling, Kedah.", "Longitude": 100.9168139, "Latitude": 5.675547, "Region": "Kedah", "Category": "宗教", "PageNumber": "52" }, "geometry": { "type": "Point", "coordinates": [ 100.9168, 5.6755, 100.9168 ] } },
{ "type": "Feature", "properties": { "Name_CH": "吉打广福宫", "Name_ML": "Kong Hock Keong", "Name_EN": null, "Location": "233-Pengkalan Kundor, 05400 Alor Star, Kedah.", "Longitude": 100.3544711, "Latitude": 6.0744856, "Region": "Kedah", "Category": "宗教", "PageNumber": "52" }, "geometry": { "type": "Point", "coordinates": [ 100.3545, 6.0745, 100.3545 ] } },
{ "type": "Feature", "properties": { "Name_CH": "吉打亚罗士打蔗芭青山佬祖古庙", "Name_ML": "Persatuan Pengurusan Tokong Chin Sun Low Chor", "Name_EN": null, "Location": "15-M Kampong Kilang Tebu, Tembak Bunga, 05050 Alor Star, Kedah.", "Longitude": 100.3409292, "Latitude": 6.1021074, "Region": "Kedah", "Category": "宗教", "PageNumber": "52" }, "geometry": { "type": "Point", "coordinates": [ 100.3409, 6.1021, 100.3409 ] } },
{ "type": "Feature", "properties": { "Name_CH": "吉礁圣教会", "Name_ML": "Persatuan Sin Kow Hooi Alor Setar Kedah", "Name_EN": null, "Location": "52\/53 Batu 2, Jalan Langgar, 05100 Alor Setar, Kedah.", "Longitude": 100.3657282, "Latitude": 6.1166729, "Region": "Kedah", "Category": "宗教", "PageNumber": "52" }, "geometry": { "type": "Point", "coordinates": [ 100.3657, 6.1167, 100.3657 ] } },
{ "type": "Feature", "properties": { "Name_CH": "吉打浮罗交怡德教会紫文阁", "Name_ML": "Persatuan Pendidikan Akhlak Chee Boon Kor ", "Name_EN": null, "Location": "58, Pokok Asam, 07000 Pulau Langkawi, Kedah.", "Longitude": 99.8405157, "Latitude": 6.327755, "Region": "Kedah", "Category": "宗教", "PageNumber": "52" }, "geometry": { "type": "Point", "coordinates": [ 99.8405, 6.3278, 99.8405 ] } },
{ "type": "Feature", "properties": { "Name_CH": "吉打樟仑普救寺", "Name_ML": "Pertubuhan Penganut Ajaran Phoo Kiu Se", "Name_EN": null, "Location": "Tokong Phoo Kiu Se, Jalan Sintol, 06010 Changlun, Kedah.", "Longitude": 100.5183622, "Latitude": 6.4162552, "Region": "Kedah", "Category": "宗教", "PageNumber": "52" }, "geometry": { "type": "Point", "coordinates": [ 100.5184, 6.4163, 100.5184 ] } },
{ "type": "Feature", "properties": { "Name_CH": "吉打樟仑佛教会", "Name_ML": "Persatuan Buddist Changlun", "Name_EN": "Changlun Buddhist Association", "Location": "87, Taman Changlun, Jalan Sintok, 06010 Changlun, Kedah.", "Longitude": 100.4364106, "Latitude": 6.4337078, "Region": "Kedah", "Category": "宗教", "PageNumber": "52" }, "geometry": { "type": "Point", "coordinates": [ 100.4364, 6.4337, 100.4364 ] } },
{ "type": "Feature", "properties": { "Name_CH": "吉南西岭德教会紫峰阁", "Name_ML": null, "Name_EN": "Chee Hong Khor Moral Uplifting Society", "Location": "106-C, Jalan Raya, 09800 Serdang Kedah.", "Longitude": 100.6421799, "Latitude": 5.2399823, "Region": "Kedah", "Category": "宗教", "PageNumber": "53" }, "geometry": { "type": "Point", "coordinates": [ 100.6422, 5.24, 100.6422 ] } },
{ "type": "Feature", "properties": { "Name_CH": "麻坑大伯公理事会", "Name_ML": "Pertubuhan Penganut Tai Pak Kong", "Name_EN": null, "Location": "Lot 908, Tepi Sungai Kerian, 09500 Karangan, Pekan Mahang, Kulim, Kedah.", "Longitude": 100.7547581, "Latitude": 5.324538, "Region": "Kedah", "Category": "宗教", "PageNumber": "53" }, "geometry": { "type": "Point", "coordinates": [ 100.7548, 5.3245, 100.7548 ] } },
{ "type": "Feature", "properties": { "Name_CH": "居林菩提连社", "Name_ML": "Pertubuhan Pu Ti Lian She Kulim Kedah", "Name_EN": null, "Location": "Lot 17, Lorong Sekolah Convent Jalan Bukit Awi, 09000 Kulim, Kedah.", "Longitude": 100.5486378, "Latitude": 5.3635611, "Region": "Kedah", "Category": "宗教", "PageNumber": "53" }, "geometry": { "type": "Point", "coordinates": [ 100.5486, 5.3636, 100.5486 ] } },
{ "type": "Feature", "properties": { "Name_CH": "居林佛恩功德会", "Name_ML": "Pertubuhan Bakti Fo En Bandar Kulim Kedah", "Name_EN": null, "Location": "74 Lorong Semarak 3, Taman Semarak, 09000 Kulim, Kedah.", "Longitude": 100.5407398, "Latitude": 5.3779714, "Region": "Kedah", "Category": "宗教", "PageNumber": "53" }, "geometry": { "type": "Point", "coordinates": [ 100.5407, 5.378, 100.5407 ] } },
{ "type": "Feature", "properties": { "Name_CH": "加拉岸永来观音庙", "Name_ML": "Persataun Penganut Dewa Eng Lai Kuan In Pekan Karangan", "Name_EN": null, "Location": "165, Pekan Karangan, 09700 Karangan, Kedah.", "Longitude": 100.6674156, "Latitude": 5.4205609, "Region": "Kedah", "Category": "宗教", "PageNumber": "53" }, "geometry": { "type": "Point", "coordinates": [ 100.6674, 5.4206, 100.6674 ] } },
{ "type": "Feature", "properties": { "Name_CH": "吉中庆隆花园福德祠理事会", "Name_ML": "Pertubuhan Pengikut Tokong Hock Teik Soo Taman Keladi", "Name_EN": null, "Location": "1, Lorong Angsana 1, Taman Keladi, 08000 Sungai Petani, Kedah.", "Longitude": 100.5011797, "Latitude": 5.6164019, "Region": "Kedah", "Category": "宗教", "PageNumber": "53" }, "geometry": { "type": "Point", "coordinates": [ 100.5012, 5.6164, 100.5012 ] } },
{ "type": "Feature", "properties": { "Name_CH": "居邦慈音佛学会", "Name_ML": "Pertubuhan Buddhist Tze Yin Kupang Baling", "Name_EN": null, "Location": "99, Jalan Gadek, Kupang, Baling, Kedah.", "Longitude": 100.8442524, "Latitude": 5.6344544, "Region": "Kedah", "Category": "宗教", "PageNumber": "53" }, "geometry": { "type": "Point", "coordinates": [ 100.8443, 5.6345, 100.8443 ] } },
{ "type": "Feature", "properties": { "Name_CH": "吉中双溪大年德教会紫修阁", "Name_ML": null, "Name_EN": "Chee Siew Kok Moral Uplifting Society", "Location": "390, Taman lntan, 08000 Sungai Petani, Kedah.", "Longitude": 100.4732147, "Latitude": 5.6356549, "Region": "Kedah", "Category": "宗教", "PageNumber": "53" }, "geometry": { "type": "Point", "coordinates": [ 100.4732, 5.6357, 100.4732 ] } },
{ "type": "Feature", "properties": { "Name_CH": "吉中佛教会", "Name_ML": "Persatuan Buddhist Kedah Tengah", "Name_EN": "Central Kedah Buddhist Association", "Location": "5-F, Jalan Kampung Baru, 08000 Sungai Petani, Kedah.", "Longitude": 100.4884533, "Latitude": 5.6378644, "Region": "Kedah", "Category": "宗教", "PageNumber": "53" }, "geometry": { "type": "Point", "coordinates": [ 100.4885, 5.6379, 100.4885 ] } },
{ "type": "Feature", "properties": { "Name_CH": "吉中徳教会立善阁", "Name_ML": "Persatuan Pendidikan Akhlak Lip Seang Kor", "Name_EN": null, "Location": "188, Air Mendidih, Jalan Badlishah,  08000 Sungai Petani, Kedah.", "Longitude": 100.4957331, "Latitude": 5.6494413, "Region": "Kedah", "Category": "宗教", "PageNumber": "53" }, "geometry": { "type": "Point", "coordinates": [ 100.4957, 5.6494, 100.4957 ] } },
{ "type": "Feature", "properties": { "Name_CH": "马来西亚创价会吉打州分会", "Name_ML": "Persatuan Soka Gakkai Malaysia (Cawangan Kedah)", "Name_EN": null, "Location": "55, Komplek Alor Malal Batu 2, Jalan Langgar, 05460 Alor Setar, Kedah.", "Longitude": 100.3855847, "Latitude": 6.1263811, "Region": "Kedah", "Category": "宗教", "PageNumber": "53" }, "geometry": { "type": "Point", "coordinates": [ 100.3856, 6.1264, 100.3856 ] } },
{ "type": "Feature", "properties": { "Name_CH": "日得拉灵兴庙", "Name_ML": "Rumah Berhala Leng Heng Meow", "Name_EN": "Leng Heng Meow Temple", "Location": "Jalan Dato Seri Osman Aroff, 06000 Jitra, Kedah.", "Longitude": 100.428257, "Latitude": 6.2555782, "Region": "Kedah", "Category": "宗教", "PageNumber": "53" }, "geometry": { "type": "Point", "coordinates": [ 100.4283, 6.2556, 100.4283 ] } },
{ "type": "Feature", "properties": { "Name_CH": "三巴央佛教会", "Name_ML": "Persatuan Penganut Agama Buddha", "Name_EN": "Junjong Buddhist Association", "Location": "Plot 25, Lot 416, Mukim Junjong, 09000 Kulim, Kedah.", "Longitude": 100.5370695, "Latitude": 5.2997054, "Region": "Kedah", "Category": "宗教", "PageNumber": "54" }, "geometry": { "type": "Point", "coordinates": [ 100.5371, 5.2997, 100.5371 ] } },
{ "type": "Feature", "properties": { "Name_CH": "真佛宗北马同修会", "Name_ML": "Pertubuhan Penganut Buddha Chen Foh Chong Kedah Selatan", "Name_EN": null, "Location": "18 Tingkat 2, Jalan Selasih, Taman Semarak, 09000 Kulim, Kedah.", "Longitude": 100.539049, "Latitude": 5.3777893, "Region": "Kedah", "Category": "宗教", "PageNumber": "54" }, "geometry": { "type": "Point", "coordinates": [ 100.539, 5.3778, 100.539 ] } },
{ "type": "Feature", "properties": { "Name_CH": "水莲南无观世音菩萨", "Name_ML": "Pertubuhan Penganut Ajaran Chui Lean Nam Mo Kwan Si Yin Pu Sat Sungai Petani Kedah", "Name_EN": null, "Location": "29, Taman Indah, 08000 Sungai Petani, Kedah.", "Longitude": 100.4841817, "Latitude": 5.6272258, "Region": "Kedah", "Category": "宗教", "PageNumber": "54" }, "geometry": { "type": "Point", "coordinates": [ 100.4842, 5.6272, 100.4842 ] } },
{ "type": "Feature", "properties": { "Name_CH": "双溪大年老街场斗母宫", "Name_ML": "Pertubuhan Penganut Tow Boo Keong Pekan Lama Sungai Petani Kedah", "Name_EN": null, "Location": "424 B, Pekan Lama, 08000 Sungai Petani, Kedah.", "Longitude": 100.4921772, "Latitude": 5.6392792, "Region": "Kedah", "Category": "宗教", "PageNumber": "54" }, "geometry": { "type": "Point", "coordinates": [ 100.4922, 5.6393, 100.4922 ] } },
{ "type": "Feature", "properties": { "Name_CH": "双溪大年新街场新公市莱菜市及各业圣王公理事会", "Name_ML": "Persatuan Penganut Tokong Seah Ong Kong Pasar", "Name_EN": null, "Location": "84-K, Jalan Pengam, Pekan Baru, 08000 Sungai Petani, Kedah.", "Longitude": 100.485679, "Latitude": 5.63982, "Region": "Kedah", "Category": "宗教", "PageNumber": "54" }, "geometry": { "type": "Point", "coordinates": [ 100.4857, 5.6398, 100.4857 ] } },
{ "type": "Feature", "properties": { "Name_CH": "元帅宫", "Name_ML": "Pertubuhan Penganut Yuen Shuai Gong Jin Huang Da Di", "Name_EN": null, "Location": "649, Lorong 96, Taman Ria, 08000 Sungai Petani, Kedah.", "Longitude": 100.5087509, "Latitude": 5.664497, "Region": "Kedah", "Category": "宗教", "PageNumber": "54" }, "geometry": { "type": "Point", "coordinates": [ 100.5088, 5.6645, 100.5088 ] } },
{ "type": "Feature", "properties": { "Name_CH": "新文英佛教会", "Name_ML": "Persatuan Agama Buddha Semeiling Kedah", "Name_EN": null, "Location": "106 Kg. Baru Semeling, 08100 Bedong, Kedah.", "Longitude": 100.464947, "Latitude": 5.7052553, "Region": "Kedah", "Category": "宗教", "PageNumber": "54" }, "geometry": { "type": "Point", "coordinates": [ 100.4649, 5.7053, 100.4649 ] } },
{ "type": "Feature", "properties": { "Name_CH": "亚罗士打道德会", "Name_ML": "Pertubuhan Akhlak Tao Alor Setar", "Name_EN": null, "Location": "1A, Jalan Tokong Simpang Kuala, Alor Setar, Kedah.", "Longitude": 100.3666579, "Latitude": 6.099389, "Region": "Kedah", "Category": "宗教", "PageNumber": "54" }, "geometry": { "type": "Point", "coordinates": [ 100.3667, 6.0994, 100.3667 ] } },
{ "type": "Feature", "properties": { "Name_CH": "真耶苏教会", "Name_ML": "Gereja Jesus Benar Alor Setar Kedah", "Name_EN": null, "Location": "1073 Bee Bee Park, 05400 Alor Setar, Kedah.", "Longitude": 100.36769, "Latitude": 6.119359, "Region": "Kedah", "Category": "宗教", "PageNumber": "54" }, "geometry": { "type": "Point", "coordinates": [ 100.3677, 6.1194, 100.3677 ] } },
{ "type": "Feature", "properties": { "Name_CH": "元真坛", "Name_ML": "Pertubuhan Pengajian Tao (Yen Chern)", "Name_EN": null, "Location": "1111, Lorong Pekaka, Jalan Tunku Abdul Halim, 05100 Jalan Terok Wanjau, Alor Star, Kedah.", "Longitude": 100.369515, "Latitude": 6.127284, "Region": "Kedah", "Category": "宗教", "PageNumber": "54" }, "geometry": { "type": "Point", "coordinates": [ 100.3695, 6.1273, 100.3695 ] } },
{ "type": "Feature", "properties": { "Name_CH": "真佛宗法显堂", "Name_ML": "Pertubuhan Chen Fo Cong Fa Xian Tang Alor Setar Kedah", "Name_EN": null, "Location": "K-20 Rumah Kedai Perumahan Awam Mergong, 051510 Alor Setar, Kedah.", "Longitude": 100.360535, "Latitude": 6.131662, "Region": "Kedah", "Category": "宗教", "PageNumber": "54" }, "geometry": { "type": "Point", "coordinates": [ 100.3605, 6.1317, 100.3605 ] } },
{ "type": "Feature", "properties": { "Name_CH": "日得拉玉皇大帝庙", "Name_ML": "Persatuan Penganut Dewa Gek Hong Tai Tee Kedah Utara", "Name_EN": null, "Location": null, "Longitude": null, "Latitude": null, "Region": "Kedah", "Category": "宗教", "PageNumber": "54" }, "geometry": null },
{ "type": "Feature", "properties": { "Name_CH": "吉打鹤翔庄气功协会", "Name_ML": "Persatuan Hexiang Zhuang Qigong Kedah", "Name_EN": null, "Location": "739-B, Jalan Bakar Sampah,  08000 Sungai Petani, Kedah.", "Longitude": 100.4990311, "Latitude": 5.6364846, "Region": "Kedah", "Category": "体育联谊", "PageNumber": "55" }, "geometry": { "type": "Point", "coordinates": [ 100.499, 5.6365, 100.499 ] } },
{ "type": "Feature", "properties": { "Name_CH": "竹城沤孟兰胜会", "Name_ML": "Pertubuhan Khairat Kematian Kaum Cina Kota Sarang Semut MK Sla Kecil Alor Star, Kedah", "Name_EN": null, "Location": "43, Jalan Pengkalan Kapal, Kota Sarang Semut, Alor Star, Kedah. ", "Longitude": 100.4826035, "Latitude": 5.6397566, "Region": "Kedah", "Category": "宗教", "PageNumber": "55" }, "geometry": { "type": "Point", "coordinates": [ 100.4826, 5.6398, 100.4826 ] } },
{ "type": "Feature", "properties": { "Name_CH": "高拉武拉华人体育会", "Name_ML": "Kuala Muda Chinese Recreation Club Sungai Petani", "Name_EN": null, "Location": "1, Jalan Petri, 08000 Sungai Petani, Kedah.", "Longitude": 100.4864647, "Latitude": 5.6399439, "Region": "Kedah", "Category": "体育联谊", "PageNumber": "55" }, "geometry": { "type": "Point", "coordinates": [ 100.4865, 5.6399, 100.4865 ] } },
{ "type": "Feature", "properties": { "Name_CH": "本同佛教会", "Name_ML": "Persatuan Buddhist Pendang Kedah", "Name_EN": null, "Location": "43 Jalan Titi Lama, 06700 Pendang, Kedah.", "Longitude": 100.5746224, "Latitude": 6.0072868, "Region": "Kedah", "Category": "宗教", "PageNumber": "55" }, "geometry": { "type": "Point", "coordinates": [ 100.5746, 6.0073, 100.5746 ] } },
{ "type": "Feature", "properties": { "Name_CH": "吉北业余乒乓公会", "Name_ML": "Persatuan Ping Pong Amatur Kedah Utara", "Name_EN": "North Kedah Amateur Table Tennis Association", "Location": "14,  Jalan Sinaran 4, Taman Sinaran, Jalan Kuala Kedah, 06600 Alor Star, Kedah.", "Longitude": 100.321238, "Latitude": 6.09392, "Region": "Kedah", "Category": "体育联谊", "PageNumber": "55" }, "geometry": { "type": "Point", "coordinates": [ 100.3212, 6.0939, 100.3212 ] } },
{ "type": "Feature", "properties": { "Name_CH": "吉北太极气功十八式体育总会", "Name_ML": "Persatuan Sukan Taiji Qi Gong Kedah Utara", "Name_EN": null, "Location": "145 Taman Derga Jaya, Jalan Datok Kumbar, 08000 Kedah, ", "Longitude": 100.4009773, "Latitude": 6.1185193, "Region": "Kedah", "Category": "体育联谊", "PageNumber": "55" }, "geometry": { "type": "Point", "coordinates": [ 100.401, 6.1185, 100.401 ] } },
{ "type": "Feature", "properties": { "Name_CH": "吉北象棋公会", "Name_ML": "Persatuan Xiang Qi Kedah Utara", "Name_EN": null, "Location": "c\/o 3-D 3rd Floor Kompleks Star Parade, 05000 Alor Star, Kedah.", "Longitude": 100.3734567, "Latitude": 6.1235386, "Region": "Kedah", "Category": "体育联谊", "PageNumber": "55" }, "geometry": { "type": "Point", "coordinates": [ 100.3735, 6.1235, 100.3735 ] } },
{ "type": "Feature", "properties": { "Name_CH": "吉北艺术协会", "Name_ML": "Persatuan Kesenian Kedah Utara", "Name_EN": "North Kedah Art Association", "Location": "501-A, 1st Floor, Jalan Pintu 10, 05100 Alor Star, Kedah.", "Longitude": 100.3643741, "Latitude": 6.1245758, "Region": "Kedah", "Category": "体育联谊", "PageNumber": "55" }, "geometry": { "type": "Point", "coordinates": [ 100.3644, 6.1246, 100.3644 ] } },
{ "type": "Feature", "properties": { "Name_CH": "吉北篮球公会", "Name_ML": "Persatuan Bola Keranjang Kedah Utara", "Name_EN": null, "Location": "41, Taman Kristal, Kawasan Perindustrian Ringan Mergong, Sbg Jalan Putra, 05150 Alor Setar, Kedah.", "Longitude": 100.3537412, "Latitude": 6.1268221, "Region": "Kedah", "Category": "体育联谊", "PageNumber": "55" }, "geometry": { "type": "Point", "coordinates": [ 100.3537, 6.1268, 100.3537 ] } },
{ "type": "Feature", "properties": { "Name_CH": "巴东昔拉庆兴庙", "Name_ML": "Pertubuhan Penganut Dewan Keng Heng Hong Beow Padang Sera", "Name_EN": null, "Location": "Dewan Keng Hong Beow Padang Sera, 06100 Kodiang, Kedah.", "Longitude": 100.3425708, "Latitude": 6.3541984, "Region": "Kedah", "Category": "宗教", "PageNumber": "55" }, "geometry": { "type": "Point", "coordinates": [ 100.3426, 6.3542, 100.3426 ] } },
{ "type": "Feature", "properties": { "Name_CH": "吉北高岭佛教会", "Name_ML": "Persatuan Buddhist Kodiang Kedah", "Name_EN": null, "Location": "118D, Taman Hossana, Jalan Changlua, 06100 Kodiang, Kedah.", "Longitude": 100.30572, "Latitude": 6.393317, "Region": "Kedah", "Category": "宗教", "PageNumber": "55" }, "geometry": { "type": "Point", "coordinates": [ 100.3057, 6.3933, 100.3057 ] } },
{ "type": "Feature", "properties": { "Name_CH": "吉南华人体育会", "Name_ML": "Kelab Penghiburan Orang-Orang Tionghu", "Name_EN": "South Kedah Chinese Recreation Club", "Location": "11, Taman Tasik Putra, 09000 Kulim, Kedah.", "Longitude": 100.5624212, "Latitude": 5.3725992, "Region": "Kedah", "Category": "体育联谊", "PageNumber": "56" }, "geometry": { "type": "Point", "coordinates": [ 100.5624, 5.3726, 100.5624 ] } },
{ "type": "Feature", "properties": { "Name_CH": "吉中象棋公会", "Name_ML": "Persatuan Catur Cina Kedah Tengah", "Name_EN": "Central Kedah Chinese Chess Association Sungai Petani", "Location": "84 T, Jalan Pegam, Pekan Lama, 08000 Sungai Petani, Kedah.", "Longitude": 100.5529298, "Latitude": 5.6181488, "Region": "Kedah", "Category": "体育联谊", "PageNumber": "56" }, "geometry": { "type": "Point", "coordinates": [ 100.5529, 5.6181, 100.5529 ] } },
{ "type": "Feature", "properties": { "Name_CH": "联友团结会", "Name_ML": "Persatuan Lean Yew Sungai Petani Kedah", "Name_EN": null, "Location": "41, Tingkat 2, Jalan Kuala Ketil, Sungai Petani, Kedah.", "Longitude": 100.510239, "Latitude": 5.6356909, "Region": "Kedah", "Category": "体育联谊", "PageNumber": "56" }, "geometry": { "type": "Point", "coordinates": [ 100.5102, 5.6357, 100.5102 ] } },
{ "type": "Feature", "properties": { "Name_CH": "吉打中华体育会", "Name_ML": "Kelab Rekreasi Orang-Orang Tiong Hua Kedah", "Name_EN": "Kedah Chinese Recreation Club", "Location": "4, Jalan Setesen, 05000 Alor Setar, Kedah.", "Longitude": 100.3705819, "Latitude": 6.1167409, "Region": "Kedah", "Category": "体育联谊", "PageNumber": "56" }, "geometry": { "type": "Point", "coordinates": [ 100.3706, 6.1167, 100.3706 ] } },
{ "type": "Feature", "properties": { "Name_CH": "吉州象棋公会", "Name_ML": "Persatuan Xiang Qi Kedah", "Name_EN": null, "Location": "3D 3rd Floor Kompleks Star Parade, 05000 Alor Star, Kedah.", "Longitude": 100.3730015, "Latitude": 6.1223804, "Region": "Kedah", "Category": "体育联谊", "PageNumber": "56" }, "geometry": { "type": "Point", "coordinates": [ 100.373, 6.1224, 100.373 ] } },
{ "type": "Feature", "properties": { "Name_CH": "吉打州太极气功十八式总会", "Name_ML": "Persatuan Taiji Qi Gong Bercorak 18 Negeri Kedah", "Name_EN": null, "Location": "393-C, Jalan Pintu Sepuluh, Jalan Putra, 05100 Alor Setar, Kedah.", "Longitude": 100.3641906, "Latitude": 6.1236451, "Region": "Kedah", "Category": "体育联谊", "PageNumber": "56" }, "geometry": { "type": "Point", "coordinates": [ 100.3642, 6.1236, 100.3642 ] } },
{ "type": "Feature", "properties": { "Name_CH": "吉打羽球公会", "Name_ML": "Persatuan Badminton Kedah", "Name_EN": "Kedah Badminton Association", "Location": "55-D, Taman Lam Sun, Telok Wanjah, 05200 Alor Star, Kedah.", "Longitude": 100.3801933, "Latitude": 6.1237983, "Region": "Kedah", "Category": "体育联谊", "PageNumber": "56" }, "geometry": { "type": "Point", "coordinates": [ 100.3802, 6.1238, 100.3802 ] } },
{ "type": "Feature", "properties": { "Name_CH": "吉打集友倶乐部", "Name_ML": "Pert Chip Ewe Kok Lok Por", "Name_EN": null, "Location": "28 Jalan Station, Alor Setar, Kedah.", "Longitude": 100.3671695, "Latitude": 6.1263074, "Region": "Kedah", "Category": "体育联谊", "PageNumber": "56" }, "geometry": { "type": "Point", "coordinates": [ 100.3672, 6.1263, 100.3672 ] } },
{ "type": "Feature", "properties": { "Name_CH": "同侨俱乐部", "Name_ML": "Thong Khew Ku Lok Poo", "Name_EN": null, "Location": "314, Jalan Lumpur, 05100 Alor Setar, Kedah.", "Longitude": 100.362487, "Latitude": 6.1267806, "Region": "Kedah", "Category": "体育联谊", "PageNumber": "56" }, "geometry": { "type": "Point", "coordinates": [ 100.3625, 6.1268, 100.3625 ] } },
{ "type": "Feature", "properties": { "Name_CH": "吉打州业余排球总会", "Name_ML": "Persatuan Bola Tampar Amatur Kedah", "Name_EN": "Kedah Amateur Volleyball Association", "Location": "37-R, Seberang Jalan Putera l, 05150 Alor Setar, Kedah.", "Longitude": 100.350241, "Latitude": 6.129484, "Region": "Kedah", "Category": "体育联谊", "PageNumber": "56" }, "geometry": { "type": "Point", "coordinates": [ 100.3502, 6.1295, 100.3502 ] } },
{ "type": "Feature", "properties": { "Name_CH": "亚罗士打精武体育会", "Name_ML": "Persatuan Sukan Chin Woo Alor Setar", "Name_EN": null, "Location": "13, Taman Pelangi, Mergong, 05150 Alor Setar, Kedah.", "Longitude": 100.3610321, "Latitude": 6.1312966, "Region": "Kedah", "Category": "体育联谊", "PageNumber": "56" }, "geometry": { "type": "Point", "coordinates": [ 100.361, 6.1313, 100.361 ] } },
{ "type": "Feature", "properties": { "Name_CH": "吉打少林武术馆", "Name_ML": "Persatuan Seni Mempertahankan Diri Sao Um Negeri Kedah", "Name_EN": null, "Location": "A-88, Taman Wira, Jalan Puyu 1,  Mergong, 05350 Alor Star, Kedah.", "Longitude": 100.3627175, "Latitude": 6.1448779, "Region": "Kedah", "Category": "体育联谊", "PageNumber": "56" }, "geometry": { "type": "Point", "coordinates": [ 100.3627, 6.1449, 100.3627 ] } },
{ "type": "Feature", "properties": { "Name_CH": "福泉安公冢", "Name_ML": "Perkuburan Hock Chuan An Jerlun", "Name_EN": null, "Location": "Pekan Jerlun Mk, 01150 Jerlun, Kedah.", "Longitude": 103.3895446, "Latitude": 3.492095, "Region": "Kedah", "Category": "慈善福利", "PageNumber": "57" }, "geometry": { "type": "Point", "coordinates": [ 103.3895, 3.4921, 103.3895 ] } },
{ "type": "Feature", "properties": { "Name_CH": "福龙山坟山小组", "Name_ML": "Persatuan Hokkien Kedah Selatan", "Name_EN": null, "Location": "291, Jalan Pasar 09000 Kulim, Kedah.", "Longitude": 100.5556366, "Latitude": 5.3694705, "Region": "Kedah", "Category": "慈善福利", "PageNumber": "57" }, "geometry": { "type": "Point", "coordinates": [ 100.5556, 5.3695, 100.5556 ] } },
{ "type": "Feature", "properties": { "Name_CH": "吉北业余排球公会", "Name_ML": "Persatuan Bola Tampar Amatur Kedah Utara", "Name_EN": "North Kedah Amateur Volleyball Association", "Location": "211-A, Taman Berjaya, 05050 Alor Star, Kedah.", "Longitude": 100.3551886, "Latitude": 6.1039007, "Region": "Kedah", "Category": "体育联谊", "PageNumber": "57" }, "geometry": { "type": "Point", "coordinates": [ 100.3552, 6.1039, 100.3552 ] } },
{ "type": "Feature", "properties": { "Name_CH": "高岭广东公冢", "Name_ML": "Persatuan Jawatankuasa Pengurusan Tanah Perkuburan Kwantung Kodiang Kedah", "Name_EN": null, "Location": "15, Taman Bahagia, Jalan Perlis, 06100 Kodiang, Kedah.", "Longitude": 100.354649, "Latitude": 6.108671, "Region": "Kedah", "Category": "慈善福利", "PageNumber": "57" }, "geometry": { "type": "Point", "coordinates": [ 100.3546, 6.1087, 100.3546 ] } },
{ "type": "Feature", "properties": { "Name_CH": "吉北哥打士打业余排球公会", "Name_ML": "Persatuan Bola Tampar Amatur Kota Setar", "Name_EN": "Amateur Volleyball Association", "Location": "40, Taman Bunga Raya, Lorong Bunga Raya 10, 05050 Alor Star, Kedah.", "Longitude": 100.3549995, "Latitude": 6.1105485, "Region": "Kedah", "Category": "体育联谊", "PageNumber": "57" }, "geometry": { "type": "Point", "coordinates": [ 100.355, 6.1105, 100.355 ] } },
{ "type": "Feature", "properties": { "Name_CH": "波各先那互助会", "Name_ML": "Persatuan Kebajikan Penduduk Kampung Baru Pokok Sena, Kedah", "Name_EN": null, "Location": "181-A, Lorong 4 Kiri, 06400 Pokok Sena, Kedah. ", "Longitude": 100.6872457, "Latitude": 6.1511113, "Region": "Kedah", "Category": "慈善福利", "PageNumber": "57" }, "geometry": { "type": "Point", "coordinates": [ 100.6872, 6.1511, 100.6872 ] } },
{ "type": "Feature", "properties": { "Name_CH": "浮罗玉及文曼华人义山理事会", "Name_ML": "Jawatankuasa Perkuburan Orang-Orang Cina", "Name_EN": null, "Location": "Pulau Nyior & Gemban, Jitra, Kedah.", "Longitude": 100.3946198, "Latitude": 6.2824821, "Region": "Kedah", "Category": "慈善福利", "PageNumber": "57" }, "geometry": { "type": "Point", "coordinates": [ 100.3946, 6.2825, 100.3946 ] } },
{ "type": "Feature", "properties": { "Name_CH": "端影义务消防队", "Name_ML": "Pasokan Bomba Sukarela Pekan Tunjang Kedah", "Name_EN": null, "Location": "36, Pekan Tunjang, 06000 Jitra, Kedah.", "Longitude": 100.3744613, "Latitude": 6.2868161, "Region": "Kedah", "Category": "慈善福利", "PageNumber": "57" }, "geometry": { "type": "Point", "coordinates": [ 100.3745, 6.2868, 100.3745 ] } },
{ "type": "Feature", "properties": { "Name_CH": "浮罗交怡中华会馆", "Name_ML": "Chung Hwa Hoay Kuan Kedah", "Name_EN": null, "Location": "12 Pekan Kuah, 07000 Langkawi, Kedah.", "Longitude": 99.8513461, "Latitude": 6.3186696, "Region": "Kedah", "Category": "慈善福利", "PageNumber": "57" }, "geometry": { "type": "Point", "coordinates": [ 99.8513, 6.3187, 99.8513 ] } },
{ "type": "Feature", "properties": { "Name_CH": "浮罗交怡华人高尔夫球公会", "Name_ML": "Persatuan Remain Golf Orang Tiong Hua Langkawi Kedah", "Name_EN": null, "Location": "10 Pekan Kuah, 07000 Langkawi, Kedah.", "Longitude": 99.8496904, "Latitude": 6.3215871, "Region": "Kedah", "Category": "体育联谊", "PageNumber": "57" }, "geometry": { "type": "Point", "coordinates": [ 99.8497, 6.3216, 99.8497 ] } },
{ "type": "Feature", "properties": { "Name_CH": "浮罗交怡华人体育会", "Name_ML": "Kelab Rekreasi Tiong Hua Langkawi Kedah", "Name_EN": null, "Location": "217 Taman Langkawi, 07000 Langkawi, Kedah.", "Longitude": 99.8168481, "Latitude": 6.3330632, "Region": "Kedah", "Category": "体育联谊", "PageNumber": "57" }, "geometry": { "type": "Point", "coordinates": [ 99.8168, 6.3331, 99.8168 ] } },
{ "type": "Feature", "properties": { "Name_CH": "巴东昔拉义务消防队", "Name_ML": "Pasukan Bomba Sukarela Padang Sera", "Name_EN": null, "Location": "37, Padang Sera, 06100 Kodiang, Kedah.", "Longitude": 100.3389712, "Latitude": 6.3565963, "Region": "Kedah", "Category": "慈善福利", "PageNumber": "57" }, "geometry": { "type": "Point", "coordinates": [ 100.339, 6.3566, 100.339 ] } },
{ "type": "Feature", "properties": { "Name_CH": "吉打居林永爱之家", "Name_ML": "Persatuan Bakti Yong Ai Daerah Kulim Kedah", "Name_EN": null, "Location": "121 Lorong Semarak 1, Taman Semaeak, 09000 Kulim, Kedah.", "Longitude": 100.5422899, "Latitude": 5.3786261, "Region": "Kedah", "Category": "慈善福利", "PageNumber": "58" }, "geometry": { "type": "Point", "coordinates": [ 100.5423, 5.3786, 100.5423 ] } },
{ "type": "Feature", "properties": { "Name_CH": "吉北皂礼山华人公冢理事会", "Name_ML": "Persatuan Jawatankuasa Pengurusan Tanah Perkuburan Orang-Orang Awam Cina Bukit Choras Kedah", "Name_EN": null, "Location": "Seng Wor Ricemill, Bukit Besar, Kota Sarang Semut, 06800 Alor Star, Kedah.", "Longitude": 100.4133333, "Latitude": 5.9536111, "Region": "Kedah", "Category": "慈善福利", "PageNumber": "58" }, "geometry": { "type": "Point", "coordinates": [ 100.4133, 5.9536, 100.4133 ] } },
{ "type": "Feature", "properties": { "Name_CH": "华联公会第一及第二公冢", "Name_ML": "Persatuan Hwa Lian Pendang", "Name_EN": null, "Location": "Bangunan Persatuan Hwa Lian, 06700 Pendang, Kedah.", "Longitude": 100.5746224, "Latitude": 6.0072868, "Region": "Kedah", "Category": "慈善福利", "PageNumber": "58" }, "geometry": { "type": "Point", "coordinates": [ 100.5746, 6.0073, 100.5746 ] } },
{ "type": "Feature", "properties": { "Name_CH": "吉打多皆华人公冢", "Name_ML": "Tanah Perkuburan Orang-orang China Tokai", "Name_EN": null, "Location": "c\/o M.C.A. Cawangan Tokai, Pekan Tokai, 06660 Alor Star, Kedah.", "Longitude": 100.412112, "Latitude": 6.0272533, "Region": "Kedah", "Category": "慈善福利", "PageNumber": "58" }, "geometry": { "type": "Point", "coordinates": [ 100.4121, 6.0273, 100.4121 ] } },
{ "type": "Feature", "properties": { "Name_CH": "吉打十字港华联公会", "Name_ML": "Persatuan Kebajian Orang-orang Tionghua Simpang Kedah.", "Name_EN": null, "Location": "Dewan Tokong Kee Tian Kung, Jalan Tokai Simpang Empat, 06050 Alor Star, Kedah.", "Longitude": 100.4292749, "Latitude": 6.0283397, "Region": "Kedah", "Category": "慈善福利", "PageNumber": "58" }, "geometry": { "type": "Point", "coordinates": [ 100.4293, 6.0283, 100.4293 ] } },
{ "type": "Feature", "properties": { "Name_CH": "吉北老新港广东公冢理事会", "Name_ML": "Pertubuhan Perkuburan Kwang Tung Kedah Utara", "Name_EN": null, "Location": "67, Telagar Juan, Kubang Rotan, 06250 Alor Setar, Kedah.", "Longitude": 100.30198, "Latitude": 6.13564, "Region": "Kedah", "Category": "慈善福利", "PageNumber": "58" }, "geometry": { "type": "Point", "coordinates": [ 100.302, 6.1356, 100.302 ] } },
{ "type": "Feature", "properties": { "Name_CH": "吉打波各先那义务消防队", "Name_ML": "Persatuan Bomba Sukarela Pokok Sena", "Name_EN": null, "Location": "Lot 47, Kg. Jalan Pahchor, 06400 Pokok Sena, Alor Star, Kedah.", "Longitude": 100.469345, "Latitude": 6.155521, "Region": "Kedah", "Category": "慈善福利", "PageNumber": "58" }, "geometry": { "type": "Point", "coordinates": [ 100.4693, 6.1555, 100.4693 ] } },
{ "type": "Feature", "properties": { "Name_CH": "吉打高岭福建公冢理事会", "Name_ML": "Jawatankuasa Tanah Perkuburan Hokkien Kodiang Kedah", "Name_EN": null, "Location": "99, Railway Station, 06100 Kodiang, Kedah.", "Longitude": 100.3385624, "Latitude": 6.3779484, "Region": "Kedah", "Category": "慈善福利", "PageNumber": "58" }, "geometry": { "type": "Point", "coordinates": [ 100.3386, 6.3779, 100.3386 ] } },
{ "type": "Feature", "properties": { "Name_CH": "吉打高岭义务消防队", "Name_ML": "Pasukan Bomba Sukarela Mukim Keplu", "Name_EN": null, "Location": "99, Railway Station, 06100 Kodiang, Kedah.", "Longitude": 100.3385624, "Latitude": 6.3779484, "Region": "Kedah", "Category": "慈善福利", "PageNumber": "58" }, "geometry": { "type": "Point", "coordinates": [ 100.3386, 6.3779, 100.3386 ] } },
{ "type": "Feature", "properties": { "Name_CH": "瓜拉民浪华人义山", "Name_ML": "Perkubuhan Cina Kuala Nerang", "Name_EN": null, "Location": null, "Longitude": null, "Latitude": null, "Region": "Kedah", "Category": "慈善福利", "PageNumber": "58" }, "geometry": null },
{ "type": "Feature", "properties": { "Name_CH": "吉玻海南会馆公冢", "Name_ML": "Tanah Kubur Persatuan Hainan Kedah \/ Perlis Pokok Sena Mukim Jabi Lot 1342", "Name_EN": null, "Location": null, "Longitude": null, "Latitude": null, "Region": "Kedah", "Category": "慈善福利", "PageNumber": "58" }, "geometry": null },
{ "type": "Feature", "properties": { "Name_CH": "吉打莪仑华人公冢理事会", "Name_ML": "Perkuburan Perkuburan Cina Gurun Kedah", "Name_EN": null, "Location": null, "Longitude": null, "Latitude": null, "Region": "Kedah", "Category": "慈善福利", "PageNumber": "58" }, "geometry": null },
{ "type": "Feature", "properties": { "Name_CH": "吉南拉岸华人义山", "Name_ML": "Perkuburan Orang Cina Karangan", "Name_EN": null, "Location": "88-A, Dewan Orang Ramai, Karangan, 09700 Kulim, Kedah.", "Longitude": 100.5387767, "Latitude": 5.3337673, "Region": "Kedah", "Category": "慈善福利", "PageNumber": "59" }, "geometry": { "type": "Point", "coordinates": [ 100.5388, 5.3338, 100.5388 ] } },
{ "type": "Feature", "properties": { "Name_CH": "吉南韩江公会", "Name_ML": null, "Name_EN": "Hang Kang Association& Kedah", "Location": "29, Jalan Raya, 09000 Kulim, Kedah.", "Longitude": 100.5552646, "Latitude": 5.3680671, "Region": "Kedah", "Category": "慈善福利", "PageNumber": "59" }, "geometry": { "type": "Point", "coordinates": [ 100.5553, 5.3681, 100.5553 ] } },
{ "type": "Feature", "properties": { "Name_CH": "加拉岸义务消防队", "Name_ML": "Persatuan Pasukan Bomba Sukarela Karangan", "Name_EN": null, "Location": "101, Pekan Karangan, 09700 Karangan, Kedah.", "Longitude": 100.6674156, "Latitude": 5.4205609, "Region": "Kedah", "Category": "慈善福利", "PageNumber": "59" }, "geometry": { "type": "Point", "coordinates": [ 100.6674, 5.4206, 100.6674 ] } },
{ "type": "Feature", "properties": { "Name_CH": "明修善社", "Name_ML": "Beng Slew Sean Siah", "Name_EN": null, "Location": "68, Jalan Kuala Ketil Pekan Lama, 08000 Sungai Petani, Kedah.", "Longitude": 100.4923196, "Latitude": 5.6391983, "Region": "Kedah", "Category": "慈善福利", "PageNumber": "59" }, "geometry": { "type": "Point", "coordinates": [ 100.4923, 5.6392, 100.4923 ] } },
{ "type": "Feature", "properties": { "Name_CH": "吉中善行会", "Name_ML": "Pertubuhan Derma Bakti Kedah Tengah", "Name_EN": null, "Location": "21, Jalan Merbok, 08000 Sungai Petani, Kedah.", "Longitude": 100.486279, "Latitude": 5.6404689, "Region": "Kedah", "Category": "慈善福利", "PageNumber": "59" }, "geometry": { "type": "Point", "coordinates": [ 100.4863, 5.6405, 100.4863 ] } },
{ "type": "Feature", "properties": { "Name_CH": "仁岭福德祠华人公冢", "Name_ML": "Perkuburan Cina Tokong Hock Teik Soo Jeniang", "Name_EN": null, "Location": "Tokong Hock Teik Soo, Jeniang, 08700 Jeniang, Kedah.", "Longitude": 100.5114658, "Latitude": 5.7008751, "Region": "Kedah", "Category": "慈善福利", "PageNumber": "59" }, "geometry": { "type": "Point", "coordinates": [ 100.5115, 5.7009, 100.5115 ] } },
{ "type": "Feature", "properties": { "Name_CH": "吉打新文英玉帝宫华人公冢暨篮督公理事会", "Name_ML": "Rumah Berhala Yok Teh Keong Dan TanahPerkuburan", "Name_EN": null, "Location": "Awam China Serta Keramat Semeling, Kedah.", "Longitude": 100.457528, "Latitude": 5.706851, "Region": "Kedah", "Category": "慈善福利", "PageNumber": "59" }, "geometry": { "type": "Point", "coordinates": [ 100.4575, 5.7069, 100.4575 ] } },
{ "type": "Feature", "properties": { "Name_CH": "稜幹社", "Name_ML": "Leng Kan Seah", "Name_EN": null, "Location": "189, Jalan Penjara Lamaz 05000 Alor Star, Kedah.", "Longitude": 100.3636117, "Latitude": 6.1177151, "Region": "Kedah", "Category": "慈善福利", "PageNumber": "59" }, "geometry": { "type": "Point", "coordinates": [ 100.3636, 6.1177, 100.3636 ] } },
{ "type": "Feature", "properties": { "Name_CH": "弥勒爱心会", "Name_ML": "Pertubuhan Penyokong Mi Leh Aixin", "Name_EN": null, "Location": "25-A, Lorong Lintang Off Jalan Merpati, 05200 Alor Star, Kedah.", "Longitude": 100.3742118, "Latitude": 6.1195635, "Region": "Kedah", "Category": "慈善福利", "PageNumber": "59" }, "geometry": { "type": "Point", "coordinates": [ 100.3742, 6.1196, 100.3742 ] } },
{ "type": "Feature", "properties": { "Name_CH": "吉打武吉槟榔弄拐山华人公冢理事会", "Name_ML": "Jawatankuasa Pengurus Tanah Perkuburan Orang Orang Awam Cina Bukit Pinang Kedah", "Name_EN": null, "Location": "245 Bukit Pinang, Kedah.", "Longitude": 100.4227992, "Latitude": 6.192955, "Region": "Kedah", "Category": "慈善福利", "PageNumber": "59" }, "geometry": { "type": "Point", "coordinates": [ 100.4228, 6.193, 100.4228 ] } },
{ "type": "Feature", "properties": { "Name_CH": "吉打双弄广东华人公冢", "Name_ML": "Persaluon Pengurusan Tanah Perkuburan", "Name_EN": null, "Location": "150 Kuala Sanglang, Sing Cheong Chong, 06150 Kualo Sanglang, Kedah.", "Longitude": 100.1990716, "Latitude": 6.2594019, "Region": "Kedah", "Category": "慈善福利", "PageNumber": "59" }, "geometry": { "type": "Point", "coordinates": [ 100.1991, 6.2594, 100.1991 ] } },
{ "type": "Feature", "properties": { "Name_CH": "吉南双溪吉舌於列华人公冢", "Name_ML": null, "Name_EN": "Sungai Kecil llir Chinese Cemetery", "Location": null, "Longitude": null, "Latitude": null, "Region": "Kedah", "Category": "慈善福利", "PageNumber": "59" }, "geometry": null },
{ "type": "Feature", "properties": { "Name_CH": "西领华人义山委员会", "Name_ML": "Pertubuhan Jawatankuasa Pengurusan Tanah Perku-buran Cina Serdang Kedah", "Name_EN": null, "Location": "93 Main Road, 09800 Serdang, Kedah.", "Longitude": 100.6421799, "Latitude": 5.2399823, "Region": "Kedah", "Category": "慈善福利", "PageNumber": "60" }, "geometry": { "type": "Point", "coordinates": [ 100.6422, 5.24, 100.6422 ] } },
{ "type": "Feature", "properties": { "Name_CH": "曾乃福德祠义山", "Name_ML": "Perkuburan Hock Teik Soo Lunas", "Name_EN": null, "Location": "No.286, Jalan Sungai Lunas, Kedah.", "Longitude": 100.5318426, "Latitude": 5.4269426, "Region": "Kedah", "Category": "慈善福利", "PageNumber": "60" }, "geometry": { "type": "Point", "coordinates": [ 100.5318, 5.4269, 100.5318 ] } },
{ "type": "Feature", "properties": { "Name_CH": "巴东色海华人义山理事会", "Name_ML": "Pawatankuasa Perkuburan Orang-Orang Cina Padang Serai Kedah", "Name_EN": null, "Location": "D\/A L. C. 36 Jalan Lunas, Padang Serai, Kedah.", "Longitude": 100.554122, "Latitude": 5.511538, "Region": "Kedah", "Category": "慈善福利", "PageNumber": "60" }, "geometry": { "type": "Point", "coordinates": [ 100.5541, 5.5115, 100.5541 ] } },
{ "type": "Feature", "properties": { "Name_CH": "武吉茹椒华人理事会", "Name_ML": "Persatuan Joo Hua Bukit Junun Kedah", "Name_EN": null, "Location": "Jalan Kilang Kecil, Bukit Junun, 06720 Kedah.", "Longitude": 100.4774178, "Latitude": 5.9035371, "Region": "Kedah", "Category": "慈善福利", "PageNumber": "60" }, "geometry": { "type": "Point", "coordinates": [ 100.4774, 5.9035, 100.4774 ] } },
{ "type": "Feature", "properties": { "Name_CH": "亚罗士打泾慈善福利中心", "Name_ML": "Pertubuhan Kebajikan San Sheng Alor Star", "Name_EN": null, "Location": "16, Taman Putra Jaya, Jalan Tanjung Bebdahara, 05300 Alor Star, Kedah.", "Longitude": 100.3777326, "Latitude": 6.1115868, "Region": "Kedah", "Category": "慈善福利", "PageNumber": "60" }, "geometry": { "type": "Point", "coordinates": [ 100.3777, 6.1116, 100.3777 ] } },
{ "type": "Feature", "properties": { "Name_CH": "亚罗士打默贡珍珠园华裔居民协会", "Name_ML": "Persatuan Penduduk-Penduduk Cina Taman Mutiara Mergong", "Name_EN": null, "Location": "58, Taman Mutiara Mergong 05150 Alor Star, Kedah.", "Longitude": 100.346504, "Latitude": 6.132868, "Region": "Kedah", "Category": "慈善福利", "PageNumber": "60" }, "geometry": { "type": "Point", "coordinates": [ 100.3465, 6.1329, 100.3465 ] } },
{ "type": "Feature", "properties": { "Name_CH": "亚罗士打PKNK园华人福利组", "Name_ML": "Persatuan Kebajaka Tiong Hua Taman PKNK Alor Setar", "Name_EN": null, "Location": "2150 Taman PKNK, Alor Malai, 05200 Alor Setar, Kedah.", "Longitude": 100.3854925, "Latitude": 6.1358285, "Region": "Kedah", "Category": "慈善福利", "PageNumber": "60" }, "geometry": { "type": "Point", "coordinates": [ 100.3855, 6.1358, 100.3855 ] } },
{ "type": "Feature", "properties": { "Name_CH": "巴东昔拉华人义山公会", "Name_ML": "Persatuan Pengurusan Tanah Perkubuhan Cina Padang Sera", "Name_EN": null, "Location": "10 Padang Sera 06100 Kodiang, Kedah.", "Longitude": 100.3389712, "Latitude": 6.3565963, "Region": "Kedah", "Category": "慈善福利", "PageNumber": "60" }, "geometry": { "type": "Point", "coordinates": [ 100.339, 6.3566, 100.339 ] } },
{ "type": "Feature", "properties": { "Name_CH": "樟仑义务消防队", "Name_ML": "Pasukan Bomba Sukarela Changlun", "Name_EN": null, "Location": "4, Jalan Kodiang, Pekan Baru, 06010 Changlun, Kedah.", "Longitude": 100.30572, "Latitude": 6.393317, "Region": "Kedah", "Category": "慈善福利", "PageNumber": "60" }, "geometry": { "type": "Point", "coordinates": [ 100.3057, 6.3933, 100.3057 ] } },
{ "type": "Feature", "properties": { "Name_CH": "樟仑福建义冢", "Name_ML": "Lembaga Pengurus Kubor Orang-orang Hokian Changlun, Kedah", "Name_EN": null, "Location": "34, Pekan Lama Changlun, 06010, Jitra, Kedah.", "Longitude": 100.4285286, "Latitude": 6.4284842, "Region": "Kedah", "Category": "慈善福利", "PageNumber": "60" }, "geometry": { "type": "Point", "coordinates": [ 100.4285, 6.4285, 100.4285 ] } },
{ "type": "Feature", "properties": { "Name_CH": "樟仑天主堂理事会", "Name_ML": "Jawatan Kuasa Gereja Katholik Changloon, Kedah Ng Ngen Fatt", "Name_EN": "Parish Church Council", "Location": "No.69 A, Kg. Baru, Pekan Baru, 06010 Changlun, Kedah.", "Longitude": 100.429997, "Latitude": 6.43183, "Region": "Kedah", "Category": "慈善福利", "PageNumber": "60" }, "geometry": { "type": "Point", "coordinates": [ 100.43, 6.4318, 100.43 ] } },
{ "type": "Feature", "properties": { "Name_CH": "武吉槟榔华人公冢", "Name_ML": "Jawatankuasa Pengurus Tanah Perkuburan Orang-orang Awam China Bkt Pinang, Kedah", "Name_EN": null, "Location": null, "Longitude": null, "Latitude": null, "Region": "Kedah", "Category": "慈善福利", "PageNumber": "60" }, "geometry": null },
{ "type": "Feature", "properties": { "Name_CH": "巴东伦武华人公冢理事会", "Name_ML": "Pertubuhan Perkuburan Orang-Orang Cina Padang Lembu", "Name_EN": null, "Location": "18K, Padang Lembu, 08330 Gurun, Kedah.", "Longitude": 100.533086, "Latitude": 5.837977, "Region": "Kedah", "Category": "慈善福利", "PageNumber": "61" }, "geometry": { "type": "Point", "coordinates": [ 100.5331, 5.838, 100.5331 ] } },
{ "type": "Feature", "properties": { "Name_CH": "马来西亚青年运动(青运)吉打州", "Name_ML": "Pengerakan Pemuda Malaysia Cawangan Negeri Kedah", "Name_EN": "Young Malaysians Movement (YMM) Kedah", "Location": "499, Tingkat Alas, Jalan Kenanga 13, Taman Sri Ampang, 05050 Alor Setar, Kedah.", "Longitude": 100.3383778, "Latitude": 6.1078054, "Region": "Kedah", "Category": "青年妇女", "PageNumber": "61" }, "geometry": { "type": "Point", "coordinates": [ 100.3384, 6.1078, 100.3384 ] } },
{ "type": "Feature", "properties": { "Name_CH": "爪美福建公冢", "Name_ML": "Perkuburan Orang-orang Cina Hokkien", "Name_EN": null, "Location": null, "Longitude": null, "Latitude": null, "Region": "Kedah", "Category": "慈善福利", "PageNumber": "61" }, "geometry": null },
{ "type": "Feature", "properties": { "Name_CH": "亚罗士打吉华中学", "Name_ML": null, "Name_EN": "Keat Hwa High School", "Location": "550, Jalan Teretai, Off Jalan Pegawal, 05050 Alor Star, Kedah.", "Longitude": 100.368682, "Latitude": 6.148015, "Region": "Kedah", "Category": "独立中学", "PageNumber": "413" }, "geometry": { "type": "Point", "coordinates": [ 100.3687, 6.148, 100.3687 ] } },
{ "type": "Feature", "properties": { "Name_CH": "亚罗士打新民中学", "Name_ML": "Sekolah Menengah Sin Min", "Name_EN": null, "Location": "No.1, Jalan Alor Mengkudu, Mukim Derga, 05400 Alor Setar, Kedah.", "Longitude": 100.368682, "Latitude": 6.148015, "Region": "Kedah", "Category": "独立中学", "PageNumber": "413" }, "geometry": { "type": "Point", "coordinates": [ 100.3687, 6.148, 100.3687 ] } },
{ "type": "Feature", "properties": { "Name_CH": "双溪大年新民中学", "Name_ML": null, "Name_EN": "Sin Min High School", "Location": "Lot 12233, Fasa 2, Taman Keladi, 08000 Sg. Petani, Kedah.", "Longitude": 100.666805, "Latitude": 5.927141, "Region": "Kedah", "Category": "独立中学", "PageNumber": "413" }, "geometry": { "type": "Point", "coordinates": [ 100.6668, 5.9271, 100.6668 ] } }
]
}
