{
"type": "FeatureCollection",
"name": "Region_9",
"crs": { "type": "name", "properties": { "name": "urn:ogc:def:crs:OGC:1.3:CRS84" } },
"features": [
{ "type": "Feature", "properties": { "Name_CH": "淡边福建会馆", "Name_ML": null, "Name_EN": "The Tampin Hokkien Association", "Location": "80A,(1st Flr), Kg. Baru, 73000 Tampin, Negeri Sembilan.", "Longitude": 102.2260916, "Latitude": 2.4799557, "Region": "Negeri Sembilan", "Category": "地缘", "PageNumber": "225" }, "geometry": { "type": "Point", "coordinates": [ 102.2261, 2.48, 102.2261 ] } },
{ "type": "Feature", "properties": { "Name_CH": "波德申福建会馆", "Name_ML": "Persatuan Hokkien Port Dickson Negeri Sembilan", "Name_EN": null, "Location": "19,Pasar Baru,Port Dickson, 71000 Port Dickson, Negeri Sembilan.", "Longitude": 101.7953558, "Latitude": 2.5263432, "Region": "Negeri Sembilan", "Category": "地缘", "PageNumber": "225" }, "geometry": { "type": "Point", "coordinates": [ 101.7954, 2.5263, 101.7954 ] } },
{ "type": "Feature", "properties": { "Name_CH": "波德申海南会馆", "Name_ML": "Persatuan Hainan Port Dickson", "Name_EN": null, "Location": "66C, Tingkat Atas, Jalan Baru, 71000 Port Dickson, Negeri Sembilan.", "Longitude": 101.8026861, "Latitude": 2.5532129, "Region": "Negeri Sembilan", "Category": "地缘", "PageNumber": "225" }, "geometry": { "type": "Point", "coordinates": [ 101.8027, 2.5532, 101.8027 ] } },
{ "type": "Feature", "properties": { "Name_CH": "森美兰晏斗华人公会", "Name_ML": "Persatuan Cina Rantau Negeri Sembilan ", "Name_EN": "Rantau Chinese Association Negeri Sembilan", "Location": "Lot 3713 \/172-173, Tingkat 1, Taman Pasir Mas, 71200 Rantau, Negeri Sembilan.", "Longitude": 101.9498024, "Latitude": 2.6319399, "Region": "Negeri Sembilan", "Category": "综合", "PageNumber": "225" }, "geometry": { "type": "Point", "coordinates": [ 101.9498, 2.6319, 101.9498 ] } },
{ "type": "Feature", "properties": { "Name_CH": "马口华团联合会", "Name_ML": "Gabungan Persatuan Tiong Hua Bahau Negeri Sembilan", "Name_EN": null, "Location": "47, Tingkat 2, Jalan D ato5 Jem pol Jalan Besar, 72100 Bahau, Negeri Sembilan.", "Longitude": 102.2484315, "Latitude": 2.7389692, "Region": "Negeri Sembilan", "Category": "综合", "PageNumber": "225" }, "geometry": { "type": "Point", "coordinates": [ 102.2484, 2.739, 102.2484 ] } },
{ "type": "Feature", "properties": { "Name_CH": "淡边浮罗士邦华人公会", "Name_ML": "Persatuan Cina Tampin Dan Pulau Sebang Neger Sembilan", "Name_EN": null, "Location": "80A,(1st Flr), Kg. Baru, 73000 Tampin, Negeri Sembilan.", "Longitude": 102.2484315, "Latitude": 2.7389692, "Region": "Negeri Sembilan", "Category": "综合", "PageNumber": "225" }, "geometry": { "type": "Point", "coordinates": [ 102.2484, 2.739, 102.2484 ] } },
{ "type": "Feature", "properties": { "Name_CH": "庇月劳海南会馆", "Name_ML": "Persatuan Hainan Kuala Pilah", "Name_EN": null, "Location": "108, Jalan Yam Tuan 72000 Kuala Pilah, Negeri Sembilan.", "Longitude": 102.2484315, "Latitude": 2.7389692, "Region": "Negeri Sembilan", "Category": "地缘", "PageNumber": "225" }, "geometry": { "type": "Point", "coordinates": [ 102.2484, 2.739, 102.2484 ] } },
{ "type": "Feature", "properties": { "Name_CH": "森美兰华人公会", "Name_ML": "Persatuan Tiong Hua Negeri Sembilan", "Name_EN": "Negeri Sembilan Chinese Association", "Location": "96(atas) Jalan Tem iang, 70200 Seremban, Negeri Sembilan.", "Longitude": 101.9422827, "Latitude": 2.7426786, "Region": "Negeri Sembilan", "Category": "综合", "PageNumber": "225" }, "geometry": { "type": "Point", "coordinates": [ 101.9423, 2.7427, 101.9423 ] } },
{ "type": "Feature", "properties": { "Name_CH": "森美兰中华大会堂", "Name_ML": "Dewan Perhimpunan China Negeri Sembilan", "Name_EN": "Negeri Sembilan Chinese Assembly Hall", "Location": "96 (2nd FloorlJalan Temiang, 70200 Seremban, Negeri Sembilan.", "Longitude": 101.9375713, "Latitude": 2.7447639, "Region": "Negeri Sembilan", "Category": "综合", "PageNumber": "225" }, "geometry": { "type": "Point", "coordinates": [ 101.9376, 2.7448, 101.9376 ] } },
{ "type": "Feature", "properties": { "Name_CH": "庇月劳客属公会", "Name_ML": "Persatuan Hakka Kuala Pilah", "Name_EN": null, "Location": "102Jalan Yam Tuan,72000 Kuala Pilah, Negeri Sembilan", "Longitude": 102.202109, "Latitude": 2.8398229, "Region": "Negeri Sembilan", "Category": "地缘", "PageNumber": "225" }, "geometry": { "type": "Point", "coordinates": [ 102.2021, 2.8398, 102.2021 ] } },
{ "type": "Feature", "properties": { "Name_CH": "淡边海南会馆 ", "Name_ML": "Persatuan Hainan Tampin", "Name_EN": null, "Location": " 282, Pulau Sebang, 73000 Tampin, Melaka.", "Longitude": 102.2210308, "Latitude": 2.4546815, "Region": "Negeri Sembilan", "Category": "地缘", "PageNumber": "226" }, "geometry": { "type": "Point", "coordinates": [ 102.221, 2.4547, 102.221 ] } },
{ "type": "Feature", "properties": { "Name_CH": "淡边桂高波联谊会", "Name_ML": "Persatuan Kwai Kooh Song Tampin", "Name_EN": "Tampin Kwai Kooh Song Association ", "Location": " 202, Kampung Baru Tampin, 73000 Tampin, Negeri Sembilan.", "Longitude": 102.1947658, "Latitude": 2.4547882, "Region": "Negeri Sembilan", "Category": "地缘", "PageNumber": "226" }, "geometry": { "type": "Point", "coordinates": [ 102.1948, 2.4548, 102.1948 ] } },
{ "type": "Feature", "properties": { "Name_CH": "淡边客家公会  ", "Name_ML": "Pertubuhan Hakka Tampin", "Name_EN": "Hakka Association Tampin", "Location": "P.S. 1044, Jin Perhentian Bas, 73000 Pulau Sebang,Tampin.Pos., Negeri Sembilan.", "Longitude": 102.2285236, "Latitude": 2.462144, "Region": "Negeri Sembilan", "Category": "地缘", "PageNumber": "226" }, "geometry": { "type": "Point", "coordinates": [ 102.2285, 2.4621, 102.2285 ] } },
{ "type": "Feature", "properties": { "Name_CH": "淡边嘉应同乡会", "Name_ML": "Kah Yin Thong Heong Fui Tampin ", "Name_EN": null, "Location": "AG 3962(Tingkat 1) Jalan Pasar Pulau Sebang, 73000 Tampin, Negeri Sembilan.", "Longitude": 102.2294258, "Latitude": 2.4653402, "Region": "Negeri Sembilan", "Category": "地缘", "PageNumber": "226" }, "geometry": { "type": "Point", "coordinates": [ 102.2294, 2.4653, 102.2294 ] } },
{ "type": "Feature", "properties": { "Name_CH": "东安会馆", "Name_ML": "Persatuan Toong Onn Kwoon ", "Name_EN": null, "Location": "72, Jalan Murray, Seremban, Negeri Sembilan.", "Longitude": 101.8319034, "Latitude": 2.7124874, "Region": "Negeri Sembilan", "Category": "地缘", "PageNumber": "226" }, "geometry": { "type": "Point", "coordinates": [ 101.8319, 2.7125, 101.8319 ] } },
{ "type": "Feature", "properties": { "Name_CH": "瓜拉庇月劳应和会馆   ", "Name_ML": "Persatuan Yin Foh", "Name_EN": "Yin Foh Association Kuala Pilah", "Location": "166, (Tingkat 2), Jalan Seremban Lama, 72000 Kuala Pilah, Negeri Sembilan.", "Longitude": 101.9366524, "Latitude": 2.7285749, "Region": "Negeri Sembilan", "Category": "地缘", "PageNumber": "226" }, "geometry": { "type": "Point", "coordinates": [ 101.9367, 2.7286, 101.9367 ] } },
{ "type": "Feature", "properties": { "Name_CH": "瓜拉庇月劳广东会馆", "Name_ML": "Persatuan Kwang Tung Kuala Pilah", "Name_EN": "Kuala Pilah District Kwang Tung Association", "Location": "68, Jalan Dato, Undang Johol 72000 Kuala Pilah, Negeri Sembilan.", "Longitude": 102.2482644, "Latitude": 2.73847899, "Region": "Negeri Sembilan", "Category": "地缘", "PageNumber": "226" }, "geometry": { "type": "Point", "coordinates": [ 102.2483, 2.7385, 102.2483 ] } },
{ "type": "Feature", "properties": { "Name_CH": "瓜拉庇月劳永春公所   ", "Name_ML": "Persatuan Eng Choon Kong So Kuala Pilah", "Name_EN": "Kuala Pilah Eng Choon Kong So", "Location": "164, Jalan Yam Tuan Taden,72000 Kuala Pilah, Negeri Sembilan.", "Longitude": 102.2495684, "Latitude": 2.73957116, "Region": "Negeri Sembilan", "Category": "地缘", "PageNumber": "226" }, "geometry": { "type": "Point", "coordinates": [ 102.2496, 2.7396, 102.2496 ] } },
{ "type": "Feature", "properties": { "Name_CH": "瓜拉庇月劳福莆仙公会 ", "Name_ML": "Persatuan Hock Pou Sen Kuala Pilah Negeri Sembilan", "Name_EN": null, "Location": "200, Jalan Tung Yen, 72000 Kuala Pilah, Negeri Sembilan.", "Longitude": 102.2471545, "Latitude": 2.7402947, "Region": "Negeri Sembilan", "Category": "地缘", "PageNumber": "226" }, "geometry": { "type": "Point", "coordinates": [ 102.2472, 2.7403, 102.2472 ] } },
{ "type": "Feature", "properties": { "Name_CH": "金马士客属公会 ", "Name_ML": "Persatuan Hakka Gemas Negeri Sembilan ", "Name_EN": null, "Location": "Lot 961, Jalan Pasar, 73400 Gemas, Negeri Sembilan.", "Longitude": 101.5927194, "Latitude": 2.8090513, "Region": "Negeri Sembilan", "Category": "地缘", "PageNumber": "226" }, "geometry": { "type": "Point", "coordinates": [ 101.5927, 2.8091, 101.5927 ] } },
{ "type": "Feature", "properties": { "Name_CH": "马口潮州会馆 ", "Name_ML": "Persatuan Teo Chew Bahau ", "Name_EN": null, "Location": "15, (Tingkat 2), Jalan Dato5 Besar, 72100 Bahau, Negeri Sembilan.", "Longitude": 102.3971737, "Latitude": 2.8112945, "Region": "Negeri Sembilan", "Category": "地缘", "PageNumber": "226" }, "geometry": { "type": "Point", "coordinates": [ 102.3972, 2.8113, 102.3972 ] } },
{ "type": "Feature", "properties": { "Name_CH": "金马士福建会馆 ", "Name_ML": "Persatuan Hokkien Gemas Negeri Sembilan  ", "Name_EN": "Negeri Sembilan Gemas Hokkien Association", "Location": "967, Jalan Pasar, 73400 Gemas, Negeri Sembilan.", "Longitude": 102.4009093, "Latitude": 2.81214408, "Region": "Negeri Sembilan", "Category": "地缘", "PageNumber": "226" }, "geometry": { "type": "Point", "coordinates": [ 102.4009, 2.8121, 102.4009 ] } },
{ "type": "Feature", "properties": { "Name_CH": "森甲河婆同乡会", "Name_ML": "Persatuan Hopo Negeri Sembilan\/Melaka", "Name_EN": null, "Location": "598-B Jalan Besar, 73000 Tampin, Negeri Sembilan.", "Longitude": 102.2294931, "Latitude": 2.4699917, "Region": "Negeri Sembilan", "Category": "地缘", "PageNumber": "227" }, "geometry": { "type": "Point", "coordinates": [ 102.2295, 2.47, 102.2295 ] } },
{ "type": "Feature", "properties": { "Name_CH": "柔河永春公所", "Name_ML": "Persatuan Keturunan Eng Choon Kong Soh, Johol Negeri Sembilan", "Name_EN": null, "Location": "45, Jalan Besar, 73100 Johol, Negeri Sembilan.", "Longitude": 102.1256114, "Latitude": 2.659358, "Region": "Negeri Sembilan", "Category": "地缘", "PageNumber": "227" }, "geometry": { "type": "Point", "coordinates": [ 102.1256, 2.6594, 102.1256 ] } },
{ "type": "Feature", "properties": { "Name_CH": "柔和海南会馆", "Name_ML": "Persatuan Hainan Johol Negeri Sembilan", "Name_EN": null, "Location": "27,  Main Road, Johol Kuala Pilah, Negeri Sembilan.", "Longitude": 102.1091167, "Latitude": 2.68037497, "Region": "Negeri Sembilan", "Category": "地缘", "PageNumber": "227" }, "geometry": { "type": "Point", "coordinates": [ 102.1091, 2.6804, 102.1091 ] } },
{ "type": "Feature", "properties": { "Name_CH": "马来西亚海陆会馆   ", "Name_ML": "Persatuan Hoi Loke Malaysia", "Name_EN": "Hoi Loke Association Malaysia", "Location": "80-C ,Tingkat 2, Jalan Rasah, 70300 Seremban, Negeri Sembilan.", "Longitude": 101.9005761, "Latitude": 2.69639438, "Region": "Negeri Sembilan", "Category": "地缘", "PageNumber": "227" }, "geometry": { "type": "Point", "coordinates": [ 101.9006, 2.6964, 101.9006 ] } },
{ "type": "Feature", "properties": { "Name_CH": "日拉务嘉属会馆", "Name_ML": "Persatuan Kah Shook Fui Kon", "Name_EN": null, "Location": "98, Keyser Road, 71600 Kuala Klawang, Jelebu, Negeri Sembilan.", "Longitude": 102.3906036, "Latitude": 2.7275665, "Region": "Negeri Sembilan", "Category": "地缘", "PageNumber": "227" }, "geometry": { "type": "Point", "coordinates": [ 102.3906, 2.7276, 102.3906 ] } },
{ "type": "Feature", "properties": { "Name_CH": "马口高州会馆 ", "Name_ML": "Persatuan Ko Chow Bahau ", "Name_EN": "Bahau Ko Chow Asssociation ", "Location": "106,Gurney Road, Bahau, Jempol Negeri Sembilan.", "Longitude": 102.2651437, "Latitude": 2.7409218, "Region": "Negeri Sembilan", "Category": "地缘", "PageNumber": "227" }, "geometry": { "type": "Point", "coordinates": [ 102.2651, 2.7409, 102.2651 ] } },
{ "type": "Feature", "properties": { "Name_CH": "马口广西会馆  ", "Name_ML": "Persatuan Kwang Si Bahau Negeri Sembilan", "Name_EN": null, "Location": "47Jalan Dato5 Leia Petra, 72100 Bahau, Negeri Sembilan.", "Longitude": 102.0674399, "Latitude": 2.762126, "Region": "Negeri Sembilan", "Category": "地缘", "PageNumber": "227" }, "geometry": { "type": "Point", "coordinates": [ 102.0674, 2.7621, 102.0674 ] } },
{ "type": "Feature", "properties": { "Name_CH": "马口客家公会   ", "Name_ML": "Persatuan Hakka Bahau", "Name_EN": "Bahau Hakka Association", "Location": "105, Jalan Gurney 72100, Bahau, Negeri Sembilan.", "Longitude": 102.3957343, "Latitude": 2.80656674, "Region": "Negeri Sembilan", "Category": "地缘", "PageNumber": "227" }, "geometry": { "type": "Point", "coordinates": [ 102.3957, 2.8066, 102.3957 ] } },
{ "type": "Feature", "properties": { "Name_CH": "马口福建会馆", "Name_ML": "Persatuan Hokkian Bahau", "Name_EN": "Bahau Hokkien Association", "Location": "107 (atas) Jalan Mewah, 72100 Bahau, Negeri Sembilan.", "Longitude": 102.4017774, "Latitude": 2.8110511, "Region": "Negeri Sembilan", "Category": "地缘", "PageNumber": "227" }, "geometry": { "type": "Point", "coordinates": [ 102.4018, 2.8111, 102.4018 ] } },
{ "type": "Feature", "properties": { "Name_CH": "仁保县海南会馆", "Name_ML": "Persatuan Hainan Daerah Jempol", "Name_EN": null, "Location": "105, Jalan Dato, Komo,72100 Bahau,Negeri Sembilan.", "Longitude": 102.397818, "Latitude": 2.8118234, "Region": "Negeri Sembilan", "Category": "地缘", "PageNumber": "227" }, "geometry": { "type": "Point", "coordinates": [ 102.3978, 2.8118, 102.3978 ] } },
{ "type": "Feature", "properties": { "Name_CH": "日拉务福建会馆", "Name_ML": "Persatuan Hokkien Jelebu Negeri Sembilan", "Name_EN": null, "Location": "26, Jalan Besar, 71600 Kuala Klawang, Jelebu, Negeri Sembilan.", "Longitude": 101.8924555, "Latitude": 2.82396271, "Region": "Negeri Sembilan", "Category": "地缘", "PageNumber": "227" }, "geometry": { "type": "Point", "coordinates": [ 101.8925, 2.824, 101.8925 ] } },
{ "type": "Feature", "properties": { "Name_CH": "马口泷江同乡会   ", "Name_ML": "Persatuan Siong Kong Bahau", "Name_EN": "Siong Kong Association", "Location": "108, Jalan Gurney 72100 Bahau, Negeri Sembilan.", "Longitude": 101.8006681, "Latitude": 2.9025162, "Region": "Negeri Sembilan", "Category": "地缘", "PageNumber": "227" }, "geometry": { "type": "Point", "coordinates": [ 101.8007, 2.9025, 101.8007 ] } },
{ "type": "Feature", "properties": { "Name_CH": "森美兰南安会馆", "Name_ML": null, "Name_EN": "Negeri Sembilan Nam Ann Association", "Location": "2nd Floor, no. 26 Jalan Besar, 71010 Lukut, Negeri Sembilan.", "Longitude": 101.8265474, "Latitude": 2.5689945, "Region": "Negeri Sembilan", "Category": "地缘", "PageNumber": "228" }, "geometry": { "type": "Point", "coordinates": [ 101.8265, 2.569, 101.8265 ] } },
{ "type": "Feature", "properties": { "Name_CH": "森美兰广西会馆", "Name_ML": null, "Name_EN": "Negeri Sembilan Kwongsai Association", "Location": "12(3rd Floor), Jalan Dato Lee Fong Yee, 70000 Seremban, Negeri Sembilan.", "Longitude": 101.9375641, "Latitude": 2.725632, "Region": "Negeri Sembilan", "Category": "地缘", "PageNumber": "228" }, "geometry": { "type": "Point", "coordinates": [ 101.9376, 2.7256, 101.9376 ] } },
{ "type": "Feature", "properties": { "Name_CH": "森美兰福建会馆", "Name_ML": "Persatuan Hokkien Negeri Sembilan", "Name_EN": "Negeri Sembilan Hokkien Association", "Location": "33，Jalan Nunis, 70000 Seremban, Negeri Sembilan.", "Longitude": 101.9377904, "Latitude": 2.727443, "Region": "Negeri Sembilan", "Category": "地缘", "PageNumber": "228" }, "geometry": { "type": "Point", "coordinates": [ 101.9378, 2.7274, 101.9378 ] } },
{ "type": "Feature", "properties": { "Name_CH": "森美兰海南会馆", "Name_ML": "Persatuan Hainan Negeri Sembilan", "Name_EN": "Negeri Sembilan Hainan Association", "Location": "30-3L Jalan Dato Abdul Malek, 70000 Seremban, Negeri Sembilan.", "Longitude": 101.9410195, "Latitude": 2.7281826, "Region": "Negeri Sembilan", "Category": "地缘", "PageNumber": "228" }, "geometry": { "type": "Point", "coordinates": [ 101.941, 2.7282, 101.941 ] } },
{ "type": "Feature", "properties": { "Name_CH": "森美兰顺德会馆", "Name_ML": null, "Name_EN": "Negeri Sembilan Soon Tuck Association", "Location": "68, Jalan Lemon, 70000 Seremban, Negeri Sembilan.", "Longitude": 101.9343478, "Latitude": 2.7286029, "Region": "Negeri Sembilan", "Category": "地缘", "PageNumber": "228" }, "geometry": { "type": "Point", "coordinates": [ 101.9343, 2.7286, 101.9343 ] } },
{ "type": "Feature", "properties": { "Name_CH": "森美兰潮州会馆", "Name_ML": "Persatuan Teo Chew Negeri Sembilan", "Name_EN": "Negeri Sembilan Teo Chew Association", "Location": "43, Jalan Tuanku Munawir,70000 Seremban, Negeri Sembilan.", "Longitude": 101.9331894, "Latitude": 2.7302213, "Region": "Negeri Sembilan", "Category": "地缘", "PageNumber": "228" }, "geometry": { "type": "Point", "coordinates": [ 101.9332, 2.7302, 101.9332 ] } },
{ "type": "Feature", "properties": { "Name_CH": "森美兰福州会馆", "Name_ML": "Persatuan Foo Chow Negeri Sembilan", "Name_EN": "Negeri Sembilan Foo Chow Association", "Location": "76, Jalan Temiang, 70200 Seremban, Negeri Sembilan.", "Longitude": 101.9316298, "Latitude": 2.7334893, "Region": "Negeri Sembilan", "Category": "地缘", "PageNumber": "228" }, "geometry": { "type": "Point", "coordinates": [ 101.9316, 2.7335, 101.9316 ] } },
{ "type": "Feature", "properties": { "Name_CH": "森美兰高州会馆", "Name_ML": "Persatuan Negeri Sembilan Ko Chaw Association", "Name_EN": "The Negeri Sembilan Kochow Association", "Location": "178 (Tingkat 4) Jalan Tuanku Munawir, 70000 Seremban, Negeri Sembilan.", "Longitude": 101.9293581, "Latitude": 2.733588, "Region": "Negeri Sembilan", "Category": "地缘", "PageNumber": "228" }, "geometry": { "type": "Point", "coordinates": [ 101.9294, 2.7336, 101.9294 ] } },
{ "type": "Feature", "properties": { "Name_CH": "森美兰广东会馆", "Name_ML": "Kwang Tung Negeri Sembilan", "Name_EN": "Negeri Sembilan Kwang Tung Association", "Location": "76- B, Jalan Temiang, 70200 Seremban, Negeri Sembilan.", "Longitude": 101.9359242, "Latitude": 2.733588, "Region": "Negeri Sembilan", "Category": "地缘", "PageNumber": "228" }, "geometry": { "type": "Point", "coordinates": [ 101.9359, 2.7336, 101.9359 ] } },
{ "type": "Feature", "properties": { "Name_CH": "森美兰梅江五属会馆", "Name_ML": "Persatuan Moi Kong Ng Shook Fui Kon Negeri Sembilan", "Name_EN": "Negeri Sembilan Moi Kong Ng Shook Fui Kon", "Location": "148, Jalan Temiang, 70200 Seremban, Negeri Sembilan.", "Longitude": 101.9359838, "Latitude": 2.7370028, "Region": "Negeri Sembilan", "Category": "地缘", "PageNumber": "228" }, "geometry": { "type": "Point", "coordinates": [ 101.936, 2.737, 101.936 ] } },
{ "type": "Feature", "properties": { "Name_CH": "森美兰龙江会馆", "Name_ML": "Persatuan Siong Kong Negeri Sembilan", "Name_EN": null, "Location": "48A\/592 Off Jalan Haji Abdul Hamid, 70200 Seremban, Negeri Sembilan.", "Longitude": 101.9422827, "Latitude": 2.742684, "Region": "Negeri Sembilan", "Category": "地缘", "PageNumber": "228" }, "geometry": { "type": "Point", "coordinates": [ 101.9423, 2.7427, 101.9423 ] } },
{ "type": "Feature", "properties": { "Name_CH": "森美兰惠州会馆", "Name_ML": "Persatuan Fui Chiu Negeri Sembilan", "Name_EN": "Negeri Sembilan Fui Chiu Association", "Location": "Tingkat 2, Wisma Fui Chiu, 15, Jalan Nunis, 70000 Seremban, Negeri Sembilan.", "Longitude": 101.6414125, "Latitude": 2.8396872, "Region": "Negeri Sembilan", "Category": "地缘", "PageNumber": "228" }, "geometry": { "type": "Point", "coordinates": [ 101.6414, 2.8397, 101.6414 ] } },
{ "type": "Feature", "properties": { "Name_CH": "波德申叶氏宗祠", "Name_ML": "Persatuan Suku Kaum Yap Port Dickson Negeri Sembilan", "Name_EN": null, "Location": "6, Tingkat 1,Taman Samudera, Per. Kurau 1, Batu 11\/2,Jalan Seremban,71000 Port Dickson, Negeri Sembilan.", "Longitude": 101.7938955, "Latitude": 2.5460896, "Region": "Negeri Sembilan", "Category": "血缘", "PageNumber": "229" }, "geometry": { "type": "Point", "coordinates": [ 101.7939, 2.5461, 101.7939 ] } },
{ "type": "Feature", "properties": { "Name_CH": "武东岸福建会馆", "Name_ML": "Persatuan Broga Hokkien Association", "Name_EN": null, "Location": "142, Main Road, Broga lenggeng, Negeri Sembilan.", "Longitude": 101.7051636, "Latitude": 2.659223, "Region": "Negeri Sembilan", "Category": "地缘", "PageNumber": "229" }, "geometry": { "type": "Point", "coordinates": [ 101.7052, 2.6592, 101.7052 ] } },
{ "type": "Feature", "properties": { "Name_CH": "森州琼州会馆", "Name_ML": "Negeri Sembilan Keng Chew Wee Kuan", "Name_EN": null, "Location": "1,Jalan Bukit, 70000 Seremban, Negeri Sembilan.", "Longitude": 101.8709842, "Latitude": 2.7191217, "Region": "Negeri Sembilan", "Category": "地缘", "PageNumber": "229" }, "geometry": { "type": "Point", "coordinates": [ 101.871, 2.7191, 101.871 ] } },
{ "type": "Feature", "properties": { "Name_CH": "森美兰台山会馆", "Name_ML": "Persatuan Toi Sun Negeri Sembilan", "Name_EN": "Toi Sun Association Negeri Sembilan", "Location": "21K, Jalan Tan Sri Manickavasagam, 70200 Seremban, Negeri Sembilan.", "Longitude": 101.9276483, "Latitude": 2.7277482, "Region": "Negeri Sembilan", "Category": "地缘", "PageNumber": "229" }, "geometry": { "type": "Point", "coordinates": [ 101.9276, 2.7277, 101.9276 ] } },
{ "type": "Feature", "properties": { "Name_CH": "森美兰中山同乡会", "Name_ML": "Persatuan Chung Sun Negeri Sembilan", "Name_EN": null, "Location": "62, Jalan Tuanku Munawir, 70000 Seremban, Negeri Sembilan.", "Longitude": 101.9343676, "Latitude": 2.7281699, "Region": "Negeri Sembilan", "Category": "地缘", "PageNumber": "229" }, "geometry": { "type": "Point", "coordinates": [ 101.9344, 2.7282, 101.9344 ] } },
{ "type": "Feature", "properties": { "Name_CH": "森美兰永春会馆", "Name_ML": "Persatuan Eng Choon Negeri Sembilan", "Name_EN": "The Negeri Sembilan Eng Choon Association", "Location": "37, Jalan Siow Loong Hin, 70000 Seremban, Negeri Sembilan.", "Longitude": 101.937001, "Latitude": 2.7284153, "Region": "Negeri Sembilan", "Category": "地缘", "PageNumber": "229" }, "geometry": { "type": "Point", "coordinates": [ 101.937, 2.7284, 101.937 ] } },
{ "type": "Feature", "properties": { "Name_CH": "森美兰荼阳会馆", "Name_ML": "Persatuan Char Young Negeri Sembilan", "Name_EN": "Negeri Sembilan Char Young Association", "Location": "19, Jalan Kapitan Tam Yeong, 70000 Seremban, Negeri Sembilan.", "Longitude": 101.9378212, "Latitude": 2.7290396, "Region": "Negeri Sembilan", "Category": "地缘", "PageNumber": "229" }, "geometry": { "type": "Point", "coordinates": [ 101.9378, 2.729, 101.9378 ] } },
{ "type": "Feature", "properties": { "Name_CH": "森美兰四邑会馆", "Name_ML": "Persatuan Negeri Sembilan See Yap", "Name_EN": "Negeri Sembilan See Yap Association", "Location": "30, Jalan Seng Meng Lee, 70200 Seremban, Negeri Sembilan.", "Longitude": 101.9373549, "Latitude": 2.7317719, "Region": "Negeri Sembilan", "Category": "地缘", "PageNumber": "229" }, "geometry": { "type": "Point", "coordinates": [ 101.9374, 2.7318, 101.9374 ] } },
{ "type": "Feature", "properties": { "Name_CH": "森美兰兴安会馆", "Name_ML": "Persatuan Negeri Sembilan Shing An Association", "Name_EN": "Negeri Sembilan Sheng An Association", "Location": "2A-2B, Jalan Temiang, Seremban, Negeri Sembilan.", "Longitude": 101.9378021, "Latitude": 2.7332994, "Region": "Negeri Sembilan", "Category": "地缘", "PageNumber": "229" }, "geometry": { "type": "Point", "coordinates": [ 101.9378, 2.7333, 101.9378 ] } },
{ "type": "Feature", "properties": { "Name_CH": "马来西亚邱肇基公会", "Name_ML": "Persatuan Khoo Tiow Kee Malaysia", "Name_EN": null, "Location": "395,Jalan Seng Meng Lee,70200 Seremban, Negeri Sembilan.", "Longitude": 101.9356873, "Latitude": 2.7345087, "Region": "Negeri Sembilan", "Category": "血缘", "PageNumber": "229" }, "geometry": { "type": "Point", "coordinates": [ 101.9357, 2.7345, 101.9357 ] } },
{ "type": "Feature", "properties": { "Name_CH": "马来西亚福建永春埔头霞陵林氏家族会", "Name_ML": "Persatuan Hokkien Eng Choon Por Tau Har Leng (Lim) Malaysia", "Name_EN": null, "Location": "25, Tingkat 2, Taman Sornam, 72100 Bahau, Negeri Sembilan.", "Longitude": 102.3876821, "Latitude": 2.8075064, "Region": "Negeri Sembilan", "Category": "血缘", "PageNumber": "229" }, "geometry": { "type": "Point", "coordinates": [ 102.3877, 2.8075, 102.3877 ] } },
{ "type": "Feature", "properties": { "Name_CH": "森美兰梁氏公会", "Name_ML": "Persatuan Persaudaraan Klan Neo Negeri Sembilan", "Name_EN": null, "Location": "45,Persiaran Kurau 2,Taman Samudra, 71000 Port Dickson, Negeri Sembilan.", "Longitude": 101.7978518, "Latitude": 2.5424035, "Region": "Negeri Sembilan", "Category": "血缘", "PageNumber": "230" }, "geometry": { "type": "Point", "coordinates": [ 101.7979, 2.5424, 101.7979 ] } },
{ "type": "Feature", "properties": { "Name_CH": "森美兰苏氏联宗会", "Name_ML": "Persatuan Saw Negeri Sembilan", "Name_EN": null, "Location": "17(atas) Jalan Bypass, Taman Sri Mawar, 71000 Port Dickson, Negeri Sembilan.", "Longitude": 101.804831, "Latitude": 2.5542952, "Region": "Negeri Sembilan", "Category": "血缘", "PageNumber": "230" }, "geometry": { "type": "Point", "coordinates": [ 101.8048, 2.5543, 101.8048 ] } },
{ "type": "Feature", "properties": { "Name_CH": "森美兰石氏联宗会", "Name_ML": null, "Name_EN": "The Negeri Sembilan Cheok Clansmen Association", "Location": "26A,Main Road, Lukut Port Dickson, Negeri Sembilan.", "Longitude": 101.8217222, "Latitude": 2.5703324, "Region": "Negeri Sembilan", "Category": "血缘", "PageNumber": "230" }, "geometry": { "type": "Point", "coordinates": [ 101.8217, 2.5703, 101.8217 ] } },
{ "type": "Feature", "properties": { "Name_CH": "森美兰彭亨雪兰莪庄氏联宗会", "Name_ML": "Persatuan Chong Negeri Sembilan Pahang Dan Selangor", "Name_EN": null, "Location": "532,Taman Sg Ujong, Jalan Rasah, 70300 Seremban, Negeri Sembilan.", "Longitude": 101.9008524, "Latitude": 2.7033637, "Region": "Negeri Sembilan", "Category": "血缘", "PageNumber": "230" }, "geometry": { "type": "Point", "coordinates": [ 101.9009, 2.7034, 101.9009 ] } },
{ "type": "Feature", "properties": { "Name_CH": "森美兰龙冈亲义会", "Name_ML": "Persatuan Lung Kong Negeri Sembilan", "Name_EN": null, "Location": "227(Upstairs)Taman A.S.T., Jalan Sg Ujong(Jalan Labu), 70200 Seremban, Negeri Sembilan.", "Longitude": 101.9162028, "Latitude": 2.7171305, "Region": "Negeri Sembilan", "Category": "血缘", "PageNumber": "230" }, "geometry": { "type": "Point", "coordinates": [ 101.9162, 2.7171, 101.9162 ] } },
{ "type": "Feature", "properties": { "Name_CH": "森美兰谭氏联宗会", "Name_ML": "Persatuan Negeri Sembilan Tham Clansmen", "Name_EN": "The Negeri Sembilan Tham Clansmen Association", "Location": "11 (atas) Jalan Dato' Lee Fong Yee, 70000 Seremban, Negeri Sembilan.", "Longitude": 101.9368961, "Latitude": 2.7250861, "Region": "Negeri Sembilan", "Category": "血缘", "PageNumber": "230" }, "geometry": { "type": "Point", "coordinates": [ 101.9369, 2.7251, 101.9369 ] } },
{ "type": "Feature", "properties": { "Name_CH": "马来西亚肇永公李氏家族会", "Name_ML": "Persatuan Kaum Lee Tiow Eng Malaysia", "Name_EN": "Malaysia Lee Tiow Eng Malaysia", "Location": "48C-Jalan Dato' Sheik Ahmad 70000, Seremban, Negeri Sembilan.", "Longitude": 101.94481, "Latitude": 2.72562, "Region": "Negeri Sembilan", "Category": "血缘", "PageNumber": "230" }, "geometry": { "type": "Point", "coordinates": [ 101.9448, 2.7256, 101.9448 ] } },
{ "type": "Feature", "properties": { "Name_CH": "森美兰赖氏宗祠", "Name_ML": "Persatuan Keturunan Lai Negeri Sembilan", "Name_EN": null, "Location": "36, Jalan Singapura, Seremban 70000, Negeri Sembilan.", "Longitude": 101.9314857, "Latitude": 2.7261683, "Region": "Negeri Sembilan", "Category": "血缘", "PageNumber": "230" }, "geometry": { "type": "Point", "coordinates": [ 101.9315, 2.7262, 101.9315 ] } },
{ "type": "Feature", "properties": { "Name_CH": "森美兰黄氏联宗会", "Name_ML": "Persatuan Wong Seturunan, Negeri Sembilan", "Name_EN": "Negeri Sembilan Wong' s Clan Asociation", "Location": "62- B, Jalan Yam Tuan, 70000 Seremban, Negeri Sembilan.", "Longitude": 101.9378113, "Latitude": 2.7266354, "Region": "Negeri Sembilan", "Category": "血缘", "PageNumber": "230" }, "geometry": { "type": "Point", "coordinates": [ 101.9378, 2.7266, 101.9378 ] } },
{ "type": "Feature", "properties": { "Name_CH": "森美兰州李氏联宗会", "Name_ML": "Persatuan Lee's Negeri Sembilan", "Name_EN": "The Negeri Sembilan United Lee' s Association", "Location": "83, Jalan Tuanku Munawir, 70000 Seremban, Negeri Sembilan.", "Longitude": 101.934229, "Latitude": 2.727865, "Region": "Negeri Sembilan", "Category": "血缘", "PageNumber": "230" }, "geometry": { "type": "Point", "coordinates": [ 101.9342, 2.7279, 101.9342 ] } },
{ "type": "Feature", "properties": { "Name_CH": "森美兰林氏联宗会", "Name_ML": "Persatuan Keturunan Lim Negeri Sembilan", "Name_EN": null, "Location": "158, Bukit Pelandok, 71960 Seremban, Negeri Sembilan.", "Longitude": 101.1956487, "Latitude": 2.8195654, "Region": "Negeri Sembilan", "Category": "血缘", "PageNumber": "230" }, "geometry": { "type": "Point", "coordinates": [ 101.1956, 2.8196, 101.1956 ] } },
{ "type": "Feature", "properties": { "Name_CH": "日拉务县黄氏联宗会", "Name_ML": "Persatuan Suku Kaum Wong Daerah Jelebu Negeri Sembilan", "Name_EN": null, "Location": "110, Jalan Besar Titi, 71650 Jelebu, Negeri Sembilan.", "Longitude": 102.0658712, "Latitude": 2.9962453, "Region": "Negeri Sembilan", "Category": "血缘", "PageNumber": "230" }, "geometry": { "type": "Point", "coordinates": [ 102.0659, 2.9962, 102.0659 ] } },
{ "type": "Feature", "properties": { "Name_CH": "淡边建造行", "Name_ML": "Persatuan Pembinaan Tampin", "Name_EN": "Tampin Builders Association", "Location": "117,1st Floor, Jalan Besar, 73000 Tampin, Negeri Sembilan.", "Longitude": 102.2292422, "Latitude": 2.4675308, "Region": "Negeri Sembilan", "Category": "业缘", "PageNumber": "231" }, "geometry": { "type": "Point", "coordinates": [ 102.2292, 2.4675, 102.2292 ] } },
{ "type": "Feature", "properties": { "Name_CH": "森美兰卓氏联宗会", "Name_ML": "Persatuan Keturunan Toh Port Dickson Negeri Sembilan", "Name_EN": null, "Location": "12, Tingkat 1, Jalan Pasar Baru, 71000 Port Dickson, Negeri Sembilan.", "Longitude": 101.7953558, "Latitude": 2.5263378, "Region": "Negeri Sembilan", "Category": "血缘", "PageNumber": "231" }, "geometry": { "type": "Point", "coordinates": [ 101.7954, 2.5263, 101.7954 ] } },
{ "type": "Feature", "properties": { "Name_CH": "波德申建筑公会", "Name_ML": "Persatuan Pembena Port Dickson", "Name_EN": "Port Dickson Builders Association", "Location": "258, Batu Satu, Jalan Pantai, 71000 Port Dickson, Negeri Sembilan.", "Longitude": 101.7983975, "Latitude": 2.5275651, "Region": "Negeri Sembilan", "Category": "业缘", "PageNumber": "231" }, "geometry": { "type": "Point", "coordinates": [ 101.7984, 2.5276, 101.7984 ] } },
{ "type": "Feature", "properties": { "Name_CH": "森美兰叶氏联宗会", "Name_ML": "Persatuan Yap Seremban Negeri Sembilan", "Name_EN": null, "Location": "190 E, Kg Baru Rasah,70300 Seremban, Negeri Sembilan.", "Longitude": 101.926089, "Latitude": 2.7004185, "Region": "Negeri Sembilan", "Category": "血缘", "PageNumber": "231" }, "geometry": { "type": "Point", "coordinates": [ 101.9261, 2.7004, 101.9261 ] } },
{ "type": "Feature", "properties": { "Name_CH": "森美兰钟氏公会", "Name_ML": "Persatuan Kuam Choong Negeri Sembilan", "Name_EN": "Negeri Sembilan Choong Association", "Location": "211, Taman Chong Loong, 70100 Seremban, Negeri Sembilan.", "Longitude": 101.9558433, "Latitude": 2.7036165, "Region": "Negeri Sembilan", "Category": "血缘", "PageNumber": "231" }, "geometry": { "type": "Point", "coordinates": [ 101.9558, 2.7036, 101.9558 ] } },
{ "type": "Feature", "properties": { "Name_CH": "森美兰谢氏联宗会", "Name_ML": "Persatuan Kaum Kerabat Chia Negeri Sembilan", "Name_EN": null, "Location": "156, Jalan Birchs, 70000 Seremban, Negeri Sembilan.", "Longitude": 101.9314857, "Latitude": 2.7261469, "Region": "Negeri Sembilan", "Category": "血缘", "PageNumber": "231" }, "geometry": { "type": "Point", "coordinates": [ 101.9315, 2.7261, 101.9315 ] } },
{ "type": "Feature", "properties": { "Name_CH": "森雪隆甲石庭江夏堂联宗会", "Name_ML": "Pertubuhan See Teng Kang Ha Tong Negeri Sembilan, Selangor, Kuala Lumpur Dan Melaka", "Name_EN": null, "Location": "308-2,Jalan Temiang,70200 Seremban, Negeri Sembilan.", "Longitude": 101.9356786, "Latitude": 2.7333155, "Region": "Negeri Sembilan", "Category": "血缘", "PageNumber": "231" }, "geometry": { "type": "Point", "coordinates": [ 101.9357, 2.7333, 101.9357 ] } },
{ "type": "Feature", "properties": { "Name_CH": "森美兰王氏公会", "Name_ML": "Persatuan Ong Negeri Sembilan", "Name_EN": "Ong Association Negeri Seremban", "Location": "398, Jalan Seng Meng Lee, 70200 Seremban, Negeri Sembilan.", "Longitude": 101.9381053, "Latitude": 2.7344306, "Region": "Negeri Sembilan", "Category": "血缘", "PageNumber": "231" }, "geometry": { "type": "Point", "coordinates": [ 101.9381, 2.7344, 101.9381 ] } },
{ "type": "Feature", "properties": { "Name_CH": "庇劳小贩商公会", "Name_ML": "The Kuala Pilah Chinese Grocer’ s Association", "Name_EN": null, "Location": "214，Tingkat Atas, Jalan Tung Yen, 72000 Seremban,Negeri Sembilan.", "Longitude": 102.2457618, "Latitude": 2.7420728, "Region": "Negeri Sembilan", "Category": "业缘", "PageNumber": "231" }, "geometry": { "type": "Point", "coordinates": [ 102.2458, 2.7421, 102.2458 ] } },
{ "type": "Feature", "properties": { "Name_CH": "森美兰颜氏公会", "Name_ML": "Persatuan Klan Gan Negeri Sembilan", "Name_EN": null, "Location": "7,Tingkat 3,Jalan Angkasa Jaya, Taman Bukit Pilah Perdana, 72000 Kuala Pilah, Negeri Sembilan.", "Longitude": 102.244101, "Latitude": 2.7442234, "Region": "Negeri Sembilan", "Category": "血缘", "PageNumber": "231" }, "geometry": { "type": "Point", "coordinates": [ 102.2441, 2.7442, 102.2441 ] } },
{ "type": "Feature", "properties": { "Name_CH": "森美兰萧氏联宗会", "Name_ML": "Persatuan Negeri Sembilan Siow Clanmen Association", "Name_EN": null, "Location": "6, Cross Road,Titi Jelebu, Negeri Sembilan.", "Longitude": 102.0264522, "Latitude": 3.0357003, "Region": "Negeri Sembilan", "Category": "血缘", "PageNumber": "231" }, "geometry": { "type": "Point", "coordinates": [ 102.0265, 3.0357, 102.0265 ] } },
{ "type": "Feature", "properties": { "Name_CH": "柔和工商会馆", "Name_ML": null, "Name_EN": "Negeri Sembilan Johol Chinese Chamber Of Commerce", "Location": "84，Jalan Besar, 73100 Johol, Negeri Sembilan.", "Longitude": 102.1767943, "Latitude": 2.638303, "Region": "Negeri Sembilan", "Category": "业缘", "PageNumber": "232" }, "geometry": { "type": "Point", "coordinates": [ 102.1768, 2.6383, 102.1768 ] } },
{ "type": "Feature", "properties": { "Name_CH": "森美兰咖啡酒餐旅商公会", "Name_ML": "Persatuan Saudagar Kopi Arak Restoran Dan Hotel Negeri Sembilan", "Name_EN": null, "Location": "38,Jalan Dato’ Lee Fong Yee, 70000 Seremban,Negeri Sembilan.", "Longitude": 101.9358422, "Latitude": 2.7247932, "Region": "Negeri Sembilan", "Category": "业缘", "PageNumber": "232" }, "geometry": { "type": "Point", "coordinates": [ 101.9358, 2.7248, 101.9358 ] } },
{ "type": "Feature", "properties": { "Name_CH": "森美兰华人机器公会", "Name_ML": "Persatuan Negeri Sembilan Chinese Engineering", "Name_EN": "Chinese Engineering Association Negeri Sembilan", "Location": "63 (2nd Floor) Jalan Quak Kai Dong, 70200 Seremban, Negeri Sembilan.", "Longitude": 101.923922, "Latitude": 2.724798, "Region": "Negeri Sembilan", "Category": "业缘", "PageNumber": "232" }, "geometry": { "type": "Point", "coordinates": [ 101.9239, 2.7248, 101.9239 ] } },
{ "type": "Feature", "properties": { "Name_CH": "森美兰华文报记者协会", "Name_ML": "Persatuan Wartawan Akhbar Cina Negeri Sembilan", "Name_EN": "Negeri Sembilan Chinese Newspaper Journalists Association", "Location": "61(atas) Jalan Tuanku Munarwir, 70000 Seremban, Negeri Sembilan", "Longitude": 101.9347319, "Latitude": 2.7257823, "Region": "Negeri Sembilan", "Category": "业缘", "PageNumber": "232" }, "geometry": { "type": "Point", "coordinates": [ 101.9347, 2.7258, 101.9347 ] } },
{ "type": "Feature", "properties": { "Name_CH": "森美兰酒商公会", "Name_ML": null, "Name_EN": "Negeri Sembilan Wine & Spirit Dealers' Association", "Location": "72, Jalan Tuanku Munawir, 70000 Seremban, Negeri Sembilan.", "Longitude": 101.9342282, "Latitude": 2.7278735, "Region": "Negeri Sembilan", "Category": "业缘", "PageNumber": "232" }, "geometry": { "type": "Point", "coordinates": [ 101.9342, 2.7279, 101.9342 ] } },
{ "type": "Feature", "properties": { "Name_CH": "森美兰建造行", "Name_ML": "Negeri Sembilan Kin Cho Hong (Persatuan Pembinaan Negeri Sembilan)", "Name_EN": "Negeri Sembilan Kin Cho Hong (Builders' Guild)", "Location": "13(A\\atas) Jalan Kong Seng, 70000 Seremban, Negeri Sembilan.", "Longitude": 101.9347423, "Latitude": 2.7280824, "Region": "Negeri Sembilan", "Category": "业缘", "PageNumber": "232" }, "geometry": { "type": "Point", "coordinates": [ 101.9347, 2.7281, 101.9347 ] } },
{ "type": "Feature", "properties": { "Name_CH": "芙蓉酒楼餐饮业小贩公会", "Name_ML": "Persatuan Restoran Bar Dan Gerai Makan Negeri Sembilan", "Name_EN": null, "Location": "8(top floor), Jalan Utam Ingh, 70000 Seremban,Negeri Sembilan.", "Longitude": 101.9352313, "Latitude": 2.7288831, "Region": "Negeri Sembilan", "Category": "业缘", "PageNumber": "232" }, "geometry": { "type": "Point", "coordinates": [ 101.9352, 2.7289, 101.9352 ] } },
{ "type": "Feature", "properties": { "Name_CH": "森美兰当商公会", "Name_ML": "Persatuan Pemajak Gadai Negeri Sembilan", "Name_EN": "Negeri Sembilan Pawnbrokers' Association", "Location": "432，Tingkat 2 Jalan Tun Dr. Ismail, 70200 Seremban, Negeri Sembilan.", "Longitude": 101.9318682, "Latitude": 2.734037, "Region": "Negeri Sembilan", "Category": "业缘", "PageNumber": "232" }, "geometry": { "type": "Point", "coordinates": [ 101.9319, 2.734, 101.9319 ] } },
{ "type": "Feature", "properties": { "Name_CH": "芙蓉小贩同业商会", "Name_ML": "Persatuan Peniaga-Peniaga Kecil Seremban", "Name_EN": "Petty Trader' s Association Seremban", "Location": "143 A Jalan Temiang, 70200 Seremban, Negeri Sembilan.", "Longitude": 101.9365163, "Latitude": 2.7391393, "Region": "Negeri Sembilan", "Category": "业缘", "PageNumber": "232" }, "geometry": { "type": "Point", "coordinates": [ 101.9365, 2.7391, 101.9365 ] } },
{ "type": "Feature", "properties": { "Name_CH": "森美兰轮胎商公会", "Name_ML": "Persatuan Penjual Penjual Tayar Negeri Sembilan", "Name_EN": null, "Location": "246C, Jalan Temiang, 70200 Seremban, Negeri Sembilan.", "Longitude": 101.9369147, "Latitude": 2.7407164, "Region": "Negeri Sembilan", "Category": "业缘", "PageNumber": "232" }, "geometry": { "type": "Point", "coordinates": [ 101.9369, 2.7407, 101.9369 ] } },
{ "type": "Feature", "properties": { "Name_CH": "马口小贩公会", "Name_ML": "Persatuan Peniaga-Peniaga Kecil Bahau", "Name_EN": null, "Location": "1st Floor, 102, Jalan Gurney, Bahau, Jempol Negeri Sembilan.", "Longitude": 102.2651437, "Latitude": 2.7409218, "Region": "Negeri Sembilan", "Category": "业缘", "PageNumber": "232" }, "geometry": { "type": "Point", "coordinates": [ 102.2651, 2.7409, 102.2651 ] } },
{ "type": "Feature", "properties": { "Name_CH": "马口中华商会", "Name_ML": "Dewam Perniagaan Cina Bahau", "Name_EN": "Bahau Chinese Chamber Of Commerce", "Location": "47, Tingkat 2, Jalan Dato’ Jempol Jalan Besar, 72100 Bahau, Negeri Sembilan.", "Longitude": 102.3986469, "Latitude": 2.8100413, "Region": "Negeri Sembilan", "Category": "业缘", "PageNumber": "232" }, "geometry": { "type": "Point", "coordinates": [ 102.3986, 2.81, 102.3986 ] } },
{ "type": "Feature", "properties": { "Name_CH": "森美兰派报同业公会", "Name_ML": "Persatuan Penjual2 Surat Khabar Negeri Sembilan", "Name_EN": "Negeri Sembilan Newspaper VendorJ s Association", "Location": "37 Siew Loon Heng, Seremban, Negeri Sembilan.", "Longitude": 101.9527173, "Latitude": 2.702763, "Region": "Negeri Sembilan", "Category": "业缘", "PageNumber": "233" }, "geometry": { "type": "Point", "coordinates": [ 101.9527, 2.7028, 101.9527 ] } },
{ "type": "Feature", "properties": { "Name_CH": "森美兰罗里司机公会", "Name_ML": "Persatuan Pemandu Lori Negeri Sembilan", "Name_EN": null, "Location": "35-2, Jalan Haruan 5\/2, Oakland Commerce Square, 70300 Seremban, Negeri Sembilan.", "Longitude": 101.9157116, "Latitude": 2.7040017, "Region": "Negeri Sembilan", "Category": "业缘", "PageNumber": "233" }, "geometry": { "type": "Point", "coordinates": [ 101.9157, 2.704, 101.9157 ] } },
{ "type": "Feature", "properties": { "Name_CH": "森州电器业公会", "Name_ML": "Pertubuhan Perusahaan Letrik Negeri Sembilan", "Name_EN": "Negeri Sembilan Electrical Engineering Association ", "Location": "31Jalan Nunis (1fst Fir.) 70000 Seremban, Negeri Sembilan.", "Longitude": 101.9380365, "Latitude": 2.7277062, "Region": "Negeri Sembilan", "Category": "业缘", "PageNumber": "233" }, "geometry": { "type": "Point", "coordinates": [ 101.938, 2.7277, 101.938 ] } },
{ "type": "Feature", "properties": { "Name_CH": "森州华文报林协会", "Name_ML": "Persatuan Wartawan Veteran Cina Negeri Sembilan ", "Name_EN": null, "Location": "37, Jalan Siow Loong Hin, 70000 Seremban, Negeri Sembilan.", "Longitude": 101.937001, "Latitude": 2.7284207, "Region": "Negeri Sembilan", "Category": "业缘", "PageNumber": "233" }, "geometry": { "type": "Point", "coordinates": [ 101.937, 2.7284, 101.937 ] } },
{ "type": "Feature", "properties": { "Name_CH": "森美兰树胶商公会", "Name_ML": null, "Name_EN": "Negeri Sembilan Rubber Dealer' s Association", "Location": "7, 2nd Floor, Jalan Haji Abd. Hamid, 70200 Seremban, Negeri Sembilan.", "Longitude": 101.8882171, "Latitude": 2.7309491, "Region": "Negeri Sembilan", "Category": "业缘", "PageNumber": "233" }, "geometry": { "type": "Point", "coordinates": [ 101.8882, 2.7309, 101.8882 ] } },
{ "type": "Feature", "properties": { "Name_CH": "森美兰禽畜业公会", "Name_ML": "Persatuan Penternak-Penternak Negeri Sembilan", "Name_EN": "Negeri Sembilan Livestock Rearers' Association", "Location": "92(Up) Jalan Kapitan Tam Yeong, 70000 Seremban, Negeri Sembilan.", "Longitude": 101.8882169, "Latitude": 2.7314605, "Region": "Negeri Sembilan", "Category": "业缘", "PageNumber": "233" }, "geometry": { "type": "Point", "coordinates": [ 101.8882, 2.7315, 101.8882 ] } },
{ "type": "Feature", "properties": { "Name_CH": "森美兰中医中药联合会", "Name_ML": "Persatuan Gabungan Saudagar-Saudagar Ubat Cina Dan Singse-Singse Negeri Sembilan ", "Name_EN": "Negeri Senibilan Chinese Physicians and Druggusts' Association ", "Location": "242, Jalan Quek Kai Dong, 70200 Sermban, Negeri Sembilan.", "Longitude": 101.9367096, "Latitude": 2.7321577, "Region": "Negeri Sembilan", "Category": "业缘", "PageNumber": "233" }, "geometry": { "type": "Point", "coordinates": [ 101.9367, 2.7322, 101.9367 ] } },
{ "type": "Feature", "properties": { "Name_CH": "森美兰屠业行", "Name_ML": "Persatuan Penyembelih Negeri Sembilan ", "Name_EN": null, "Location": "76AJalan Temiang,70200 Seremban, Negeri Sembilan.", "Longitude": 101.9358819, "Latitude": 2.7353378, "Region": "Negeri Sembilan", "Category": "业缘", "PageNumber": "233" }, "geometry": { "type": "Point", "coordinates": [ 101.9359, 2.7353, 101.9359 ] } },
{ "type": "Feature", "properties": { "Name_CH": "森美兰汽车银业公会", "Name_ML": "Persatuan Saudagar Kereta & Syarikat Kredit Negeri Sembilan", "Name_EN": "Negeri Sembilan Car Dealers & Credit Companies Association", "Location": "440, Jalan Tun Dr. Ismail 70200 Seremban, Negeri Sembilan.", "Longitude": 101.9305754, "Latitude": 2.735497, "Region": "Negeri Sembilan", "Category": "业缘", "PageNumber": "233" }, "geometry": { "type": "Point", "coordinates": [ 101.9306, 2.7355, 101.9306 ] } },
{ "type": "Feature", "properties": { "Name_CH": "森州建筑商公会", "Name_ML": null, "Name_EN": "Negeri Sembilan Builders Association", "Location": "501Jalan Temiang, 70200 Seremban, Negeri Sembilan.", "Longitude": 101.9362176, "Latitude": 2.737152, "Region": "Negeri Sembilan", "Category": "业缘", "PageNumber": "233" }, "geometry": { "type": "Point", "coordinates": [ 101.9362, 2.7372, 101.9362 ] } },
{ "type": "Feature", "properties": { "Name_CH": "森美兰中华工商总会", "Name_ML": "Dewan Perniagaan Dan Perindustrian Cina Negeri Sembilan", "Name_EN": "Negeri Sembilan Chinese Chamber Of Commerce And Industry ", "Location": "2D, 1st floor, Jalan Temiang, 70200 Seremban, Negeri Sembilan.", "Longitude": 101.9195731, "Latitude": 2.74793, "Region": "Negeri Sembilan", "Category": "业缘", "PageNumber": "233" }, "geometry": { "type": "Point", "coordinates": [ 101.9196, 2.7479, 101.9196 ] } },
{ "type": "Feature", "properties": { "Name_CH": "波德申中华校友会 ", "Name_ML": null, "Name_EN": "Chung Hua(N.T.P.) Chinese School Old Student Association Pasir Panjang Port Dickson", "Location": "Lot 2506,Pekan Pasir Panjang, Port Dickson, Negeri Sembilan.", "Longitude": 101.8810472, "Latitude": 2.4323293, "Region": "Negeri Sembilan", "Category": "文教", "PageNumber": "234" }, "geometry": { "type": "Point", "coordinates": [ 101.881, 2.4323, 101.881 ] } },
{ "type": "Feature", "properties": { "Name_CH": "船头育华校友会 ", "Name_ML": "Persatuan Murid Tua SRJK(C) Yik Hwa Pengkalan Kempas Negeri Sembilan ", "Name_EN": "Sekolah RJK (c) Yik Hwa, Pengkalan Kempas, Negeri Sembilan.", "Location": null, "Longitude": 102.0139464, "Latitude": 2.4492644, "Region": "Negeri Sembilan", "Category": "文教", "PageNumber": "234" }, "geometry": { "type": "Point", "coordinates": [ 102.0139, 2.4493, 102.0139 ] } },
{ "type": "Feature", "properties": { "Name_CH": "淡边中华校友会 ", "Name_ML": "Persatuan Murid Murid Tua Sek. Chung Hua Tampin Negeri Sembilan ", "Name_EN": null, "Location": "80A, New Village, 73000 Tampin, Negeri Sembilan.", "Longitude": 102.188282, "Latitude": 2.4828013, "Region": "Negeri Sembilan", "Category": "文教", "PageNumber": "234" }, "geometry": { "type": "Point", "coordinates": [ 102.1883, 2.4828, 102.1883 ] } },
{ "type": "Feature", "properties": { "Name_CH": "安斗中华校友会 ", "Name_ML": "Persatuan Murid-Murid Tua Chung Hua Rantau ", "Name_EN": "Rantau Chung Hua Students' Association ", "Location": "Lot 3713\/214, Taman Pasir Mas,Rantau, Seremban, Negeri Sembilan.", "Longitude": 101.8772285, "Latitude": 2.5095457, "Region": "Negeri Sembilan", "Category": "文教", "PageNumber": "234" }, "geometry": { "type": "Point", "coordinates": [ 101.8772, 2.5095, 101.8772 ] } },
{ "type": "Feature", "properties": { "Name_CH": "芙蓉新华校友会 ", "Name_ML": "Persatuan Murid Tua SRJK(C) Sin Hua Seremban Negeri Sembilan", "Name_EN": null, "Location": "611,Tingkat 11, Taman Yoon Chan, 70100 Seremban, Negeri Sembilan.", "Longitude": 101.9514997, "Latitude": 2.6965169, "Region": "Negeri Sembilan", "Category": "文教", "PageNumber": "234" }, "geometry": { "type": "Point", "coordinates": [ 101.9515, 2.6965, 101.9515 ] } },
{ "type": "Feature", "properties": { "Name_CH": "芙蓉中华校友会 ", "Name_ML": "Persatuan Bekas Murid Chung Hua,Seremban ", "Name_EN": "Chung Hua Old Students Association ", "Location": "190, Tingkat 3, Wisma Chung Hua, Jalan Tuanku Munawir, 70000 Seremban, Negeri Sembilan.", "Longitude": 101.9346446, "Latitude": 2.7307981, "Region": "Negeri Sembilan", "Category": "文教", "PageNumber": "234" }, "geometry": { "type": "Point", "coordinates": [ 101.9346, 2.7308, 101.9346 ] } },
{ "type": "Feature", "properties": { "Name_CH": "芙蓉中华中学家协会 ", "Name_ML": "Persatuan Ibu Bapa Murid Murid Sek. Tinggi Chung Hua Seremban Negeri Sembilan", "Name_EN": null, "Location": "D\/A Sek. Tinggi Chung Hua,JIn Tun Dr.lsmail, 70200 Seremban, Negeri Sembilan.", "Longitude": 101.9309867, "Latitude": 2.7363343, "Region": "Negeri Sembilan", "Category": "文教", "PageNumber": "234" }, "geometry": { "type": "Point", "coordinates": [ 101.931, 2.7363, 101.931 ] } },
{ "type": "Feature", "properties": { "Name_CH": "芙蓉国民校友会  ", "Name_ML": "Persatuan Murid-Murid Tua Kuo Min Seremban", "Name_EN": null, "Location": "SJK ( C ) Kuo Min, Jalan Tun Dr. Ismail, 70200 Seremban, Negeri Sembilan.", "Longitude": 101.9271627, "Latitude": 2.7384764, "Region": "Negeri Sembilan", "Category": "文教", "PageNumber": "234" }, "geometry": { "type": "Point", "coordinates": [ 101.9272, 2.7385, 101.9272 ] } },
{ "type": "Feature", "properties": { "Name_CH": "假期师训同学会 ", "Name_ML": null, "Name_EN": "The Negeri Sembilan Trained Chinese Teachers Association ", "Location": "SRJK (C) Bahau 72100 Bahau, Jempol Negeri Sembilan.", "Longitude": 102.3787813, "Latitude": 2.8052877, "Region": "Negeri Sembilan", "Category": "文教", "PageNumber": "234" }, "geometry": { "type": "Point", "coordinates": [ 102.3788, 2.8053, 102.3788 ] } },
{ "type": "Feature", "properties": { "Name_CH": "吉打嶙华小校友会 ", "Name_ML": "Persatuan Murid Murid Tua Sek. Petaling Jelebu ", "Name_EN": "Petaling School Old Pupils Association Jelebu ", "Location": "51, Jalan Triang, Kg Baru Petaling, 71600 Kuala Klawang, Negeri Sembilan.", "Longitude": 102.0497476, "Latitude": 2.948908, "Region": "Negeri Sembilan", "Category": "文教", "PageNumber": "234" }, "geometry": { "type": "Point", "coordinates": [ 102.0497, 2.9489, 102.0497 ] } },
{ "type": "Feature", "properties": { "Name_CH": "葫芦顶新村华小校友会 ", "Name_ML": "Persatuan Murid Murid Tua SRJK(C) Kg. Baru Pertang Negeri Sembilan ", "Name_EN": null, "Location": "5, Jalan Tambah Tin Pertang, Jelebu, Negeri Sembilan.", "Longitude": 102.174814, "Latitude": 2.9879232, "Region": "Negeri Sembilan", "Category": "文教", "PageNumber": "234" }, "geometry": { "type": "Point", "coordinates": [ 102.1748, 2.9879, 102.1748 ] } },
{ "type": "Feature", "properties": { "Name_CH": "森美兰不昉士培华校友会", "Name_ML": "Persatuan Murid-Murid Tua Sekolah Pei Hwa Pedas Negeri Sembilan ", "Name_EN": null, "Location": "39, Jalan Besar, 71400 Pedas, Negeri Sembilan.", "Longitude": 102.2291506, "Latitude": 2.4660666, "Region": "Negeri Sembilan", "Category": "文教", "PageNumber": "235" }, "geometry": { "type": "Point", "coordinates": [ 102.2292, 2.4661, 102.2292 ] } },
{ "type": "Feature", "properties": { "Name_CH": "宁宜中平校友会 ", "Name_ML": null, "Name_EN": "Chung Pin School Past Pupils Association Linggi Negeri Sembilan ", "Location": "30, Main Road, Linggi, Port Dickson, Negeri Sembilan.", "Longitude": 101.9820375, "Latitude": 2.4679017, "Region": "Negeri Sembilan", "Category": "文教", "PageNumber": "235" }, "geometry": { "type": "Point", "coordinates": [ 101.982, 2.4679, 101.982 ] } },
{ "type": "Feature", "properties": { "Name_CH": "芦骨中华校友会 ", "Name_ML": "Persatuan Murid Murid Tua Chung Hwa Lukut Port Dickson Negeri Sembilan ", "Name_EN": null, "Location": "4358Jaman Aman,71010 Lukut Port Dickson,Negeri Sembilan.", "Longitude": 101.817388, "Latitude": 2.5837408, "Region": "Negeri Sembilan", "Category": "文教", "PageNumber": "235" }, "geometry": { "type": "Point", "coordinates": [ 101.8174, 2.5837, 101.8174 ] } },
{ "type": "Feature", "properties": { "Name_CH": "利民济新民校友会 ", "Name_ML": "Persatuan Bekas Murid SRJK(C) Sin Min Gemencheh Negeri Sembilan", "Name_EN": null, "Location": "2, Gemencheh Lama, 73200 Gemencheh, Negeri Sembilan.", "Longitude": 101.2743534, "Latitude": 2.5850325, "Region": "Negeri Sembilan", "Category": "文教", "PageNumber": "235" }, "geometry": { "type": "Point", "coordinates": [ 101.2744, 2.585, 101.2744 ] } },
{ "type": "Feature", "properties": { "Name_CH": "拉坑新村华小校友会 ", "Name_ML": "Persatuan Murid Murid Tua SRJK(C) Kg. Baru Rahang Seremban Negeri Sembilan", "Name_EN": null, "Location": "70,Kg.Baru Rahang Seremban, Negeri Sembilan.", "Longitude": 101.9633797, "Latitude": 2.6957768, "Region": "Negeri Sembilan", "Category": "文教", "PageNumber": "235" }, "geometry": { "type": "Point", "coordinates": [ 101.9634, 2.6958, 101.9634 ] } },
{ "type": "Feature", "properties": { "Name_CH": "柔和育才校友会", "Name_ML": null, "Name_EN": "The Johol Yuk Chai Chinese School Old Pupils’ Association ", "Location": "67, Jalan BesarJohoLKuala Pilah, Negeri Sembilan.", "Longitude": 102.1937928, "Latitude": 2.7066257, "Region": "Negeri Sembilan", "Category": "文教", "PageNumber": "235" }, "geometry": { "type": "Point", "coordinates": [ 102.1938, 2.7066, 102.1938 ] } },
{ "type": "Feature", "properties": { "Name_CH": "三民校友会 ", "Name_ML": null, "Name_EN": "Seremban San Min School Old Students' Association ", "Location": "34, Jalan Tuanku Munawir, 70000 Seremban, Negeri Sembilan.", "Longitude": 101.9354782, "Latitude": 2.724338, "Region": "Negeri Sembilan", "Category": "文教", "PageNumber": "235" }, "geometry": { "type": "Point", "coordinates": [ 101.9355, 2.7243, 101.9355 ] } },
{ "type": "Feature", "properties": { "Name_CH": "森美兰华校教师会", "Name_ML": "Persatuan Guru-Guru Sekolah Cina Negeri Sembilan", "Name_EN": null, "Location": "27, Jalan Haji Abdul Hamid(Cumming Road), 70200 Seremban, Negeri Sembilan.", "Longitude": 101.8882171, "Latitude": 2.7309491, "Region": "Negeri Sembilan", "Category": "文教", "PageNumber": "235" }, "geometry": { "type": "Point", "coordinates": [ 101.8882, 2.7309, 101.8882 ] } },
{ "type": "Feature", "properties": { "Name_CH": "森美兰华校董事合会", "Name_ML": "Majlis Lembaga Lembaga Pengurus Sek.Cina Negeri Sembilan", "Name_EN": "Negeri Sembilan Chinese Scheel Committee Council ", "Location": "96, Jalan Temiang, 70200 Seremban, Negeri Sembilan.", "Longitude": 101.9358819, "Latitude": 2.7353378, "Region": "Negeri Sembilan", "Category": "文教", "PageNumber": "235" }, "geometry": { "type": "Point", "coordinates": [ 101.9359, 2.7353, 101.9359 ] } },
{ "type": "Feature", "properties": { "Name_CH": "马口启文校友会", "Name_ML": "Persatuan Murid Murid Tua Sekolan Chi Wen Bahau Negeri Sembilan ", "Name_EN": null, "Location": "33, Jalan Ria 2, Jalan Rompin, 72100 Bahau, Negeri Sembilan.", "Longitude": 102.4052716, "Latitude": 2.8043934, "Region": "Negeri Sembilan", "Category": "文教", "PageNumber": "235" }, "geometry": { "type": "Point", "coordinates": [ 102.4053, 2.8044, 102.4053 ] } },
{ "type": "Feature", "properties": { "Name_CH": "群英校友会", "Name_ML": null, "Name_EN": "Chun Yin Chinese School Old Students Association Titi Negeri Sembilan. ", "Location": "122, Jalan Besar Titi, 71600 Kuala Klawang, Jelebu, Negeri Sembilan.", "Longitude": 101.8970416, "Latitude": 2.8210521, "Region": "Negeri Sembilan", "Category": "文教", "PageNumber": "235" }, "geometry": { "type": "Point", "coordinates": [ 101.897, 2.8211, 101.897 ] } },
{ "type": "Feature", "properties": { "Name_CH": "日垃务育华校友会", "Name_ML": "Persatuan Murid Murid Tua Yuk Hwa Kuala Klawang Jelebu Negeri Sembilan ", "Name_EN": null, "Location": "65, Keyser Road, 71600 Kuala Klawang, Jelebu, Negeri Sembilan.", "Longitude": 101.9557569, "Latitude": 2.9288627, "Region": "Negeri Sembilan", "Category": "文教", "PageNumber": "235" }, "geometry": { "type": "Point", "coordinates": [ 101.9558, 2.9289, 101.9558 ] } },
{ "type": "Feature", "properties": { "Name_CH": "森美兰淡边新村华小校友会 ", "Name_ML": "Persatuan Murid -Murid Tua SRJK ( C ) Kg.Baru Tampin ", "Name_EN": null, "Location": "846-A , Tingkat 1, Jalan Besar Tampin, 73000 Tampin, Negeri Sembilan", "Longitude": 102.2291506, "Latitude": 2.4660666, "Region": "Negeri Sembilan", "Category": "文教", "PageNumber": "236" }, "geometry": { "type": "Point", "coordinates": [ 102.2292, 2.4661, 102.2292 ] } },
{ "type": "Feature", "properties": { "Name_CH": "武吉白兰律益侨校友会 ", "Name_ML": "PERSATUAN LEPASAN SEKOLAH YIK CHIAO BUKIT PELAND­ OK NEGERI SEMBILAN ", "Name_EN": null, "Location": "91，Bukit Pelandok 71960 Seremban,Negeri Sembilan.", "Longitude": 101.7380654, "Latitude": 2.6468634, "Region": "Negeri Sembilan", "Category": "文教", "PageNumber": "236" }, "geometry": { "type": "Point", "coordinates": [ 101.7381, 2.6469, 101.7381 ] } },
{ "type": "Feature", "properties": { "Name_CH": "森美兰马华校友会  ", "Name_ML": "Persatuan Bekas Pelajar Ma Hwa", "Name_EN": null, "Location": "178B，Kampung Baru Rasah, 70300 Seremban, Negeri Sembilan.", "Longitude": 101.9311813, "Latitude": 2.6980154, "Region": "Negeri Sembilan", "Category": "文教", "PageNumber": "236" }, "geometry": { "type": "Point", "coordinates": [ 101.9312, 2.698, 101.9312 ] } },
{ "type": "Feature", "properties": { "Name_CH": "幼稚园教师公'会 ", "Name_ML": "Persatuan Guru-Guru Tadika Negeri Sembilan", "Name_EN": null, "Location": "135, Seremban Garden, 70450 Seremban, Negeri Sembilan.", "Longitude": 101.9681108, "Latitude": 2.6997217, "Region": "Negeri Sembilan", "Category": "文教", "PageNumber": "236" }, "geometry": { "type": "Point", "coordinates": [ 101.9681, 2.6997, 101.9681 ] } },
{ "type": "Feature", "properties": { "Name_CH": "小甘密华小校友会 ", "Name_ML": "Persatuan Murid Murid Tua Sekolah Cina Sikamat Seremban Negeri Sembilan ", "Name_EN": null, "Location": "94, Sikamat New Village, Seremban, Negeri Sembilan.", "Longitude": 101.9260591, "Latitude": 2.7001695, "Region": "Negeri Sembilan", "Category": "文教", "PageNumber": "236" }, "geometry": { "type": "Point", "coordinates": [ 101.9261, 2.7002, 101.9261 ] } },
{ "type": "Feature", "properties": { "Name_CH": "万茂新村华小校友会 ", "Name_ML": "Persatuan Murid Murid Tua SRJK(C) Kg. Baru Mam bau Seremban Negeri Sembilan", "Name_EN": null, "Location": "SRJK (C) Kam pung Baru Membau, Seremban, Negeri Sembilan.", "Longitude": 101.9243996, "Latitude": 2.7078614, "Region": "Negeri Sembilan", "Category": "文教", "PageNumber": "236" }, "geometry": { "type": "Point", "coordinates": [ 101.9244, 2.7079, 101.9244 ] } },
{ "type": "Feature", "properties": { "Name_CH": "森美兰摄影学会 ", "Name_ML": "Pertubuhan Senifoto Negeri Sembilan ", "Name_EN": "The Photographic Society Of Negeri Sembilan", "Location": "C \/0 Alphaplus Studio & Color Lab, 42 GF Jalan Dato’ Sheikh Ahmad, 70000 Seremban，Negeri Sembilan.", "Longitude": 101.9368833, "Latitude": 2.7241464, "Region": "Negeri Sembilan", "Category": "文教", "PageNumber": "236" }, "geometry": { "type": "Point", "coordinates": [ 101.9369, 2.7241, 101.9369 ] } },
{ "type": "Feature", "properties": { "Name_CH": "森美兰启华校友会", "Name_ML": "Pertubuhan Murid M urid Tua SRJK(C) Chi Hwa Seremban Negeri Sembilan ", "Name_EN": null, "Location": "148，Jalan Temiang, 70200 Seremban, Negeri Sembilan.", "Longitude": 101.9350922, "Latitude": 2.7365459, "Region": "Negeri Sembilan", "Category": "文教", "PageNumber": "236" }, "geometry": { "type": "Point", "coordinates": [ 101.9351, 2.7365, 101.9351 ] } },
{ "type": "Feature", "properties": { "Name_CH": "森美兰华校校友会联合会 ", "Name_ML": "Gabungan Persatuan Bekas Penuntut Sek.Cina Negeri Sembilan", "Name_EN": null, "Location": " 96(2nd Floor) Jalan Temiang, 70200 Seremban, Negeri Sembilan.", "Longitude": 101.9375713, "Latitude": 2.7447693, "Region": "Negeri Sembilan", "Category": "文教", "PageNumber": "236" }, "geometry": { "type": "Point", "coordinates": [ 101.9376, 2.7448, 101.9376 ] } },
{ "type": "Feature", "properties": { "Name_CH": "文丁中华校友会  ", "Name_ML": "Persatuan Murid -Murid Tua Chung Hua Mantin ", "Name_EN": "Chung Hua Old Boys Association ", "Location": "99, Kawasan Hijau,71700 Mantin, Negeri Sembilan.", "Longitude": 101.8422855, "Latitude": 2.8379966, "Region": "Negeri Sembilan", "Category": "文教", "PageNumber": "236" }, "geometry": { "type": "Point", "coordinates": [ 101.8423, 2.838, 101.8423 ] } },
{ "type": "Feature", "properties": { "Name_CH": "森州舞蹈协会 ", "Name_ML": "Pertubuhan Tarian Negeri Sembilan (Wu Dao Xie Hui)", "Name_EN": null, "Location": "247, Jin Tan Sri Manickavasagam, 70200 Seremban，Negeri Sembilan.", "Longitude": 101.6415647, "Latitude": 2.8410594, "Region": "Negeri Sembilan", "Category": "文教", "PageNumber": "236" }, "geometry": { "type": "Point", "coordinates": [ 101.6416, 2.8411, 101.6416 ] } },
{ "type": "Feature", "properties": { "Name_CH": "武来岸新村华小校友会 ", "Name_ML": "Persatuan Murid Murid Tua SRJK(C) Kam pung Baru Brogo Negeri Sembilan ", "Name_EN": null, "Location": "SRJK (C) Kam pung Baru Broga, 71750 Broga, Negeri Sembilan.", "Longitude": 101.9091572, "Latitude": 2.9370974, "Region": "Negeri Sembilan", "Category": "文教", "PageNumber": "236" }, "geometry": { "type": "Point", "coordinates": [ 101.9092, 2.9371, 101.9092 ] } },
{ "type": "Feature", "properties": { "Name_CH": "直落甘望中华校友会", "Name_ML": "Persatuan Murid Murid Tua Sekolah Chung Hwa Telok Kemang ", "Name_EN": null, "Location": "D\/A, Jokong Hoon Leong,Bt 6,Jin Pantai, 71050 Si-Rusa, Telok Kemang, Negeri Sembilan", "Longitude": 101.8425196, "Latitude": 2.4480879, "Region": "Negeri Sembilan", "Category": "文教", "PageNumber": "237" }, "geometry": { "type": "Point", "coordinates": [ 101.8425, 2.4481, 101.8425 ] } },
{ "type": "Feature", "properties": { "Name_CH": "波德申德教会紫德阁  ", "Name_ML": "Persatuan Pendidikan Akhlak Che Teck Khor", "Name_EN": "Che teck Khor Moral Uplifting Society ", "Location": "176, Jalan Tuan Sheikh, 71000 Port Dickson, Negeri Sembilan.", "Longitude": 101.8364383, "Latitude": 2.4986024, "Region": "Negeri Sembilan", "Category": "宗教", "PageNumber": "237" }, "geometry": { "type": "Point", "coordinates": [ 101.8364, 2.4986, 101.8364 ] } },
{ "type": "Feature", "properties": { "Name_CH": "波德申发祖公 ", "Name_ML": "Persatuan Penganut Dewa Fatt Chu Kong Port Dickson Negeri Sembilan", "Name_EN": null, "Location": "Kg Arab, Jalan PD By Pass, 71000 Port Dickson, Negeri Sembilan.", "Longitude": 101.7890715, "Latitude": 2.5349929, "Region": "Negeri Sembilan", "Category": "宗教", "PageNumber": "237" }, "geometry": { "type": "Point", "coordinates": [ 101.7891, 2.535, 101.7891 ] } },
{ "type": "Feature", "properties": { "Name_CH": "安斗竹林园庙 ", "Name_ML": "Rumah Berhala Chok Lam Yam Rantau Negeri Sembilan ", "Name_EN": null, "Location": "19，1\/4 km, Jalan Kg Pening, 71200 Rantau, Negeri Sembilan.", "Longitude": 101.8906, "Latitude": 2.6172271, "Region": "Negeri Sembilan", "Category": "宗教", "PageNumber": "237" }, "geometry": { "type": "Point", "coordinates": [ 101.8906, 2.6172, 101.8906 ] } },
{ "type": "Feature", "properties": { "Name_CH": "安斗锦发神庙  ", "Name_ML": "Persatuan Penganut Dewa Kam Fatt Rantau Negeri Sembilan", "Name_EN": null, "Location": "Lot 10475, Bt 5 3 \/4, Jalan Kuala Sawah, 70300 Mukim Rantau, Negeri Sembilan.", "Longitude": 101.9652161, "Latitude": 2.6331494, "Region": "Negeri Sembilan", "Category": "宗教", "PageNumber": "237" }, "geometry": { "type": "Point", "coordinates": [ 101.9652, 2.6331, 101.9652 ] } },
{ "type": "Feature", "properties": { "Name_CH": "白平四面佛(先师坛)庙  ", "Name_ML": "Persatuan Penganut Rumah Berhala Bai Peng Si Mian Fu(Xian Shi Tam) Bukit Pelandok Negeri Sembilan.", "Name_EN": null, "Location": "10, Jalan Haiwan, 71960 Bukit Pelandok, Negeri Sembilan.", "Longitude": 101.7526997, "Latitude": 2.654705, "Region": "Negeri Sembilan", "Category": "宗教", "PageNumber": "237" }, "geometry": { "type": "Point", "coordinates": [ 101.7527, 2.6547, 101.7527 ] } },
{ "type": "Feature", "properties": { "Name_CH": "安斗闽南公所 ", "Name_ML": "Persatuan Man Nam Kong Soh Rantau Negeri Sembilan", "Name_EN": null, "Location": "111.Main Road,Rantau, Negeri Sembilan.", "Longitude": 101.9526186, "Latitude": 2.7078702, "Region": "Negeri Sembilan", "Category": "宗教", "PageNumber": "237" }, "geometry": { "type": "Point", "coordinates": [ 101.9526, 2.7079, 101.9526 ] } },
{ "type": "Feature", "properties": { "Name_CH": "振华校友会 ", "Name_ML": null, "Name_EN": "Chan Wa School Old Students Association ", "Location": "324, Taman Union, Jalan Limbok, 70200 Serembam, Negeri Sembilan", "Longitude": 101.9370522, "Latitude": 2.7333494, "Region": "Negeri Sembilan", "Category": "文教", "PageNumber": "237" }, "geometry": { "type": "Point", "coordinates": [ 101.9371, 2.7333, 101.9371 ] } },
{ "type": "Feature", "properties": { "Name_CH": "中英校友会  ", "Name_ML": null, "Name_EN": "The Anglo Chinese School Old Student Association", "Location": "282, Jalan Temiang 70200 Seremban, Negeri Sembilan.", "Longitude": 101.9369917, "Latitude": 2.7419048, "Region": "Negeri Sembilan", "Category": "文教", "PageNumber": "237" }, "geometry": { "type": "Point", "coordinates": [ 101.937, 2.7419, 101.937 ] } },
{ "type": "Feature", "properties": { "Name_CH": "庇唠三圣宫委员会 ", "Name_ML": "Pertubuhan Penganut Tokong Sam Seng Keong Kuala Pilah Negeri Sembilan ", "Name_EN": null, "Location": "376, Jalan Lister Kuala Pilah,72000,Negeri Sembilan.", "Longitude": 102.2457088, "Latitude": 2.7444637, "Region": "Negeri Sembilan", "Category": "宗教", "PageNumber": "237" }, "geometry": { "type": "Point", "coordinates": [ 102.2457, 2.7445, 102.2457 ] } },
{ "type": "Feature", "properties": { "Name_CH": "马口艺术协会 ", "Name_ML": "Persatuan Seni Bahau ", "Name_EN": null, "Location": "55, Jalan Besar, 72100 Bahau, Negeri Sembilan", "Longitude": 102.4003884, "Latitude": 2.8104004, "Region": "Negeri Sembilan", "Category": "文教", "PageNumber": "237" }, "geometry": { "type": "Point", "coordinates": [ 102.4004, 2.8104, 102.4004 ] } },
{ "type": "Feature", "properties": { "Name_CH": "船头红香娘神庙 ", "Name_ML": "Pertubuhan Penganut Penganut Rumah Berhala Ang Heo Neo Pengkalan Kempas Linggi Negeri Sembilan", "Name_EN": null, "Location": "21,Pekan Pengkalan Kempas,71150 Linggi Negeri Sembilan", "Longitude": 101.9981474, "Latitude": 2.4428779, "Region": "Negeri Sembilan", "Category": "宗教", "PageNumber": "238" }, "geometry": { "type": "Point", "coordinates": [ 101.9981, 2.4429, 101.9981 ] } },
{ "type": "Feature", "properties": { "Name_CH": "船头拿督公庙", "Name_ML": "Persatuan Pengikut Na Tok Kong Pengkalan Kempas Linggi Negeri Sembilan", "Name_EN": null, "Location": "5, Jalan Besar Pengkalan Kempas, 71150 Linggi Negeri Sembilan.", "Longitude": 101.9411418, "Latitude": 2.484522, "Region": "Negeri Sembilan", "Category": "宗教", "PageNumber": "238" }, "geometry": { "type": "Point", "coordinates": [ 101.9411, 2.4845, 101.9411 ] } },
{ "type": "Feature", "properties": { "Name_CH": "波德申德教会紫德阁 ", "Name_ML": "Persatuan Pendidekan Akhlak Che Tek Khor Port Dickson ", "Name_EN": null, "Location": "176,Jalan Tuan Sheikh, 71000 Port Dickson,Negeri Sembilan.", "Longitude": 101.8364383, "Latitude": 2.4986024, "Region": "Negeri Sembilan", "Category": "宗教", "PageNumber": "238" }, "geometry": { "type": "Point", "coordinates": [ 101.8364, 2.4986, 101.8364 ] } },
{ "type": "Feature", "properties": { "Name_CH": "波德申伊曼纽浸信教会 ", "Name_ML": "Pertubuhan Pengikut Emmanuel Baptist Port Dickson Negeri Sembilan", "Name_EN": null, "Location": "914(2nd Floor), Jalan Lama, 71000 Port Dickson, Negeri Sembilan.", "Longitude": 101.7958295, "Latitude": 2.5259322, "Region": "Negeri Sembilan", "Category": "宗教", "PageNumber": "238" }, "geometry": { "type": "Point", "coordinates": [ 101.7958, 2.5259, 101.7958 ] } },
{ "type": "Feature", "properties": { "Name_CH": "波德申甘榜阿纳七姐庙 ", "Name_ML": "Pertubuhan Pengurusan Tokong Tujuh Puteri Kg. Arab Port Dickson Negeri Sembilan ", "Name_EN": null, "Location": "PT No 6421,Kg. Arab, 71000 Port Dickson, Negeri Sembilan.", "Longitude": 101.8006266, "Latitude": 2.5315031, "Region": "Negeri Sembilan", "Category": "宗教", "PageNumber": "238" }, "geometry": { "type": "Point", "coordinates": [ 101.8006, 2.5315, 101.8006 ] } },
{ "type": "Feature", "properties": { "Name_CH": "波德申真光道堂", "Name_ML": "Persatuan Penganut Buddha Chin Kong Toh Tong Port Dickson Negeri Sembilan", "Name_EN": null, "Location": "Lot 1318, Jalan Kg Arnab, 71000 Port Dickson, Negeri Sembilan.", "Longitude": 101.7846827, "Latitude": 2.5318548, "Region": "Negeri Sembilan", "Category": "宗教", "PageNumber": "238" }, "geometry": { "type": "Point", "coordinates": [ 101.7847, 2.5319, 101.7847 ] } },
{ "type": "Feature", "properties": { "Name_CH": "波德申将军圣宫", "Name_ML": "Pertubuhan Pengikut Tokong Chong Koong Sing Kung Port Dickson Negeri Sembilan", "Name_EN": null, "Location": "Lot 301,281-C, Kg. Ayer Meleleh, 71000 Port Dickson, Negeri Sembilan.", "Longitude": 101.7962372, "Latitude": 2.5342882, "Region": "Negeri Sembilan", "Category": "宗教", "PageNumber": "238" }, "geometry": { "type": "Point", "coordinates": [ 101.7962, 2.5343, 101.7962 ] } },
{ "type": "Feature", "properties": { "Name_CH": "波德申关帝庙 ", "Name_ML": "Pertubuhan Pengikut Dewa Kuan Dai Kampung Gopal Rajoo Port Dickson Negeri Sembilan", "Name_EN": null, "Location": "Lot 3,Kg. Gopal Rajoo, 71000 Port Dickson, Negeri Sembilan.", "Longitude": 101.8026861, "Latitude": 2.5532129, "Region": "Negeri Sembilan", "Category": "宗教", "PageNumber": "238" }, "geometry": { "type": "Point", "coordinates": [ 101.8027, 2.5532, 101.8027 ] } },
{ "type": "Feature", "properties": { "Name_CH": "波德申西天笑佛爷庙 ", "Name_ML": "Pertubuhan Penganut Dewa Sai Thin Siew Fatt Yea Kg. Gopal Rajoo Port Dickson Negeri Sembilan", "Name_EN": null, "Location": "568, Kg. Gopal Rajoo, 71000 Port Dickson, Negeri Sembilan.", "Longitude": 101.6711227, "Latitude": 2.5647128, "Region": "Negeri Sembilan", "Category": "宗教", "PageNumber": "238" }, "geometry": { "type": "Point", "coordinates": [ 101.6711, 2.5647, 101.6711 ] } },
{ "type": "Feature", "properties": { "Name_CH": "丹那美拉A新村佛教会", "Name_ML": "Pertubuhan Penganut Penganut Tokong Kampung Baru Tanah Merah Site A Negeri Sembilan", "Name_EN": null, "Location": "68, Kampung Baru, Tanah Merah Site A, Negeri Sembilan", "Longitude": 101.7447103, "Latitude": 2.6469072, "Region": "Negeri Sembilan", "Category": "宗教", "PageNumber": "238" }, "geometry": { "type": "Point", "coordinates": [ 101.7447, 2.6469, 101.7447 ] } },
{ "type": "Feature", "properties": { "Name_CH": "丹那美拉C村观音信善会", "Name_ML": "Pertubuhan Penganut Dewi Kuan Yin Taman Jimah Jaya Tanah Merah Site C Seremban Negeri Sembilan.", "Name_EN": null, "Location": "Lot 1478Jaman Jimah Jaya, Tanah Merah Site C, 71960 Seremban.Negeri Sembilan.", "Longitude": 101.7447103, "Latitude": 2.6469072, "Region": "Negeri Sembilan", "Category": "宗教", "PageNumber": "238" }, "geometry": { "type": "Point", "coordinates": [ 101.7447, 2.6469, 101.7447 ] } },
{ "type": "Feature", "properties": { "Name_CH": "丹那美拉C新村南海观音 ", "Name_ML": "Pertubuhan Penganut Dewi Nam Hai Kuan Eng Kg Seri Desa Site C Tanah Merah Negeri Sembilan", "Name_EN": null, "Location": "46,Kg Seri Desa Site C, Taman Merah, 71960, Negeri Sembilan.", "Longitude": 101.7447102, "Latitude": 2.6472482, "Region": "Negeri Sembilan", "Category": "宗教", "PageNumber": "238" }, "geometry": { "type": "Point", "coordinates": [ 101.7447, 2.6472, 101.7447 ] } },
{ "type": "Feature", "properties": { "Name_CH": "淡边新村土地公庙 ", "Name_ML": "Pertubuhan Pengurusan Rumah Berhala Too Tee Kong Kg. Baru Tampin Negeri Sembilan", "Name_EN": null, "Location": "71,Kg Baru,73000 Tampin, Negeri Sembilan.", "Longitude": 102.2130745, "Latitude": 2.4704964, "Region": "Negeri Sembilan", "Category": "宗教", "PageNumber": "239" }, "geometry": { "type": "Point", "coordinates": [ 102.2131, 2.4705, 102.2131 ] } },
{ "type": "Feature", "properties": { "Name_CH": "淡边新村毛山庙 ", "Name_ML": "Pertubuhan Penganut Penganut Tokong Mau San Tampin Negeri Sembilan", "Name_EN": null, "Location": "260,Kg. Baru,73000 Tampin, Negeri Sembilan.", "Longitude": 102.2130745, "Latitude": 2.4706674, "Region": "Negeri Sembilan", "Category": "宗教", "PageNumber": "239" }, "geometry": { "type": "Point", "coordinates": [ 102.2131, 2.4707, 102.2131 ] } },
{ "type": "Feature", "properties": { "Name_CH": "淡边德教会紫祥阁  ", "Name_ML": "Persatuan Pendidikan Akhlak Che Sian Khor Tampin", "Name_EN": null, "Location": "3904, Taman lndah, 73000 Tampin, Negeri Sembilan", "Longitude": 102.2381595, "Latitude": 2.4803018, "Region": "Negeri Sembilan", "Category": "宗教", "PageNumber": "239" }, "geometry": { "type": "Point", "coordinates": [ 102.2382, 2.4803, 102.2382 ] } },
{ "type": "Feature", "properties": { "Name_CH": "淡边玉龙宫 ", "Name_ML": "Pertubuhan Penganut Tokong Yok Leng Kong Tampin Negeri Sembilan ", "Name_EN": null, "Location": "3434,Taman Indah, 73000 Tampin, Negeri Sembilan", "Longitude": 102.2381595, "Latitude": 2.4803018, "Region": "Negeri Sembilan", "Category": "宗教", "PageNumber": "239" }, "geometry": { "type": "Point", "coordinates": [ 102.2382, 2.4803, 102.2382 ] } },
{ "type": "Feature", "properties": { "Name_CH": "淡边北帝庙", "Name_ML": "Persatuan Penganut Penganut Rumah Berhala Pektee Mel Tong Tampoi Negeri Sembilan", "Name_EN": null, "Location": "211B,Kg.Baru,73000 Tampin, Negeri Sembilan.", "Longitude": 102.2381595, "Latitude": 2.4803125, "Region": "Negeri Sembilan", "Category": "宗教", "PageNumber": "239" }, "geometry": { "type": "Point", "coordinates": [ 102.2382, 2.4803, 102.2382 ] } },
{ "type": "Feature", "properties": { "Name_CH": "淡边邓刚根文园庙 ", "Name_ML": "Persatuan Penganut Penganut Tokong Teng Kang Keng Woon Estate Tampin Negeri Sembilan", "Name_EN": null, "Location": "Batu 1l\/4 ,Jalan Seremban, 73000 Tampin, Negeri Sembilan.", "Longitude": 102.1189259, "Latitude": 2.5737828, "Region": "Negeri Sembilan", "Category": "宗教", "PageNumber": "239" }, "geometry": { "type": "Point", "coordinates": [ 102.1189, 2.5738, 102.1189 ] } },
{ "type": "Feature", "properties": { "Name_CH": "淡边天福堂  ", "Name_ML": "Pertubuhan Penganut Tokong Ten Fok Tang Tampin Negeri Sembilan", "Name_EN": null, "Location": "AG5992, Batu 11\/2, Jalan Seremban, 73000 Tampin, Negeri Sembilan.", "Longitude": 102.1184124, "Latitude": 2.5758093, "Region": "Negeri Sembilan", "Category": "宗教", "PageNumber": "239" }, "geometry": { "type": "Point", "coordinates": [ 102.1184, 2.5758, 102.1184 ] } },
{ "type": "Feature", "properties": { "Name_CH": "芙蓉阿密陀巴佛教会  ", "Name_ML": "Persatuan Penganut Agama Buddha Amitabha Seremban Negeri Sembilan", "Name_EN": null, "Location": "26-1,Jalan S2 B1,Lake View Square, 27020 Seremban, Negeri Sembilan.", "Longitude": 101.9132275, "Latitude": 2.693724, "Region": "Negeri Sembilan", "Category": "宗教", "PageNumber": "239" }, "geometry": { "type": "Point", "coordinates": [ 101.9132, 2.6937, 101.9132 ] } },
{ "type": "Feature", "properties": { "Name_CH": "芙蓉巴剌拿佛教会 ", "Name_ML": "Persatuan Agama Buddha Prajna Seremban Negeri Sembilan", "Name_EN": null, "Location": "780, Jalan Teratai 5, Taman Marida,70450 Seremban, Negeri Sembilan.", "Longitude": 101.9812983, "Latitude": 2.6999207, "Region": "Negeri Sembilan", "Category": "宗教", "PageNumber": "239" }, "geometry": { "type": "Point", "coordinates": [ 101.9813, 2.6999, 101.9813 ] } },
{ "type": "Feature", "properties": { "Name_CH": "芙蓉德教会紫森阁", "Name_ML": "Persatuan Negeri Sembilan Che Sim Khor Moral Uplifting I Society (Pers. Ugama Pembangunan Akhlak Chee Sim Kho)", "Name_EN": null, "Location": "73-74 Jalan Tuanku Munawir, 70000 Seremban,Negeri Sembilan.", "Longitude": 101.9342283, "Latitude": 2.7278732, "Region": "Negeri Sembilan", "Category": "宗教", "PageNumber": "239" }, "geometry": { "type": "Point", "coordinates": [ 101.9342, 2.7279, 101.9342 ] } },
{ "type": "Feature", "properties": { "Name_CH": "芙蓉福建普渡联谊会", "Name_ML": "Pertubuhan Po Toh Kaum Hokkien Seremban, Negeri Sembilan", "Name_EN": null, "Location": "323, Jalan Limbok, Seremban, Negeri Sembilan. ", "Longitude": 101.9370522, "Latitude": 2.7333494, "Region": "Negeri Sembilan", "Category": "宗教", "PageNumber": "239" }, "geometry": { "type": "Point", "coordinates": [ 101.9371, 2.7333, 101.9371 ] } },
{ "type": "Feature", "properties": { "Name_CH": "芙蓉慈仁会", "Name_ML": "Seremban Chee Yin Fui ", "Name_EN": null, "Location": "149-A, Jalan Han Hui Foong, 70200 Seremban, Negeri Sembilan.", "Longitude": 101.9327392, "Latitude": 2.7390732, "Region": "Negeri Sembilan", "Category": "宗教", "PageNumber": "239" }, "geometry": { "type": "Point", "coordinates": [ 101.9327, 2.7391, 101.9327 ] } },
{ "type": "Feature", "properties": { "Name_CH": "芙蓉孔教会 ", "Name_ML": "Persatuan Bimbingan Ajaran Confucian Seremban Negeri Sembilan.", "Name_EN": null, "Location": "2831,Jalan SJ 3\/6-Ataman Seremban Jaya, 70450 Seremban,Negeri Sembilan", "Longitude": 101.9692124, "Latitude": 2.6814671, "Region": "Negeri Sembilan", "Category": "宗教", "PageNumber": "240" }, "geometry": { "type": "Point", "coordinates": [ 101.9692, 2.6815, 101.9692 ] } },
{ "type": "Feature", "properties": { "Name_CH": "芙蓉净空祠舍庙 ", "Name_ML": "Persatuan Penganut Penganut Rumah Berhala Chin Kong Chi Si Seremban Negeri Sembilan", "Name_EN": null, "Location": "94, Bukit Tembok, Seremban, Negeri Sembilan.", "Longitude": 101.9538914, "Latitude": 2.6815152, "Region": "Negeri Sembilan", "Category": "宗教", "PageNumber": "240" }, "geometry": { "type": "Point", "coordinates": [ 101.9539, 2.6815, 101.9539 ] } },
{ "type": "Feature", "properties": { "Name_CH": "芙蓉龙城佛教会", "Name_ML": "Persatuan Buddha Taman Seremban Jaya Seremban Negeri Sembilan", "Name_EN": null, "Location": "2836, Jalan SJ3\/6, Taman Seremban Jaya, 70450 Seremban, Negeri Sembilan.", "Longitude": 101.9563445, "Latitude": 2.6853507, "Region": "Negeri Sembilan", "Category": "宗教", "PageNumber": "240" }, "geometry": { "type": "Point", "coordinates": [ 101.9563, 2.6854, 101.9563 ] } },
{ "type": "Feature", "properties": { "Name_CH": "芙蓉将军坛 ", "Name_ML": "Tokong Chong Kuan Tan Seremban Negeri Sembilan", "Name_EN": null, "Location": "73,Kg. Baru Rahang Seremban, Negeri Sembilan.", "Longitude": 101.963334, "Latitude": 2.6961846, "Region": "Negeri Sembilan", "Category": "宗教", "PageNumber": "240" }, "geometry": { "type": "Point", "coordinates": [ 101.9633, 2.6962, 101.9633 ] } },
{ "type": "Feature", "properties": { "Name_CH": "芙蓉黄老仙师会  ", "Name_ML": "Persatuan Penganut Dewa Wong Loo Sen See(Chee Soon Thoon) Seremban Negeri Sembilan", "Name_EN": null, "Location": "297Jalan Tok Ungku,Rahang,70100 Seremban, Negeri Sembilan.", "Longitude": 101.9479486, "Latitude": 2.699413, "Region": "Negeri Sembilan", "Category": "宗教", "PageNumber": "240" }, "geometry": { "type": "Point", "coordinates": [ 101.9479, 2.6994, 101.9479 ] } },
{ "type": "Feature", "properties": { "Name_CH": "芙蓉建基园九天娘娘信众会 ", "Name_ML": "Pertubuhan Penganut Dewi Kau Tin Yuin Nui Leong Leong Seremban Negeri Sembilan", "Name_EN": null, "Location": "2953 Jaman Kian Kee,70450,Seremban, Negeri Sembilan.", "Longitude": 101.9652275, "Latitude": 2.7025299, "Region": "Negeri Sembilan", "Category": "宗教", "PageNumber": "240" }, "geometry": { "type": "Point", "coordinates": [ 101.9652, 2.7025, 101.9652 ] } },
{ "type": "Feature", "properties": { "Name_CH": "芙蓉六壬仙师庙  ", "Name_ML": "Persatuan Penganut Tokong Cina Lok Yam Sin See Seremban Negeri Sembilan", "Name_EN": null, "Location": "179, Rahang Kecil, 70100 Seremban, Negeri Sembilan.", "Longitude": 101.9516911, "Latitude": 2.708972, "Region": "Negeri Sembilan", "Category": "宗教", "PageNumber": "240" }, "geometry": { "type": "Point", "coordinates": [ 101.9517, 2.709, 101.9517 ] } },
{ "type": "Feature", "properties": { "Name_CH": "芙蓉孔孟圣道院", "Name_ML": "Persatuan Permujaan Tuhan Kung Mung Sern Tao Yen", "Name_EN": null, "Location": "312,Jalan Bukit Rasah.Seremban, Negeri Sembilan", "Longitude": 101.9455236, "Latitude": 2.7096556, "Region": "Negeri Sembilan", "Category": "宗教", "PageNumber": "240" }, "geometry": { "type": "Point", "coordinates": [ 101.9455, 2.7097, 101.9455 ] } },
{ "type": "Feature", "properties": { "Name_CH": "芙蓉华人基督教友会", "Name_ML": "Pertubuhan Persaudaraan Kristian Cina Seremban ", "Name_EN": null, "Location": "23G, Jalan Zaaba, 70100, Seremban, Negeri Sembilan.", "Longitude": 101.9479989, "Latitude": 2.714603, "Region": "Negeri Sembilan", "Category": "宗教", "PageNumber": "240" }, "geometry": { "type": "Point", "coordinates": [ 101.948, 2.7146, 101.948 ] } },
{ "type": "Feature", "properties": { "Name_CH": "芙蓉孔孟圣道院  ", "Name_ML": "Persatuan Kung Men Shen Tao Seremban Negeri Sembilan", "Name_EN": null, "Location": "376,Tkt.2, Jalan Tuanku Antah, 70100 Seremban, Negeri Sembilan", "Longitude": 101.9713804, "Latitude": 2.7153093, "Region": "Negeri Sembilan", "Category": "宗教", "PageNumber": "240" }, "geometry": { "type": "Point", "coordinates": [ 101.9714, 2.7153, 101.9714 ] } },
{ "type": "Feature", "properties": { "Name_CH": "芙蓉妙真如精舍 ", "Name_ML": "Perdatuan Buddha Meow Chen Ru Chin Ser Seremban Negeri Sembilan", "Name_EN": null, "Location": "137G-180 & 180A, Kg. Seri Sikamat 70400 Seremban, Negeri Sembilan", "Longitude": 101.9629459, "Latitude": 2.7316044, "Region": "Negeri Sembilan", "Category": "宗教", "PageNumber": "240" }, "geometry": { "type": "Point", "coordinates": [ 101.9629, 2.7316, 101.9629 ] } },
{ "type": "Feature", "properties": { "Name_CH": "芙蓉林苑神庙", "Name_ML": "Pertubuhan Penganut Dewan Lin Wan Seremban Negeri Sembilan", "Name_EN": null, "Location": "182B, Jalan Seng Meng Lee, 70200 Seremban, Negeri Sembilan.", "Longitude": 101.9377264, "Latitude": 2.7347316, "Region": "Negeri Sembilan", "Category": "宗教", "PageNumber": "240" }, "geometry": { "type": "Point", "coordinates": [ 101.9377, 2.7347, 101.9377 ] } },
{ "type": "Feature", "properties": { "Name_CH": "芙蓉三口洞神庙  ", "Name_ML": "Pertubuhan Penganut Dewa San Kow Tong Seremban", "Name_EN": null, "Location": "Lot 9819,No 243,Tmn Dusun Setia,JIn Dato' Muda Linggi 70100 Seremban, Negeri Sembilan", "Longitude": 101.841234, "Latitude": 2.491899, "Region": "Negeri Sembilan", "Category": "宗教", "PageNumber": "241" }, "geometry": { "type": "Point", "coordinates": [ 101.8412, 2.4919, 101.8412 ] } },
{ "type": "Feature", "properties": { "Name_CH": "芙蓉亚沙花园竹枝林观音庙 ", "Name_ML": "Pertubuhan Penganut Dewi Chok Chee Lum Kuan Yin Taman Rasah Seremban Negeri Sembilan ", "Name_EN": null, "Location": "2161, Batu 3 1\/2, Taman Rasah, 70300 Seremban, Negeri Sembilan.", "Longitude": 101.941583, "Latitude": 2.681795, "Region": "Negeri Sembilan", "Category": "宗教", "PageNumber": "241" }, "geometry": { "type": "Point", "coordinates": [ 101.9416, 2.6818, 101.9416 ] } },
{ "type": "Feature", "properties": { "Name_CH": "芙蓉菩提练寺  ", "Name_ML": "Pertubuhan Pu Ti Lian She Seremban Negeri Sembilan", "Name_EN": null, "Location": "288, Jalan Tun Dr.lsmail,70200 Seremban, Negeri Sembilan", "Longitude": 101.95169, "Latitude": 2.707079, "Region": "Negeri Sembilan", "Category": "宗教", "PageNumber": "241" }, "geometry": { "type": "Point", "coordinates": [ 101.9517, 2.7071, 101.9517 ] } },
{ "type": "Feature", "properties": { "Name_CH": "芙蓉清业精舍佛教会 ", "Name_ML": "Persatuan Penganut Agama Buddha Chin Yap Chin Ser Seremban Negeri Sembilan", "Name_EN": null, "Location": "583H, Jalan Ulu Temiang, 70200 Seremban, Negeri Sembilan.", "Longitude": 101.95169, "Latitude": 2.707079, "Region": "Negeri Sembilan", "Category": "宗教", "PageNumber": "241" }, "geometry": { "type": "Point", "coordinates": [ 101.9517, 2.7071, 101.9517 ] } },
{ "type": "Feature", "properties": { "Name_CH": "芙蓉神龙宫 ", "Name_ML": "Persatuan Penganut Dewa San Loong Seremban Negeri Sembilan", "Name_EN": null, "Location": "181, Jalan Han Hee Foongz 70200 Seremban, Negeri Sembilan.", "Longitude": 101.95169, "Latitude": 2.707079, "Region": "Negeri Sembilan", "Category": "宗教", "PageNumber": "241" }, "geometry": { "type": "Point", "coordinates": [ 101.9517, 2.7071, 101.9517 ] } },
{ "type": "Feature", "properties": { "Name_CH": "芙蓉太上老君会", "Name_ML": "Perbubuhan Penganut Dewa Tai Seong Lau Koon Taman Bidara Seremban Negeri Sembilan", "Name_EN": null, "Location": "43, Jalan Bidara 5, Taman Bidara, 70100 Seremban, Negeri Sembilan.", "Longitude": 101.95169, "Latitude": 2.707079, "Region": "Negeri Sembilan", "Category": "宗教", "PageNumber": "241" }, "geometry": { "type": "Point", "coordinates": [ 101.9517, 2.7071, 101.9517 ] } },
{ "type": "Feature", "properties": { "Name_CH": "芙蓉添惠爱心教会", "Name_ML": "Pertubuhan Pengikut Pengajaran Tian Hui Ai Xin Seremban Negeri Sembilan", "Name_EN": null, "Location": "250, Jalan Quek Kai Dong, 70200 Seremban, Negeri Sembilan.", "Longitude": 101.95169, "Latitude": 2.707079, "Region": "Negeri Sembilan", "Category": "宗教", "PageNumber": "241" }, "geometry": { "type": "Point", "coordinates": [ 101.9517, 2.7071, 101.9517 ] } },
{ "type": "Feature", "properties": { "Name_CH": "芙蓉真耶苏教会  ", "Name_ML": "Gereja Jesus Benar Seremban Negeri Sembilan", "Name_EN": "Negeri Sembilan True Jesus Church Seremban", "Location": "305, Taman Chip Aik, Jin Tun Dr Ismail ,70200 Seremban, Negeri Sembilan", "Longitude": 101.95169, "Latitude": 2.707079, "Region": "Negeri Sembilan", "Category": "宗教", "PageNumber": "241" }, "geometry": { "type": "Point", "coordinates": [ 101.9517, 2.7071, 101.9517 ] } },
{ "type": "Feature", "properties": { "Name_CH": "芙蓉如来佛信众会 ", "Name_ML": "Pertubuhan Penganut Dewa Ru Lai Fo Seremban Negeri Sembilan", "Name_EN": null, "Location": "32Jalan Dato, Lee Fong Yee, 70000 Seremban, Negeri Sembilan.", "Longitude": 101.938697, "Latitude": 2.724503, "Region": "Negeri Sembilan", "Category": "宗教", "PageNumber": "241" }, "geometry": { "type": "Point", "coordinates": [ 101.9387, 2.7245, 101.9387 ] } },
{ "type": "Feature", "properties": { "Name_CH": "芙蓉真光道堂 ", "Name_ML": "Persatuan Penganut Chen Kong Toh Tong Seremban Negeri Sembilan", "Name_EN": null, "Location": "151, Jalan Temiang, 70200 Seremban, Negeri Sembilan.", "Longitude": 101.938511, "Latitude": 2.739264, "Region": "Negeri Sembilan", "Category": "宗教", "PageNumber": "241" }, "geometry": { "type": "Point", "coordinates": [ 101.9385, 2.7393, 101.9385 ] } },
{ "type": "Feature", "properties": { "Name_CH": "芙蓉仙人叔婆太神庙", "Name_ML": "Persatuan Tokong Xian Ren Shu Po Tai Seramban Negeri Sembilan", "Name_EN": null, "Location": "Batu 21\/2, Jalan Kuala Pilah Paroi, Seremban, Negeri Sembilan.", "Longitude": 102.309751, "Latitude": 2.791267, "Region": "Negeri Sembilan", "Category": "宗教", "PageNumber": "241" }, "geometry": { "type": "Point", "coordinates": [ 102.3098, 2.7913, 102.3098 ] } },
{ "type": "Feature", "properties": { "Name_CH": "芙蓉文华佛教会 ", "Name_ML": "Persatuan Penganut Agama Buddha Wen Hua Seremban Negeri Sembilan", "Name_EN": null, "Location": "144C, Jalan Toman 7, Kemayan Square, Jalan Sg. Ujong, 70200 Seremban,Negeri Sembilan.", "Longitude": 102.370559, "Latitude": 3.13582, "Region": "Negeri Sembilan", "Category": "宗教", "PageNumber": "241" }, "geometry": { "type": "Point", "coordinates": [ 102.3706, 3.1358, 102.3706 ] } },
{ "type": "Feature", "properties": { "Name_CH": "老港天后宫", "Name_ML": "Pertubuhan Tin Hor Kong Pasir Panjang Negeri Sembilan ", "Name_EN": null, "Location": "23, Jalan Pantal, 71250 Pasir Panjang, Negeri Sembilan.", "Longitude": 101.858333, "Latitude": 2.43066, "Region": "Negeri Sembilan", "Category": "宗教", "PageNumber": "242" }, "geometry": { "type": "Point", "coordinates": [ 101.8583, 2.4307, 101.8583 ] } },
{ "type": "Feature", "properties": { "Name_CH": "瓜拉芦骨关帝庙", "Name_ML": "Pertubuhan Penganut Dewa Kuang Tee Kuala Lukut Pork Dickson", "Name_EN": null, "Location": "Lot 33, Batu 3, Jalan Seremban, Kuala Lukut, 71000 Port Dickson, Negeri Sembilan.", "Longitude": 101.812966, "Latitude": 2.561527, "Region": "Negeri Sembilan", "Category": "宗教", "PageNumber": "242" }, "geometry": { "type": "Point", "coordinates": [ 101.813, 2.5615, 101.813 ] } },
{ "type": "Feature", "properties": { "Name_CH": "高岛太清宫庙 ", "Name_ML": "Pertubuhan Penganut Tokong Tai Chin Kung Kg. Legong Jaya Kota Negeri Sembilan ", "Name_EN": null, "Location": "14A, Kg. Legong Jaya ,71350 Kota, Negeri Sembilan.", "Longitude": 102.1652, "Latitude": 2.51143, "Region": "Negeri Sembilan", "Category": "宗教", "PageNumber": "242" }, "geometry": { "type": "Point", "coordinates": [ 102.1652, 2.5114, 102.1652 ] } },
{ "type": "Feature", "properties": { "Name_CH": "冷宜新村佛教会 ", "Name_ML": "Persatuan Penganut Agama Buddha Kg.Baru Dangi ", "Name_EN": null, "Location": "18, Jalan Besar, Pekan Dangi, 73100 Johol Negeri Sembilan.", "Longitude": 102.250027, "Latitude": 2.558965, "Region": "Negeri Sembilan", "Category": "宗教", "PageNumber": "242" }, "geometry": { "type": "Point", "coordinates": [ 102.25, 2.559, 102.25 ] } },
{ "type": "Feature", "properties": { "Name_CH": "金马士陈保田神庙理事会  ", "Name_ML": null, "Name_EN": "Commitee Of Management Of Chin Poh Tian Temple Gemas Tampin Negeri Sembilan", "Location": "22, Jalan Batu Anam Gemas, Tampin, Negeri Sembilan.", "Longitude": 102.611714, "Latitude": 2.580265, "Region": "Negeri Sembilan", "Category": "宗教", "PageNumber": "242" }, "geometry": { "type": "Point", "coordinates": [ 102.6117, 2.5803, 102.6117 ] } },
{ "type": "Feature", "properties": { "Name_CH": "瓜拉沙花观音庙 ", "Name_ML": "Pertubuhan Pengikut Rumah Berhala Kuang Eng Meo Kuala Sawah Rantau Negeri Sembilan ", "Name_EN": null, "Location": "39, Jalan Besar, Kuala Sawah, 71250 Rantau, Seremban, Negeri Sembilan.", "Longitude": 101.961812, "Latitude": 2.586419, "Region": "Negeri Sembilan", "Category": "宗教", "PageNumber": "242" }, "geometry": { "type": "Point", "coordinates": [ 101.9618, 2.5864, 101.9618 ] } },
{ "type": "Feature", "properties": { "Name_CH": "利民济东兴宫 ", "Name_ML": "Persatuan Penganut Rumah Berhala Tiong Sing Kong Felda Bukit Rokan Pos Gemencheh Negeri Sembilan", "Name_EN": null, "Location": "33, Kg. Bahru Gemencheh, Batang Melako, Tampin, Negeri Sembilan.", "Longitude": 101.874202, "Latitude": 2.672714, "Region": "Negeri Sembilan", "Category": "宗教", "PageNumber": "242" }, "geometry": { "type": "Point", "coordinates": [ 101.8742, 2.6727, 101.8742 ] } },
{ "type": "Feature", "properties": { "Name_CH": "瓜垃庇唠西天宫", "Name_ML": "Pertubuhan Penganut Dewa Si Thian Kong ", "Name_EN": null, "Location": "603, Jalan Sawah Lebar, 72000 Kuala Pilah, Negeri Sembilan.", "Longitude": 102.253937, "Latitude": 2.748933, "Region": "Negeri Sembilan", "Category": "宗教", "PageNumber": "242" }, "geometry": { "type": "Point", "coordinates": [ 102.2539, 2.7489, 102.2539 ] } },
{ "type": "Feature", "properties": { "Name_CH": "葫芦顶佛教会 ", "Name_ML": "Persatuan Penganut Agama Buddha Pertang Negeri Sembilan", "Name_EN": null, "Location": "13, Jalan Besar Bercang, 72300 Kuala Pilah, Negeri Sembilan.", "Longitude": 102.219709, "Latitude": 2.9606, "Region": "Negeri Sembilan", "Category": "宗教", "PageNumber": "242" }, "geometry": { "type": "Point", "coordinates": [ 102.2197, 2.9606, 102.2197 ] } },
{ "type": "Feature", "properties": { "Name_CH": "拉务再也佛教会", "Name_ML": "Penganut Agama Buddha Kg. Labu Jaya Seremban Negeri Sembilan ", "Name_EN": null, "Location": "C-18, Peringkat Satu Felda, Kg. Labu Jaya, 71760 Seremban, Negeri Sembilan.", "Longitude": 101.783459, "Latitude": 2.751479, "Region": "Negeri Sembilan", "Category": "宗教", "PageNumber": "242" }, "geometry": { "type": "Point", "coordinates": [ 101.7835, 2.7515, 101.7835 ] } },
{ "type": "Feature", "properties": { "Name_CH": "葫芦顶三帝庙 ", "Name_ML": "Persatuan Pengikut Rumah Berhala Sam Tee Pertiang Negeri Sembilan", "Name_EN": null, "Location": "Batu 1\/2, Jalan Simpang Pertang, Pertang, Negeri Sembilan.", "Longitude": 102.2171, "Latitude": 2.9597, "Region": "Negeri Sembilan", "Category": "宗教", "PageNumber": "242" }, "geometry": { "type": "Point", "coordinates": [ 102.2171, 2.9597, 102.2171 ] } },
{ "type": "Feature", "properties": { "Name_CH": "金马士宝胜大帝庙  ", "Name_ML": "Persatuan Penganut Sewa Poh Seng Tai Tay Gemas, Negeri Sembilan", "Name_EN": null, "Location": "514, Kg. Tiong, 73400 Gemas, Negeri Sembilan.", "Longitude": 101.685441, "Latitude": 3.06257, "Region": "Negeri Sembilan", "Category": "宗教", "PageNumber": "242" }, "geometry": { "type": "Point", "coordinates": [ 101.6854, 3.0626, 101.6854 ] } },
{ "type": "Feature", "properties": { "Name_CH": "马佛总森州分会 ", "Name_ML": "Persatuan Buddhist Malaysia Cawangan Negeri Sembilan Malaysia Buddhist Association Negeri Sembilan", "Name_EN": null, "Location": "588, Jalan Tan Sri Manickavasagam, 70200,Negeri Sembilan.", "Longitude": 102.562866, "Latitude": 2.443717, "Region": "Negeri Sembilan", "Category": "宗教", "PageNumber": "243" }, "geometry": { "type": "Point", "coordinates": [ 102.5629, 2.4437, 102.5629 ] } },
{ "type": "Feature", "properties": { "Name_CH": "芦骨孔教会", "Name_ML": "Pertubuhan Pengajian Ajaran Confucius Lukut Port Dickson Negeri Sembilan", "Name_EN": null, "Location": "36 Jaman Naga Batu 3 3\/4Jalan Seremban Pekan Lukut 71010 Port Dickson, Negeri Sembilan.", "Longitude": 101.840262, "Latitude": 2.578896, "Region": "Negeri Sembilan", "Category": "宗教", "PageNumber": "243" }, "geometry": { "type": "Point", "coordinates": [ 101.8403, 2.5789, 101.8403 ] } },
{ "type": "Feature", "properties": { "Name_CH": "林茂太乙公善信会", "Name_ML": "Pertubuhan Penganut Penganut Dewa Tai Ait Kong Padang Chenkau Rembau Negeri Sembilan", "Name_EN": null, "Location": "1645, Pekan Chengkdu, 71300 Rembau, Negeri Sembilan.", "Longitude": 102.108315, "Latitude": 2.549187, "Region": "Negeri Sembilan", "Category": "宗教", "PageNumber": "243" }, "geometry": { "type": "Point", "coordinates": [ 102.1083, 2.5492, 102.1083 ] } },
{ "type": "Feature", "properties": { "Name_CH": "芦骨凤山寺 ", "Name_ML": "Pertubuhan Hong Sun Sek Lukut Negeri Sembilan ", "Name_EN": null, "Location": "PT 324, Jalan Besar, 71010 Lukut,Negeri Sembilan.", "Longitude": 101.833, "Latitude": 2.5703, "Region": "Negeri Sembilan", "Category": "宗教", "PageNumber": "243" }, "geometry": { "type": "Point", "coordinates": [ 101.833, 2.5703, 101.833 ] } },
{ "type": "Feature", "properties": { "Name_CH": "芦骨斯巴力里新济森宫", "Name_ML": "Pertubuhan Pengurusan Tokong Chee Seng Kong Kg.Sri Parit Lukut Negeri Sembilan ", "Name_EN": null, "Location": "Lot 394, Kg Sri Parit 71010 Lukut Negeri Sembilan.", "Longitude": 101.833, "Latitude": 2.5703, "Region": "Negeri Sembilan", "Category": "宗教", "PageNumber": "243" }, "geometry": { "type": "Point", "coordinates": [ 101.833, 2.5703, 101.833 ] } },
{ "type": "Feature", "properties": { "Name_CH": "骨笑佛爷南海观音佛学会 ", "Name_ML": "Pertubuhan Penganut Buddha Siaw Fatt Yea Nam Hai Kuan Im Lukut Negeri Sembilan", "Name_EN": null, "Location": "Batu 3 1\/2, Jalan Seremban, 71010 Lukut Negeri Sembilan.", "Longitude": 101.833, "Latitude": 2.5703, "Region": "Negeri Sembilan", "Category": "宗教", "PageNumber": "243" }, "geometry": { "type": "Point", "coordinates": [ 101.833, 2.5703, 101.833 ] } },
{ "type": "Feature", "properties": { "Name_CH": "灵生真佛宗教会", "Name_ML": "Persatuan Penganut Agama Ling Sheng Jen Foo Chung Seremban Negeri Sembilan", "Name_EN": null, "Location": "64, Tingkat 2, Jalan Tuanku Munawir, 70000 Seremban, Negeri Sembilan.", "Longitude": 101.935372, "Latitude": 2.732151, "Region": "Negeri Sembilan", "Category": "宗教", "PageNumber": "243" }, "geometry": { "type": "Point", "coordinates": [ 101.9354, 2.7322, 101.9354 ] } },
{ "type": "Feature", "properties": { "Name_CH": "邻恩复兴教会  ", "Name_ML": null, "Name_EN": "Neighbour Grace Assembly  ", "Location": "2, Jalan Temiang, 70200 Seremban, Negeri Sembilan.", "Longitude": 101.937555, "Latitude": 2.732953, "Region": "Negeri Sembilan", "Category": "宗教", "PageNumber": "243" }, "geometry": { "type": "Point", "coordinates": [ 101.9376, 2.733, 101.9376 ] } },
{ "type": "Feature", "properties": { "Name_CH": "马口阿密陀巴佛学会", "Name_ML": "Persatuan Penganut Agama Buddha Amitabha Bahau Negeri Sembilan", "Name_EN": null, "Location": "CS-107, Bahau MDJL, 72100 Bahau, Negeri Sembilan.", "Longitude": 102.409578, "Latitude": 2.807962, "Region": "Negeri Sembilan", "Category": "宗教", "PageNumber": "243" }, "geometry": { "type": "Point", "coordinates": [ 102.4096, 2.808, 102.4096 ] } },
{ "type": "Feature", "properties": { "Name_CH": "龙城如来佛祖 ", "Name_ML": "Persatuan Penganut Dewa Ru Lai Fo Zhu Seremban Negeri Sembilan", "Name_EN": null, "Location": "Persatuan Penganut Dewa Ru Lai Fo Zhu Seremban Negeri Sembilan", "Longitude": 101.706028, "Latitude": 3.138946, "Region": "Negeri Sembilan", "Category": "宗教", "PageNumber": "243" }, "geometry": { "type": "Point", "coordinates": [ 101.706, 3.1389, 101.706 ] } },
{ "type": "Feature", "properties": { "Name_CH": "利民济盂兰盛会 ", "Name_ML": "Persatuan Penyokong Perayaan Yu Lan Gemencheh Negeri Sembilan", "Name_EN": null, "Location": "620, Taman Gemencheh Baru, 73200 Gemencheh,Negeri Sembilan.", "Longitude": 100.612483, "Latitude": 5.612853, "Region": "Negeri Sembilan", "Category": "宗教", "PageNumber": "243" }, "geometry": { "type": "Point", "coordinates": [ 100.6125, 5.6129, 100.6125 ] } },
{ "type": "Feature", "properties": { "Name_CH": "利民济新村镇天宫  ", "Name_ML": "Lembaga Pengurus Tokong Cheng Thian Kiong Kg.Bahru Gemencheh Negeri Sembilan", "Name_EN": null, "Location": null, "Longitude": null, "Latitude": null, "Region": "Negeri Sembilan", "Category": "宗教", "PageNumber": "243" }, "geometry": null },
{ "type": "Feature", "properties": { "Name_CH": "马来西亚剑价学会(森美兰分会) ", "Name_ML": "Persatuan Soka Gakkai Malaysia (Caw Negeri Sembilan)", "Name_EN": null, "Location": "Lot 9128, Jalan RJ2\/25, Taman Rasah Jaya, 70300 Seremban, Negeri Sembilan.", "Longitude": 101.95169, "Latitude": 2.707079, "Region": "Negeri Sembilan", "Category": "宗教", "PageNumber": "244" }, "geometry": { "type": "Point", "coordinates": [ 101.9517, 2.7071, 101.9517 ] } },
{ "type": "Feature", "properties": { "Name_CH": "马来西亚阿密陀巴佛教会 ", "Name_ML": "Persatuan Penganut Agama Buddha Amitabha Malaysia ", "Name_EN": null, "Location": "Lot 2236, 8 1\/2KM, Jalan Kuala Pilah, Ampangan, Seremban, Negeri Sembilan", "Longitude": 102.014134, "Latitude": 2.712571, "Region": "Negeri Sembilan", "Category": "宗教", "PageNumber": "244" }, "geometry": { "type": "Point", "coordinates": [ 102.0141, 2.7126, 102.0141 ] } },
{ "type": "Feature", "properties": { "Name_CH": "马口光武庙", "Name_ML": "Persatuan Pengikut Rumah Berhala Kwang Woo Bahau Negeri Sembilan", "Name_EN": null, "Location": "175A, Kg. China, 72100 Bahau, Negeri Sembilan.", "Longitude": 102.411826, "Latitude": 2.808852, "Region": "Negeri Sembilan", "Category": "宗教", "PageNumber": "244" }, "geometry": { "type": "Point", "coordinates": [ 102.4118, 2.8089, 102.4118 ] } },
{ "type": "Feature", "properties": { "Name_CH": "马口黄老仙师会  ", "Name_ML": "Persatuan Penganut Dewa Huang Lao Xian Shi Bahau Negeri Sembilan ", "Name_EN": null, "Location": "Kg.Batu Ratabatu 2t Jalan Tampin, 72100 Bahau, Negeri Sembilan.", "Longitude": 102.059393, "Latitude": 2.618865, "Region": "Negeri Sembilan", "Category": "宗教", "PageNumber": "244" }, "geometry": { "type": "Point", "coordinates": [ 102.0594, 2.6189, 102.0594 ] } },
{ "type": "Feature", "properties": { "Name_CH": "马口孔孟圣道院", "Name_ML": "Persatuan Penganut Buddha Kung Mern Sern Tau Yen Bahau Negeri Sembilan ", "Name_EN": null, "Location": "249, Blok D3, Tingkat Satu, Taman Bahau lndahz 72100 Bahau, Negeri Sembilan", "Longitude": 102.424635, "Latitude": 2.79511, "Region": "Negeri Sembilan", "Category": "宗教", "PageNumber": "244" }, "geometry": { "type": "Point", "coordinates": [ 102.4246, 2.7951, 102.4246 ] } },
{ "type": "Feature", "properties": { "Name_CH": "马口民众老观音堂 ", "Name_ML": "Persatuan Penganut Lao Kuan Yin Tang Awam Bahau Negeri Sembilan ", "Name_EN": null, "Location": "101, Batu Bakar, 72100 Bahau, Negeri Sembilan.", "Longitude": 102.366058, "Latitude": 2.800398, "Region": "Negeri Sembilan", "Category": "宗教", "PageNumber": "244" }, "geometry": { "type": "Point", "coordinates": [ 102.3661, 2.8004, 102.3661 ] } },
{ "type": "Feature", "properties": { "Name_CH": "马口普宁佛教会  ", "Name_ML": "Persatuan Agama Buddha Pu Ning Bahau Negeri Sembilan", "Name_EN": null, "Location": "91, Taman Sornam, 72100 Bahau, Negeri Sembilan.", "Longitude": 102.366058, "Latitude": 2.800398, "Region": "Negeri Sembilan", "Category": "宗教", "PageNumber": "244" }, "geometry": { "type": "Point", "coordinates": [ 102.3661, 2.8004, 102.3661 ] } },
{ "type": "Feature", "properties": { "Name_CH": "马身阿密陀巴佛教会", "Name_ML": "Persatuan Penganut Agama Buddha Amitabha Mahsan Negeri Sembilan ", "Name_EN": null, "Location": "153, Taman Mahsan, 72100 Bahau, Negeri Sembilan.", "Longitude": 102.366058, "Latitude": 2.800398, "Region": "Negeri Sembilan", "Category": "宗教", "PageNumber": "244" }, "geometry": { "type": "Point", "coordinates": [ 102.3661, 2.8004, 102.3661 ] } },
{ "type": "Feature", "properties": { "Name_CH": "马口济南堂神庙 ", "Name_ML": "Persatuan Penganut Dewa Chee Nam Thang Bahau Negeri Sembilan ", "Name_EN": null, "Location": "46A, Kg. Baru, 72100 Bahau, Negeri Sembilan.", "Longitude": 101.662902, "Latitude": 3.086999, "Region": "Negeri Sembilan", "Category": "宗教", "PageNumber": "244" }, "geometry": { "type": "Point", "coordinates": [ 101.6629, 3.087, 101.6629 ] } },
{ "type": "Feature", "properties": { "Name_CH": "马口双溪镭东区关帝庙  ", "Name_ML": "Persatuan Penganut Tokong Cina Kwan Ti Felda Lui Timor Bahau Negeri Sembilan", "Name_EN": null, "Location": "193, Felda Lui Timor ,72130 Bahau, Negeri Sembilan.", "Longitude": 101.515267, "Latitude": 3.723548, "Region": "Negeri Sembilan", "Category": "宗教", "PageNumber": "244" }, "geometry": { "type": "Point", "coordinates": [ 101.5153, 3.7235, 101.5153 ] } },
{ "type": "Feature", "properties": { "Name_CH": "妙应寺", "Name_ML": "Bew Eng Temple 741, Rahang Garden, 70100 Seremban, Negeri Sembilan.", "Name_EN": null, "Location": null, "Longitude": null, "Latitude": null, "Region": "Negeri Sembilan", "Category": "宗教", "PageNumber": "244" }, "geometry": null },
{ "type": "Feature", "properties": { "Name_CH": "谈边德教会紫祥阁", "Name_ML": null, "Name_EN": "Che Sian Khor Moral Uplifting Society Tampin ", "Location": "3904, Taman Indcih,73000, Tampin, Negeri Sembilan", "Longitude": 102.237998, "Latitude": 2.477528, "Region": "Negeri Sembilan", "Category": "宗教", "PageNumber": "245" }, "geometry": { "type": "Point", "coordinates": [ 102.238, 2.4775, 102.238 ] } },