{
"type": "FeatureCollection",
"name": "Region_2",
"crs": { "type": "name", "properties": { "name": "urn:ogc:def:crs:OGC:1.3:CRS84" } },
"features": [
{ "type": "Feature", "properties": { "Name_CH": "吉玻庄严同宗会", "Name_ML": "Persatuan Zhuang Yam Kedah Dan Perlis", "Name_EN": null, "Location": "No.4, Tingkat 2, Taman Selesa, Simpang Kuala, 05400 Alor Setae Kedah.", "Longitude": 100.3666021, "Latitude": 6.095685, "Region": "Perlis", "Category": "血缘", "PageNumber": "37" }, "geometry": { "type": "Point", "coordinates": [ 100.3666, 6.0957, 100.3666 ] } },
{ "type": "Feature", "properties": { "Name_CH": "玻璃市港口鱼商船主公会", "Name_ML": "Persatuan Peniaga Ikan Dan Pengusaha Bot Kuala Perlis", "Name_EN": null, "Location": "No.19, Taman Sentosa, 02000 Kuala Perlis, Perlis.", "Longitude": 100.134212, "Latitude": 6.391184, "Region": "Perlis", "Category": "业缘", "PageNumber": "37" }, "geometry": { "type": "Point", "coordinates": [ 100.1342, 6.3912, 100.1342 ] } },
{ "type": "Feature", "properties": { "Name_CH": "玻璃市州华人大会堂", "Name_ML": "Dewan Perhimpunan China Negeri Perlis", "Name_EN": "Perlis Chinese Assembly Hall", "Location": "30, Jalan Maju 4, Taman Kemajuan, 01000 Kangsar, Perlis.", "Longitude": 100.2003471, "Latitude": 6.4244126, "Region": "Perlis", "Category": "综合", "PageNumber": "37" }, "geometry": { "type": "Point", "coordinates": [ 100.2003, 6.4244, 100.2003 ] } },
{ "type": "Feature", "properties": { "Name_CH": "玻璃市广东公会", "Name_ML": "Persatuan Guang Dong Guan Di Miao Perlis", "Name_EN": null, "Location": "Taman Mutiara, Fasa 3, 01000 Kangar, Perlis.", "Longitude": 100.1885371, "Latitude": 6.434396, "Region": "Perlis", "Category": "地缘", "PageNumber": "37" }, "geometry": { "type": "Point", "coordinates": [ 100.1885, 6.4344, 100.1885 ] } },
{ "type": "Feature", "properties": { "Name_CH": "玻州小贩商业公会", "Name_ML": "Persatuan Penjaja-Penjaja & Penjual-Penjual Negeri Perlis", "Name_EN": null, "Location": "10, Jin Jubli Perak, 01000 Kangar, Perlis.", "Longitude": 100.1918523, "Latitude": 6.4348625, "Region": "Perlis", "Category": "业缘", "PageNumber": "37" }, "geometry": { "type": "Point", "coordinates": [ 100.1919, 6.4349, 100.1919 ] } },
{ "type": "Feature", "properties": { "Name_CH": "玻璃市中华工商总会", "Name_ML": null, "Name_EN": "Perlis Chinese Chamber of Commerce and Industry", "Location": "274, Jalan Kangar-Alor Setarjingkat 1, Taman Mutiara, 01000 Kangar, Perlis.", "Longitude": 100.1886573, "Latitude": 6.4361422, "Region": "Perlis", "Category": "业缘", "PageNumber": "37" }, "geometry": { "type": "Point", "coordinates": [ 100.1887, 6.4361, 100.1887 ] } },
{ "type": "Feature", "properties": { "Name_CH": "玻璃市福建会馆", "Name_ML": "Persatuan Hokkien Perlis", "Name_EN": "Perlis Hokkien Association", "Location": "No.1, Jalan Barrack, Kangar, Perlis.", "Longitude": 100.229309, "Latitude": 6.5333079, "Region": "Perlis", "Category": "地缘", "PageNumber": "37" }, "geometry": { "type": "Point", "coordinates": [ 100.2293, 6.5333, 100.2293 ] } },
{ "type": "Feature", "properties": { "Name_CH": "玻州加基武吉中华公会", "Name_ML": "Persatuan Choong Fah Koong Pooi", "Name_EN": null, "Location": "Dewan Persatuan Choong Fah Koong Fooi 02200 Kaki Bukit Perlis.", "Longitude": 100.1927389, "Latitude": 6.7071186, "Region": "Perlis", "Category": "综合", "PageNumber": "37" }, "geometry": { "type": "Point", "coordinates": [ 100.1927, 6.7071, 100.1927 ] } },
{ "type": "Feature", "properties": { "Name_CH": "玻州亚娄庆安宫", "Name_ML": "Persatuan Penganut Dewa Kheng Aun Keong", "Name_EN": null, "Location": "C-16, Jalan Syed Hussein, 02600 Arau, Perlis.", "Longitude": 100.273179, "Latitude": 6.426466, "Region": "Perlis", "Category": "宗教", "PageNumber": "38" }, "geometry": { "type": "Point", "coordinates": [ 100.2732, 6.4265, 100.2732 ] } },
{ "type": "Feature", "properties": { "Name_CH": "华益学校校友会", "Name_ML": "Persatuan Murid-Murid Tua Hwa Aik", "Name_EN": null, "Location": "Sekolah Hwa Aik, Arauz Perlis.", "Longitude": 100.2738723, "Latitude": 6.4269488, "Region": "Perlis", "Category": "文教", "PageNumber": "38" }, "geometry": { "type": "Point", "coordinates": [ 100.2739, 6.4269, 100.2739 ] } },
{ "type": "Feature", "properties": { "Name_CH": "群益学校校友会", "Name_ML": "Persatuan Murid-Murid Tua Khoon Aik", "Name_EN": null, "Location": "1, Jin Seri Satuz Taman Perlis, 01000 Kangar, Perlis.", "Longitude": 100.196919, "Latitude": 6.4279, "Region": "Perlis", "Category": "文教", "PageNumber": "38" }, "geometry": { "type": "Point", "coordinates": [ 100.1969, 6.4279, 100.1969 ] } },
{ "type": "Feature", "properties": { "Name_CH": "玻州菩提佛教会", "Name_ML": "PersatuanBodhi Buddhist Perlis", "Name_EN": "Perlis Bodhi Buddhist Association", "Location": "8, Jalan Taman Sri lntan, 02600 Arauz Perlis.", "Longitude": 100.2749433, "Latitude": 6.4287388, "Region": "Perlis", "Category": "宗教", "PageNumber": "38" }, "geometry": { "type": "Point", "coordinates": [ 100.2749, 6.4287, 100.2749 ] } },
{ "type": "Feature", "properties": { "Name_CH": "玻璃市华校董事联合会", "Name_ML": "Persatuan Lembaga2 Pengurus Sekolan China Perlis", "Name_EN": null, "Location": "C\/O SRJK(C) Khoon Aik, Jalan Raja Syed Alwi, 01000 Kangar, Perlis.", "Longitude": 100.1966063, "Latitude": 6.4293425, "Region": "Perlis", "Category": "文教", "PageNumber": "38" }, "geometry": { "type": "Point", "coordinates": [ 100.1966, 6.4293, 100.1966 ] } },
{ "type": "Feature", "properties": { "Name_CH": "玻州德教会紫阳阁", "Name_ML": "Persatuan Pendidikan Akhlak Che Yang Khor", "Name_EN": "Che Yang Khor Moral Uplifting Society", "Location": "33, Pengkalan Asam, 01000 Kangar, Perlis.", "Longitude": 100.1894975, "Latitude": 6.4344785, "Region": "Perlis", "Category": "宗教", "PageNumber": "38" }, "geometry": { "type": "Point", "coordinates": [ 100.1895, 6.4345, 100.1895 ] } },
{ "type": "Feature", "properties": { "Name_CH": "玻璃市佛学会", "Name_ML": "Pertubuhan Buddist Perlis", "Name_EN": null, "Location": "1, Jin Mutiara, Taman Mutiara, 01000 Kangar, Perlis.", "Longitude": 100.1884752, "Latitude": 6.4352269, "Region": "Perlis", "Category": "宗教", "PageNumber": "38" }, "geometry": { "type": "Point", "coordinates": [ 100.1885, 6.4352, 100.1885 ] } },
{ "type": "Feature", "properties": { "Name_CH": "玻璃市加央真空教原南坛", "Name_ML": "Guan Nam Tuagh Chinese Temple", "Name_EN": null, "Location": "125, Jalan Jubli Emas, Kangar, Perlis.", "Longitude": 100.2084512, "Latitude": 6.4459783, "Region": "Perlis", "Category": "宗教", "PageNumber": "38" }, "geometry": { "type": "Point", "coordinates": [ 100.2085, 6.446, 100.2085 ] } },
{ "type": "Feature", "properties": { "Name_CH": "玻璃市华校教师会", "Name_ML": "Persatuan Guru-Guru Sekolah Cina Perlis", "Name_EN": "The Perlis Chinese School Teachers Association", "Location": "SJK(C) Kok Aik, 02500 Mata Ayer, Perlis.", "Longitude": 100.2584516, "Latitude": 6.4729163, "Region": "Perlis", "Category": "文教", "PageNumber": "38" }, "geometry": { "type": "Point", "coordinates": [ 100.2585, 6.4729, 100.2585 ] } },
{ "type": "Feature", "properties": { "Name_CH": "玻中校友会", "Name_ML": "Persatuan Murid-Murid Tua SMJK Perlis", "Name_EN": null, "Location": "2, Jin Masjid, 02100 Padang Besar, Perlis.", "Longitude": 100.3197898, "Latitude": 6.6605315, "Region": "Perlis", "Category": "文教", "PageNumber": "38" }, "geometry": { "type": "Point", "coordinates": [ 100.3198, 6.6605, 100.3198 ] } },
{ "type": "Feature", "properties": { "Name_CH": "双弄那督庙", "Name_ML": "Dato Kong Kuala Sanglang", "Name_EN": null, "Location": "225, K Sanglang, Perlis.", "Longitude": 100.195938, "Latitude": 6.260972, "Region": "Perlis", "Category": "宗教", "PageNumber": "39" }, "geometry": { "type": "Point", "coordinates": [ 100.1959, 6.261, 100.1959 ] } },
{ "type": "Feature", "properties": { "Name_CH": "普济庙", "Name_ML": "Fo Chi Mooi", "Name_EN": null, "Location": "76, Pekan Simpang Empat, 02700 Simpang Empat Perlis.", "Longitude": 100.1367166, "Latitude": 6.2980423, "Region": "Perlis", "Category": "宗教", "PageNumber": "39" }, "geometry": { "type": "Point", "coordinates": [ 100.1367, 6.298, 100.1367 ] } },
{ "type": "Feature", "properties": { "Name_CH": "加基武吉佛教会", "Name_ML": null, "Name_EN": "Pertubuhan Buddhis Kaki Bukit", "Location": "PT 1794, Pekan Lama, 02000 Kuala Perlis, Perlis.", "Longitude": 100.12741, "Latitude": 6.3970635, "Region": "Perlis", "Category": "宗教", "PageNumber": "39" }, "geometry": { "type": "Point", "coordinates": [ 100.1274, 6.3971, 100.1274 ] } },
{ "type": "Feature", "properties": { "Name_CH": "加央港口永安堂", "Name_ML": "Tokong Cina Eng Aun Keong", "Name_EN": null, "Location": "Batu 6 3\/4, Jalan Besar, 02000 Kuala Perlis, Perlis.", "Longitude": 100.1321746, "Latitude": 6.4002226, "Region": "Perlis", "Category": "宗教", "PageNumber": "39" }, "geometry": { "type": "Point", "coordinates": [ 100.1322, 6.4002, 100.1322 ] } },
{ "type": "Feature", "properties": { "Name_CH": "爪夷芭静安宫理事会", "Name_ML": "Pertubuhan Pengurusan Rumah Berhala Cheng Aun Kong, Jejawi, Perlis", "Name_EN": null, "Location": "1168, Jalan Jejawi Permatang, 02600, Arau, Perlis.", "Longitude": 100.2267865, "Latitude": 6.4068519, "Region": "Perlis", "Category": "宗教", "PageNumber": "39" }, "geometry": { "type": "Point", "coordinates": [ 100.2268, 6.4069, 100.2268 ] } },
{ "type": "Feature", "properties": { "Name_CH": "玻璃市篮球总会", "Name_ML": "Persatuan Bola Keranjang Negeri Perlis", "Name_EN": "Perlis Basketball Association", "Location": "158, Taman Utara, Jejawi, 02600 Arau, Perlis.", "Longitude": 100.2824483, "Latitude": 6.4105653, "Region": "Perlis", "Category": "体育联谊", "PageNumber": "39" }, "geometry": { "type": "Point", "coordinates": [ 100.2824, 6.4106, 100.2824 ] } },
{ "type": "Feature", "properties": { "Name_CH": "玻璃市州琼谊社", "Name_ML": "Kelab Kheng Yee The Perlis", "Name_EN": null, "Location": "Hotel Federel, 01000 Kangar, Perlis.", "Longitude": 100.197633, "Latitude": 6.439058, "Region": "Perlis", "Category": "体育联谊", "PageNumber": "39" }, "geometry": { "type": "Point", "coordinates": [ 100.1976, 6.4391, 100.1976 ] } },
{ "type": "Feature", "properties": { "Name_CH": "山神伯公庙", "Name_ML": "Tokong Cina Beseri Jaya", "Name_EN": null, "Location": "2841, Taman Beseri Jaya 02400,Perlis.", "Longitude": 100.2334792, "Latitude": 6.559489, "Region": "Perlis", "Category": "宗教", "PageNumber": "39" }, "geometry": { "type": "Point", "coordinates": [ 100.2335, 6.5595, 100.2335 ] } },
{ "type": "Feature", "properties": { "Name_CH": "福德祠（巴东勿刹）", "Name_ML": "Hock Teik Soo Temple", "Name_EN": null, "Location": "C\/O 31, Pekan Lama, 02100 Padang Besar, Perlis.", "Longitude": 100.317013, "Latitude": 6.658363, "Region": "Perlis", "Category": "宗教", "PageNumber": "39" }, "geometry": { "type": "Point", "coordinates": [ 100.317, 6.6584, 100.317 ] } },
{ "type": "Feature", "properties": { "Name_CH": "赞美中心", "Name_ML": "Gospel Vision Consultant", "Name_EN": null, "Location": "No. 20, Jalan Cendana, Taman Kaki Bukit, 02200, Kaki Bukit Perlis.", "Longitude": 100.212438, "Latitude": 6.643662, "Region": "Perlis", "Category": "宗教", "PageNumber": "39" }, "geometry": { "type": "Point", "coordinates": [ 100.2124, 6.6437, 100.2124 ] } },
{ "type": "Feature", "properties": { "Name_CH": "吉玻州双弄华人公冢理事会", "Name_ML": "JawatankuasaTanah Perkuburan Orang-Orang Kuala Sanglang, Kedah\/Perlis", "Name_EN": null, "Location": "1178,1179 dan 1180 (Asal Lot 1081 & 1095) Negeri Perlis, Mukim Sanglang, Simpang Sanglang.", "Longitude": 100.1982971, "Latitude": 6.282643, "Region": "Perlis", "Category": "慈善福利", "PageNumber": "40" }, "geometry": { "type": "Point", "coordinates": [ 100.1983, 6.2826, 100.1983 ] } },
{ "type": "Feature", "properties": { "Name_CH": "玻州十字港，新港公冢", "Name_ML": "Kubur China (Wan On)", "Name_EN": null, "Location": "Kuala Sungai Baru 02700 Simpang Empat, Kayang, Perlis.", "Longitude": 100.1659619, "Latitude": 6.334916, "Region": "Perlis", "Category": "慈善福利", "PageNumber": "40" }, "geometry": { "type": "Point", "coordinates": [ 100.166, 6.3349, 100.166 ] } },
{ "type": "Feature", "properties": { "Name_CH": "万和公冢", "Name_ML": "Perkuburan Wan Ho", "Name_EN": null, "Location": "Batu 1, Jalan Tambun Tulang, Simpang Empat, Kayang, Perlis.", "Longitude": 100.2488782, "Latitude": 6.38486, "Region": "Perlis", "Category": "慈善福利", "PageNumber": "40" }, "geometry": { "type": "Point", "coordinates": [ 100.2489, 6.3849, 100.2489 ] } },
{ "type": "Feature", "properties": { "Name_CH": "玻州港口广万源公冢", "Name_ML": "Tanah Kubur Cho Kong Wan Teng (Orang Cina Mukim Kuala Perlis)", "Name_EN": null, "Location": "Kampung Bukit Putih 02000 Kuala Perlis, Perlis.", "Longitude": 100.1306779, "Latitude": 6.397886, "Region": "Perlis", "Category": "慈善福利", "PageNumber": "40" }, "geometry": { "type": "Point", "coordinates": [ 100.1307, 6.3979, 100.1307 ] } },
{ "type": "Feature", "properties": { "Name_CH": "青运玻州分会", "Name_ML": "YMM Perlis", "Name_EN": null, "Location": "18, Jin Sarawak, 02000, Kuala Perlis, Perlis.", "Longitude": 100.133918, "Latitude": 6.400652, "Region": "Perlis", "Category": "青年妇女", "PageNumber": "40" }, "geometry": { "type": "Point", "coordinates": [ 100.1339, 6.4007, 100.1339 ] } },
{ "type": "Feature", "properties": { "Name_CH": "青团运玻璃市州分会", "Name_ML": "Pertubuhan Gerakan Belia Bersatu Malaysia Bahagian Negeri Perlis", "Name_EN": null, "Location": "No.30, Jalan Maju 4, Taman Kemajuan, 01000 Kangsar, Perlis.", "Longitude": 100.2003471, "Latitude": 6.4244126, "Region": "Perlis", "Category": "青年妇女", "PageNumber": "40" }, "geometry": { "type": "Point", "coordinates": [ 100.2003, 6.4244, 100.2003 ] } },
{ "type": "Feature", "properties": { "Name_CH": "玻璃市华人公冢理事会", "Name_ML": "Persatuan Perkuburan Orang-Orang Tionghwa Perlis", "Name_EN": "Perlis Chinese Public Cemetery Committee", "Location": "7, Jalan Indra Kayangan, 01000 Kangar, Perlis.", "Longitude": 100.193518, "Latitude": 6.438261, "Region": "Perlis", "Category": "慈善福利", "PageNumber": "40" }, "geometry": { "type": "Point", "coordinates": [ 100.1935, 6.4383, 100.1935 ] } },
{ "type": "Feature", "properties": { "Name_CH": "亚娄及新路公冢", "Name_ML": "Perkuburan Cina Arau \/ Pauh (Awan)", "Name_EN": null, "Location": "Batu 11\/2, Jalan Pauhz Kurong Anai, Perlis.", "Longitude": 100.310621, "Latitude": 6.439435, "Region": "Perlis", "Category": "慈善福利", "PageNumber": "40" }, "geometry": { "type": "Point", "coordinates": [ 100.3106, 6.4394, 100.3106 ] } },
{ "type": "Feature", "properties": { "Name_CH": "玻州加基武吉长江寮义务消防队", "Name_ML": "Bomba Sukarela Pekan Sayur Kaki Bukit, Perlis", "Name_EN": null, "Location": "No.12, Pekan Sayur Kaki Bukit, Perlis.", "Longitude": 100.2127371, "Latitude": 6.6427383, "Region": "Perlis", "Category": "慈善福利", "PageNumber": "40" }, "geometry": { "type": "Point", "coordinates": [ 100.2127, 6.6427, 100.2127 ] } },
{ "type": "Feature", "properties": { "Name_CH": "知知丁宜区小园主合作社", "Name_ML": "Koperasi Pekebun-Pekebun Kecil Mukim Titi Tinggi", "Name_EN": null, "Location": "115, Pekan Baru, 02200 Kaki Bukit Perlis.", "Longitude": 100.208075, "Latitude": 6.644254, "Region": "Perlis", "Category": "慈善福利", "PageNumber": "40" }, "geometry": { "type": "Point", "coordinates": [ 100.2081, 6.6443, 100.2081 ] } }
]
}
