{
"type": "FeatureCollection",
"name": "Region_13",
"crs": { "type": "name", "properties": { "name": "urn:ogc:def:crs:OGC:1.3:CRS84" } },
"features": [
{ "type": "Feature", "properties": { "Name_CH": "担波罗里福建会馆", "Name_ML": "Persatuan Hokkien Tamparuli", "Name_EN": null, "Location": "P.O.Box 76, 89257 Tamparuli, Sabah.", "Longitude": 103.681307, "Latitude": 1.533466, "Region": "Sabah", "Category": "地缘", "PageNumber": "384" }, "geometry": { "type": "Point", "coordinates": [ 103.6813, 1.5335, 103.6813 ] } },
{ "type": "Feature", "properties": { "Name_CH": "保佛海南会馆", "Name_ML": "Persatuan Hainan Beaufort", "Name_EN": "Beaufort Hainan Association", "Location": "No. 52, Chung Street, P.O.Box 12, 89807 Beaufort, Sabah.", "Longitude": 116.078146, "Latitude": 5.942019, "Region": "Sabah", "Category": "地缘", "PageNumber": "384" }, "geometry": { "type": "Point", "coordinates": [ 116.0781, 5.942, 116.0781 ] } },
{ "type": "Feature", "properties": { "Name_CH": "沙巴中华大会堂", "Name_ML": "Gabungan Persatuan Cina Sabah", "Name_EN": "The Federation Of Chinese Associations Sabah", "Location": "11A Wisma Pendidikan, Jalan Padang, P.O.Box 19902, 88871 Kota Kinabalu, Sabah.", "Longitude": 116.076115, "Latitude": 5.978375, "Region": "Sabah", "Category": "综合", "PageNumber": "384" }, "geometry": { "type": "Point", "coordinates": [ 116.0761, 5.9784, 116.0761 ] } },
{ "type": "Feature", "properties": { "Name_CH": "古打毛律中华公会", "Name_ML": null, "Name_EN": "Chung Hwa Association Kota Belud", "Location": "P.O.Box 54, 89157 Kota Belud, Sabah.", "Longitude": 116.293291, "Latitude": 6.214785, "Region": "Sabah", "Category": "综合", "PageNumber": "384" }, "geometry": { "type": "Point", "coordinates": [ 116.2933, 6.2148, 116.2933 ] } },
{ "type": "Feature", "properties": { "Name_CH": "吧巴福建会馆", "Name_ML": "Persatuan Hokkien Paper, Sabah", "Name_EN": "Hokkien Association, Papar Sabah", "Location": "P.O.Box 105, 89608, Papar, Sabah.", "Longitude": 116.293291, "Latitude": 6.214785, "Region": "Sabah", "Category": "地缘", "PageNumber": "384" }, "geometry": { "type": "Point", "coordinates": [ 116.2933, 6.2148, 116.2933 ] } },
{ "type": "Feature", "properties": { "Name_CH": "保佛福建会馆", "Name_ML": "Persatuan Hokkien Beaufort Sabah", "Name_EN": null, "Location": "P.O.Box 740, 89809 Beaufort, Sabah.", "Longitude": 116.293291, "Latitude": 6.214785, "Region": "Sabah", "Category": "地缘", "PageNumber": "384" }, "geometry": { "type": "Point", "coordinates": [ 116.2933, 6.2148, 116.2933 ] } },
{ "type": "Feature", "properties": { "Name_CH": "保佛客家公会", "Name_ML": "Persatuan Hakka Beaufort", "Name_EN": null, "Location": "P.O.Box 992, 89808 Beaufort, Sabah.", "Longitude": 116.293291, "Latitude": 6.214785, "Region": "Sabah", "Category": "地缘", "PageNumber": "384" }, "geometry": { "type": "Point", "coordinates": [ 116.2933, 6.2148, 116.2933 ] } },
{ "type": "Feature", "properties": { "Name_CH": "丹南福建会馆", "Name_ML": "Persatuan Hokkien Tenom", "Name_EN": null, "Location": "P.O.Box 116, 89907 Tenom, Sabah.", "Longitude": 116.293291, "Latitude": 6.214785, "Region": "Sabah", "Category": "地缘", "PageNumber": "384" }, "geometry": { "type": "Point", "coordinates": [ 116.2933, 6.2148, 116.2933 ] } },
{ "type": "Feature", "properties": { "Name_CH": "丹南客家公会", "Name_ML": "Persatuan Hakka Tenom", "Name_EN": null, "Location": "P.O.Box 342, 89908 Tenom, Sabah.", "Longitude": 116.293291, "Latitude": 6.214785, "Region": "Sabah", "Category": "地缘", "PageNumber": "384" }, "geometry": { "type": "Point", "coordinates": [ 116.2933, 6.2148, 116.2933 ] } },
{ "type": "Feature", "properties": { "Name_CH": "斗湖潮州公会", "Name_ML": "Persatuan Teo Chew Tawau", "Name_EN": null, "Location": "P.O.Box 384, 91007 Tawan, Sabah.", "Longitude": 116.293291, "Latitude": 6.214785, "Region": "Sabah", "Category": "地缘", "PageNumber": "384" }, "geometry": { "type": "Point", "coordinates": [ 116.2933, 6.2148, 116.2933 ] } },
{ "type": "Feature", "properties": { "Name_CH": "斗湖四邑公会", "Name_ML": null, "Name_EN": "Tawau Sye Yap Resident Association", "Location": "P.O.Box 858, 91008 Tawau, Sabah", "Longitude": null, "Latitude": null, "Region": "Sabah", "Category": "地缘", "PageNumber": "385" }, "geometry": { "type": "Point", "coordinates": [ 0.0, 0.0, 0.0 ] } },
{ "type": "Feature", "properties": { "Name_CH": "斗湖福建会馆", "Name_ML": "Persatuan Hokkien Tawau", "Name_EN": null, "Location": "P.O.Box 389, 91007 Tawau, Sabah", "Longitude": 117.883447, "Latitude": 4.245881, "Region": "Sabah", "Category": "地缘", "PageNumber": "385" }, "geometry": { "type": "Point", "coordinates": [ 117.8834, 4.2459, 117.8834 ] } },
{ "type": "Feature", "properties": { "Name_CH": "斗湖客家公会", "Name_ML": null, "Name_EN": "Tawau Hakka Association", "Location": "P.O.Box 354, 91007 Tawau, Sabah", "Longitude": 117.883188, "Latitude": 4.246779, "Region": "Sabah", "Category": "地缘", "PageNumber": "385" }, "geometry": { "type": "Point", "coordinates": [ 117.8832, 4.2468, 117.8832 ] } },
{ "type": "Feature", "properties": { "Name_CH": "斗湖潮州公会", "Name_ML": "Persatuan Teo Chew Tawau", "Name_EN": "Tawau Teo Chew Association", "Location": "2nd Floor, 37, Jalan Dunlop, 91000 Tawau, Sabah.", "Longitude": 117.88972, "Latitude": 4.247108, "Region": "Sabah", "Category": "地缘", "PageNumber": "385" }, "geometry": { "type": "Point", "coordinates": [ 117.8897, 4.2471, 117.8897 ] } },
{ "type": "Feature", "properties": { "Name_CH": "根地咬四邑公会", "Name_ML": "Persatuan Sze Yi Keningau Sabah", "Name_EN": "Sze Yi Association Keningau Sabah", "Location": "P.O.Box 1333, 89008 Keningau, Sabah.", "Longitude": 116.159364, "Latitude": 5.362613, "Region": "Sabah", "Category": "地缘", "PageNumber": "385" }, "geometry": { "type": "Point", "coordinates": [ 116.1594, 5.3626, 116.1594 ] } },
{ "type": "Feature", "properties": { "Name_CH": "斗湖福州公会", "Name_ML": "Persatuan Foochow Tawau", "Name_EN": "Tawau Foochow Association", "Location": "P.O.Box 60925, 91019, Tawau, Sabah. TB 2907, Town Ext II, Jalan Perbandaran, 91000 Tawau, Sabah.", "Longitude": 116.293291, "Latitude": 6.214785, "Region": "Sabah", "Category": "地缘", "PageNumber": "385" }, "geometry": { "type": "Point", "coordinates": [ 116.2933, 6.2148, 116.2933 ] } },
{ "type": "Feature", "properties": { "Name_CH": "斗湖海南会馆", "Name_ML": "Persatuan Hai Nam, Tawau", "Name_EN": null, "Location": "P.O.Box 61021, 91020 Tawau, Sabah", "Longitude": 116.293291, "Latitude": 6.214785, "Region": "Sabah", "Category": "地缘", "PageNumber": "385" }, "geometry": { "type": "Point", "coordinates": [ 116.2933, 6.2148, 116.2933 ] } },
{ "type": "Feature", "properties": { "Name_CH": "斗亚兰县客家公会", "Name_ML": "Persatuan Hakka Daerah Tuaran", "Name_EN": null, "Location": "P.O.Box 29, 89257 Tamparuli, Sabah.", "Longitude": 116.293291, "Latitude": 6.214785, "Region": "Sabah", "Category": "地缘", "PageNumber": "385" }, "geometry": { "type": "Point", "coordinates": [ 116.2933, 6.2148, 116.2933 ] } },
{ "type": "Feature", "properties": { "Name_CH": "根地咬福建会馆", "Name_ML": "Persatuan Hokkien Keningau", "Name_EN": null, "Location": "P.O.Box 267, 89008 Keningau, Sabah.", "Longitude": 116.293291, "Latitude": 6.214785, "Region": "Sabah", "Category": "地缘", "PageNumber": "385" }, "geometry": { "type": "Point", "coordinates": [ 116.2933, 6.2148, 116.2933 ] } },
{ "type": "Feature", "properties": { "Name_CH": "根地咬客家公会", "Name_ML": null, "Name_EN": "Keningau Hakka Association", "Location": "P.O.Box 718, 89008 Keningau, Sabah.", "Longitude": 116.293291, "Latitude": 6.214785, "Region": "Sabah", "Category": "地缘", "PageNumber": "385" }, "geometry": { "type": "Point", "coordinates": [ 116.2933, 6.2148, 116.2933 ] } },
{ "type": "Feature", "properties": { "Name_CH": "古达福建会馆", "Name_ML": "Persatuan Hokkien Kudat", "Name_EN": null, "Location": "P.O.Box 66, 89057 Kudat, Sabah.", "Longitude": 116.293291, "Latitude": 6.214785, "Region": "Sabah", "Category": "地缘", "PageNumber": "385" }, "geometry": { "type": "Point", "coordinates": [ 116.2933, 6.2148, 116.2933 ] } },
{ "type": "Feature", "properties": { "Name_CH": "古打客家公会", "Name_ML": "Persatuan Hakka Kudat", "Name_EN": null, "Location": "P.O.Box 120, 89057 Kudat, Sabah.", "Longitude": 116.293291, "Latitude": 6.214785, "Region": "Sabah", "Category": "地缘", "PageNumber": "385" }, "geometry": { "type": "Point", "coordinates": [ 116.2933, 6.2148, 116.2933 ] } },
{ "type": "Feature", "properties": { "Name_CH": "拿笃福建会馆", "Name_ML": "Persatuan Hokkien Lahad Datu", "Name_EN": null, "Location": "P.O.Box 61662, 91125 Lahad Datu, Sabah.", "Longitude": 118.294759, "Latitude": 5.028548, "Region": "Sabah", "Category": "地缘", "PageNumber": "386" }, "geometry": { "type": "Point", "coordinates": [ 118.2948, 5.0285, 118.2948 ] } },
{ "type": "Feature", "properties": { "Name_CH": "拿笃客家公会", "Name_ML": "Persatuan Hakka Lahad Datu", "Name_EN": null, "Location": "P.O.Box 61215, 91121 Lahad Datu, Sabah.", "Longitude": 118.294759, "Latitude": 5.028548, "Region": "Sabah", "Category": "地缘", "PageNumber": "386" }, "geometry": { "type": "Point", "coordinates": [ 118.2948, 5.0285, 118.2948 ] } },
{ "type": "Feature", "properties": { "Name_CH": "拿笃四邑公会", "Name_ML": "Persatuan Sze Yi Lahad Datu", "Name_EN": null, "Location": "P.O.Box 60331, 91112, Lahad Datu, Sabah.", "Longitude": 118.294759, "Latitude": 5.028548, "Region": "Sabah", "Category": "地缘", "PageNumber": "386" }, "geometry": { "type": "Point", "coordinates": [ 118.2948, 5.0285, 118.2948 ] } },
{ "type": "Feature", "properties": { "Name_CH": "马来西亚沙巴州暨纳闽联邦直辖区海南会馆联合会", "Name_ML": "Gabungan Persatuan -Persatuan Hainan Sabah & Persekutuan Labuan", "Name_EN": null, "Location": "58, 1st Floor, Jin Patai, P.O.Box 10330, 88803 Kota Kinabalu, Sabah.", "Longitude": 116.108811, "Latitude": 5.999236, "Region": "Sabah", "Category": "地缘", "PageNumber": "386" }, "geometry": { "type": "Point", "coordinates": [ 116.1088, 5.9992, 116.1088 ] } },
{ "type": "Feature", "properties": { "Name_CH": "沙巴安溪会馆", "Name_ML": null, "Name_EN": "Sabah Ann Koai Association", "Location": "P.O.Box 12502, 88829 Kota Kinabalu, Sabah.", "Longitude": 116.108811, "Latitude": 5.999236, "Region": "Sabah", "Category": "地缘", "PageNumber": "386" }, "geometry": { "type": "Point", "coordinates": [ 116.1088, 5.9992, 116.1088 ] } },
{ "type": "Feature", "properties": { "Name_CH": "纳闽永春会馆", "Name_ML": "Persatuan Eng Choon Labuan", "Name_EN": null, "Location": "No.UO197, Jin Melor, PS 365, 87008 Labuan", "Longitude": 115.241434, "Latitude": 6.071035, "Region": "Sabah", "Category": "地缘", "PageNumber": "386" }, "geometry": { "type": "Point", "coordinates": [ 115.2414, 6.071, 115.2414 ] } },
{ "type": "Feature", "properties": { "Name_CH": "纳闽福州公会", "Name_ML": "Persatuan Foochow Labuan", "Name_EN": null, "Location": "SK 0448, 4 1\/2 Miles, Kampung Sungai Keling, Jalan Rancha-Rancha, Labuan F.T, Sabah.", "Longitude": 116.556277, "Latitude": 6.205519, "Region": "Sabah", "Category": "地缘", "PageNumber": "386" }, "geometry": { "type": "Point", "coordinates": [ 116.5563, 6.2055, 116.5563 ] } },
{ "type": "Feature", "properties": { "Name_CH": "兰瑙福建会馆", "Name_ML": "Persatuan Hokkien Ranau Sabah", "Name_EN": "Hokkien Association Ranau Sabah", "Location": "P.O.Box 35, 89307 Ranau, Sabah.", "Longitude": 116.293291, "Latitude": 6.214785, "Region": "Sabah", "Category": "地缘", "PageNumber": "386" }, "geometry": { "type": "Point", "coordinates": [ 116.2933, 6.2148, 116.2933 ] } },
{ "type": "Feature", "properties": { "Name_CH": "兰瑙县客家公会", "Name_ML": "Persatuan Hakka Daerah Ranau", "Name_EN": null, "Location": "P.O.Box 178, 89308 Ranau, Sabah.", "Longitude": 116.293291, "Latitude": 6.214785, "Region": "Sabah", "Category": "地缘", "PageNumber": "386" }, "geometry": { "type": "Point", "coordinates": [ 116.2933, 6.2148, 116.2933 ] } },
{ "type": "Feature", "properties": { "Name_CH": "纳闽广惠肇会馆", "Name_ML": "Persatuan Kwong Wei Siew Labuan", "Name_EN": "Kwong Wei Siew Association Labuan", "Location": "P.O.Box 261, 87008 Labuan, 1st Floor, Lot 5, Block 1 Saguking, Labuan.", "Longitude": 116.293291, "Latitude": 6.214785, "Region": "Sabah", "Category": "地缘", "PageNumber": "386" }, "geometry": { "type": "Point", "coordinates": [ 116.2933, 6.2148, 116.2933 ] } },
{ "type": "Feature", "properties": { "Name_CH": "纳闽客家公会", "Name_ML": "Persatuan Hakka W.P. Labuan ", "Name_EN": "Labuan Hakka Association", "Location": "P.O.Box 82183, 87031 Labuan.  lot 7, 1st Floor, Block A, Lazena Commercial Centre, Phase 1, Sabah.", "Longitude": 116.293291, "Latitude": 6.214785, "Region": "Sabah", "Category": "地缘", "PageNumber": "386" }, "geometry": { "type": "Point", "coordinates": [ 116.2933, 6.2148, 116.2933 ] } },
{ "type": "Feature", "properties": { "Name_CH": "纳闽联邦直辖区安溪会馆", "Name_ML": null, "Name_EN": "Ann Kway Assocition Federal Territory OF Labuan", "Location": "P.O.Box 126, 87008 Labuan F.T.", "Longitude": 116.293291, "Latitude": 6.214785, "Region": "Sabah", "Category": "地缘", "PageNumber": "386" }, "geometry": { "type": "Point", "coordinates": [ 116.2933, 6.2148, 116.2933 ] } },
{ "type": "Feature", "properties": { "Name_CH": "沙巴华北同乡会", "Name_ML": null, "Name_EN": "The Sabah Northen Chinese Association.K.K.", "Location": "P.O.Box 21273, 88700 Luyang, Sabah.", "Longitude": 116.817599, "Latitude": 5.364564, "Region": "Sabah", "Category": "地缘", "PageNumber": "387" }, "geometry": { "type": "Point", "coordinates": [ 116.8176, 5.3646, 116.8176 ] } },
{ "type": "Feature", "properties": { "Name_CH": "沙巴永春会馆", "Name_ML": "Persatuan Eng Choon Sabah", "Name_EN": null, "Location": "P.O.Box 21936, 88777 Luyang, Sabah.", "Longitude": 116.817599, "Latitude": 5.364564, "Region": "Sabah", "Category": "地缘", "PageNumber": "387" }, "geometry": { "type": "Point", "coordinates": [ 116.8176, 5.3646, 116.8176 ] } },
{ "type": "Feature", "properties": { "Name_CH": "沙巴州山打根华人同乡总会", "Name_ML": "Persatuan Masyarakat Tiong Hua Bersekutuan Sandakan, Sabah", "Name_EN": "The United Sandakan Sabah Chinee Communities Association", "Location": "P.O.Box 3275, 90736 Sandakan, Sabah.", "Longitude": 118.068549, "Latitude": 5.865902, "Region": "Sabah", "Category": "地缘", "PageNumber": "387" }, "geometry": { "type": "Point", "coordinates": [ 118.0685, 5.8659, 118.0685 ] } },
{ "type": "Feature", "properties": { "Name_CH": "沙巴暨纳闽联邦直辖区海南会馆联合会", "Name_ML": "Gabungan Persatuan -Persatuan Hainan Sabah & W P Labuan", "Name_EN": null, "Location": "Block A, Lot 3 & 4, 2nd Floor, Taman Grandview, P.O. Box 101, 90007 Sandakan, Sabah.", "Longitude": 116.070699, "Latitude": 5.94636, "Region": "Sabah", "Category": "地缘", "PageNumber": "387" }, "geometry": { "type": "Point", "coordinates": [ 116.0707, 5.9464, 116.0707 ] } },
{ "type": "Feature", "properties": { "Name_CH": "沙巴南安会馆", "Name_ML": "Persatuan Nam Ann Sabah", "Name_EN": "Sabah Nam Ann Association", "Location": null, "Longitude": 116.088947, "Latitude": 5.946739, "Region": "Sabah", "Category": "地缘", "PageNumber": "387" }, "geometry": { "type": "Point", "coordinates": [ 116.0889, 5.9467, 116.0889 ] } },
{ "type": "Feature", "properties": { "Name_CH": "沙巴亚庇华人同乡会馆联合会", "Name_ML": "rsotuan Masyarakat Cina Bersekutu Sabah Di Kota\n Kinabalu", "Name_EN": "The United Sabah Chinese Communities Association Of Kota Kinabalu", "Location": "11th Floor, Wisma Pendidikan, Jalan Balai Polis, 88000 Kota Kinabalu, Sabah.", "Longitude": 116.076115, "Latitude": 5.978375, "Region": "Sabah", "Category": "地缘", "PageNumber": "387" }, "geometry": { "type": "Point", "coordinates": [ 116.0761, 5.9784, 116.0761 ] } },
{ "type": "Feature", "properties": { "Name_CH": "沙巴福建社团联合会", "Name_ML": "Gabungan Persatuan-Persatuan Hokkien Sabah", "Name_EN": "Federation Of Sabah Hokkien Assciation", "Location": "P.O.Box 10176, 79, Gaya Street, 88802 Kota Kinabalu, Sabah.", "Longitude": 116.077836, "Latitude": 5.985002, "Region": "Sabah", "Category": "地缘", "PageNumber": "387" }, "geometry": { "type": "Point", "coordinates": [ 116.0778, 5.985, 116.0778 ] } },
{ "type": "Feature", "properties": { "Name_CH": "沙巴三江公会", "Name_ML": null, "Name_EN": "Sabah San Chiang Association", "Location": "P.O.Box 10797, 88808 Kota Kinabalu, Sabah.", "Longitude": 116.108811, "Latitude": 5.999236, "Region": "Sabah", "Category": "地缘", "PageNumber": "387" }, "geometry": { "type": "Point", "coordinates": [ 116.1088, 5.9992, 116.1088 ] } },
{ "type": "Feature", "properties": { "Name_CH": "沙巴州大埔同乡会", "Name_ML": "Persatuan Masyarakat Tai Poo Sabah", "Name_EN": null, "Location": "P.O.Box 12418z 88827 Kota Kinabalu, Sabah.", "Longitude": 116.108811, "Latitude": 5.999236, "Region": "Sabah", "Category": "地缘", "PageNumber": "387" }, "geometry": { "type": "Point", "coordinates": [ 116.1088, 5.9992, 116.1088 ] } },
{ "type": "Feature", "properties": { "Name_CH": "沙巴州西海岸四邑公会", "Name_ML": null, "Name_EN": "Sze Yi Association West CoastSabah", "Location": "P.O.Box 10189, 88802 Kota Kinabalu, Sabah.", "Longitude": 116.108811, "Latitude": 5.999236, "Region": "Sabah", "Category": "地缘", "PageNumber": "387" }, "geometry": { "type": "Point", "coordinates": [ 116.1088, 5.9992, 116.1088 ] } },
{ "type": "Feature", "properties": { "Name_CH": "沙巴亚庇福州公会", "Name_ML": "Persatuan Foochow Kota Kinabalu", "Name_EN": "Foo Chow Association Kota Kinabalu", "Location": "P.O.Box 13811, 88844 Kota Kinabalu, Jalan Kolam, Bukit Padang, Luyang, Kota Kinabalu, Sabah.", "Longitude": 116.293291, "Latitude": 6.214785, "Region": "Sabah", "Category": "地缘", "PageNumber": "387" }, "geometry": { "type": "Point", "coordinates": [ 116.2933, 6.2148, 116.2933 ] } },
{ "type": "Feature", "properties": { "Name_CH": "沙巴州西海岸广肇会馆", "Name_ML": "Persatuon Kwong Siew Pantai Barat Sabah", "Name_EN": null, "Location": "P.O.Box 11332,88815 Kota Kinabalu.Sabah.", "Longitude": 116.293291, "Latitude": 6.214785, "Region": "Sabah", "Category": "地缘", "PageNumber": "387" }, "geometry": { "type": "Point", "coordinates": [ 116.2933, 6.2148, 116.2933 ] } },
{ "type": "Feature", "properties": { "Name_CH": "山打根福建会馆", "Name_ML": null, "Name_EN": "Hockien Association Sandakan", "Location": "P.O Box 124, 90701 Sandakan, Sabah.", "Longitude": 117.743228, "Latitude": 4.63728, "Region": "Sabah", "Category": "地缘", "PageNumber": "388" }, "geometry": { "type": "Point", "coordinates": [ 117.7432, 4.6373, 117.7432 ] } },
{ "type": "Feature", "properties": { "Name_CH": "山打根兴安会馆", "Name_ML": "Persatuan Hin Ann Sandakan", "Name_EN": "Hin Ann Association Sandakan", "Location": "P.O. Box 214, 90709 Sandakan, Sabah.", "Longitude": 117.743228, "Latitude": 4.63728, "Region": "Sabah", "Category": "地缘", "PageNumber": "388" }, "geometry": { "type": "Point", "coordinates": [ 117.7432, 4.6373, 117.7432 ] } },
{ "type": "Feature", "properties": { "Name_CH": "山打根福州公会", "Name_ML": "Persatuan Foochow Sandakan", "Name_EN": "Foochow Association Sandakan", "Location": "1st Floor, Lot 5, Bk 1 Bandar Ramai Ramai, Sandakan, Sabah.", "Longitude": 116.076756, "Latitude": 5.926744, "Region": "Sabah", "Category": "地缘", "PageNumber": "388" }, "geometry": { "type": "Point", "coordinates": [ 116.0768, 5.9267, 116.0768 ] } },
{ "type": "Feature", "properties": { "Name_CH": "山打根海南会馆", "Name_ML": "Persatuan Hainan Sandakan", "Name_EN": "Hainan Association Sandakan", "Location": "Taman Grandview, 2nd Floor Block Al, Lot 3, 4 & 5. P.O.Box 101, 90701 Sandakan, Sabah.", "Longitude": 116.093516, "Latitude": 5.977354, "Region": "Sabah", "Category": "地缘", "PageNumber": "388" }, "geometry": { "type": "Point", "coordinates": [ 116.0935, 5.9774, 116.0935 ] } },
{ "type": "Feature", "properties": { "Name_CH": "亚庇潮州公会", "Name_ML": "Persatuan Feo Chew Kota Kinabalu", "Name_EN": null, "Location": "P.O.box 10519, 88805 Kota Kinabalu, Sabah.", "Longitude": 116.108811, "Latitude": 5.999236, "Region": "Sabah", "Category": "地缘", "PageNumber": "388" }, "geometry": { "type": "Point", "coordinates": [ 116.1088, 5.9992, 116.1088 ] } },
{ "type": "Feature", "properties": { "Name_CH": "亚庇福建会馆", "Name_ML": "Persatuan Hokkien Kota Kinabalu", "Name_EN": null, "Location": "P.O.Box 10176, 88802 Kota Kinabalu, Sabah.", "Longitude": 116.108811, "Latitude": 5.999236, "Region": "Sabah", "Category": "地缘", "PageNumber": "388" }, "geometry": { "type": "Point", "coordinates": [ 116.1088, 5.9992, 116.1088 ] } },
{ "type": "Feature", "properties": { "Name_CH": "亚庇福州公会", "Name_ML": null, "Name_EN": "Foo Chow Association Kota Kinabalu", "Location": "P.O.Box 13811, 88844 Kota Kinabalu, Sabah.", "Longitude": 116.108811, "Latitude": 5.999236, "Region": "Sabah", "Category": "地缘", "PageNumber": "388" }, "geometry": { "type": "Point", "coordinates": [ 116.1088, 5.9992, 116.1088 ] } },
{ "type": "Feature", "properties": { "Name_CH": "亚庇海南公会", "Name_ML": "Persatuan Hai Nam Kota Kinabalu", "Name_EN": "Kota Kinabalu Hainan Association", "Location": "P.O.Box 10330, 88803 Kota Kinabalu, Sabah.", "Longitude": 116.108811, "Latitude": 5.999236, "Region": "Sabah", "Category": "地缘", "PageNumber": "388" }, "geometry": { "type": "Point", "coordinates": [ 116.1088, 5.9992, 116.1088 ] } },
{ "type": "Feature", "properties": { "Name_CH": "亚庇客家公会", "Name_ML": null, "Name_EN": "Kota Kinabalu Hakka Association", "Location": "P.O.Box 10158, 88801 Kota Kinabalu, Sabah.", "Longitude": 116.108811, "Latitude": 5.999236, "Region": "Sabah", "Category": "地缘", "PageNumber": "388" }, "geometry": { "type": "Point", "coordinates": [ 116.1088, 5.9992, 116.1088 ] } },
{ "type": "Feature", "properties": { "Name_CH": "山打根潮州公会", "Name_ML": null, "Name_EN": "Teo Chew Association Sandakan", "Location": "P.O.Box 385, 90704 Sandakan, Sabah.", "Longitude": 116.293291, "Latitude": 6.214785, "Region": "Sabah", "Category": "地缘", "PageNumber": "388" }, "geometry": { "type": "Point", "coordinates": [ 116.2933, 6.2148, 116.2933 ] } },
{ "type": "Feature", "properties": { "Name_CH": "山打根客家公会", "Name_ML": null, "Name_EN": "Hakka Association Sandakan", "Location": "P.O.Box 690, 90707 Sandakan, Sabah.", "Longitude": 116.293291, "Latitude": 6.214785, "Region": "Sabah", "Category": "地缘", "PageNumber": "388" }, "geometry": { "type": "Point", "coordinates": [ 116.2933, 6.2148, 116.2933 ] } },
{ "type": "Feature", "properties": { "Name_CH": "山打根四邑公会", "Name_ML": "Persatuan Sze Yip Sandakan", "Name_EN": "Sze Yip Association Of Sandakan", "Location": "P.O.Box 775, 90708 Sandakan, Sabah.", "Longitude": 116.293291, "Latitude": 6.214785, "Region": "Sabah", "Category": "地缘", "PageNumber": "388" }, "geometry": { "type": "Point", "coordinates": [ 116.2933, 6.2148, 116.2933 ] } },
{ "type": "Feature", "properties": { "Name_CH": "斗湖江忧堂黄氏公会", "Name_ML": null, "Name_EN": "Wong Kong Ha Thong Association Tawau", "Location": "P.O.Box 707, 91008 Tawau, Sabah", "Longitude": null, "Latitude": null, "Region": "Sabah", "Category": "血缘", "PageNumber": "389" }, "geometry": { "type": "Point", "coordinates": [ 0.0, 0.0, 0.0 ] } },
{ "type": "Feature", "properties": { "Name_CH": "斗湖彭氏宗亲会", "Name_ML": "Persatuan Klan Pang Tawau", "Name_EN": null, "Location": "P.O.Box 943, 91008, Tawau, Sabah", "Longitude": 117.891493, "Latitude": 4.244881, "Region": "Sabah", "Category": "血缘", "PageNumber": "389" }, "geometry": { "type": "Point", "coordinates": [ 117.8915, 4.2449, 117.8915 ] } },
{ "type": "Feature", "properties": { "Name_CH": "斗湖张氏（清河堂）公会", "Name_ML": "Persatuan Klan Zhang (Ching Ho Thong) Tawau", "Name_EN": null, "Location": "P.O.Box 566z 91007 Tawau, Sabah.", "Longitude": 117.910041, "Latitude": 4.264246, "Region": "Sabah", "Category": "血缘", "PageNumber": "389" }, "geometry": { "type": "Point", "coordinates": [ 117.91, 4.2642, 117.91 ] } },
{ "type": "Feature", "properties": { "Name_CH": "沙巴古达张氏（清河堂）公会", "Name_ML": "Persatuan Klan Chong (Ching Ho Thong) Kudat Sabah", "Name_EN": "Kudat Clan Chong (Ching Ho Thong) Association Sabah", "Location": "Tingkat 2, Block E, 8 Sedco, Peti Surat 229, 89058 Kudat Sabah.", "Longitude": 100.44529, "Latitude": 5.352205, "Region": "Sabah", "Category": "血缘", "PageNumber": "389" }, "geometry": { "type": "Point", "coordinates": [ 100.4453, 5.3522, 100.4453 ] } },
{ "type": "Feature", "properties": { "Name_CH": "沙巴黄氏（江夏）宗亲会", "Name_ML": "Persatuan Klan Huang (Jiang Xia) Kota Kinabalu", "Name_EN": null, "Location": "44-2FL, Bevely Hill Plaza, Jalan Bundusan, Kota Kinabalu, P.O.Box 20453,88761, Luyong, Kota Kinabalu, Sabah", "Longitude": 116.100247, "Latitude": 5.936567, "Region": "Sabah", "Category": "血缘", "PageNumber": "389" }, "geometry": { "type": "Point", "coordinates": [ 116.1002, 5.9366, 116.1002 ] } },
{ "type": "Feature", "properties": { "Name_CH": "亚庇龙岩会馆", "Name_ML": null, "Name_EN": "The Lung Yen Association", "Location": "P.O.Box 2551, 88806 Kota Kinabalu, Sabah.", "Longitude": 116.108811, "Latitude": 5.999236, "Region": "Sabah", "Category": "地缘", "PageNumber": "389" }, "geometry": { "type": "Point", "coordinates": [ 116.1088, 5.9992, 116.1088 ] } },
{ "type": "Feature", "properties": { "Name_CH": "亚庇兴安会馆", "Name_ML": "Persatuan Hin Ann Kota Kinabalu", "Name_EN": null, "Location": "P.O.Box 14414, 88850 Kota Kinabalu. Sabah", "Longitude": 116.108811, "Latitude": 5.999236, "Region": "Sabah", "Category": "地缘", "PageNumber": "389" }, "geometry": { "type": "Point", "coordinates": [ 116.1088, 5.9992, 116.1088 ] } },
{ "type": "Feature", "properties": { "Name_CH": "斗湖林西河堂", "Name_ML": null, "Name_EN": "Lim Se Ho Tong Society", "Location": "P.O.Box 60954, 91019 Tawau, Sabah. TE 3116, Batu 4 1\/2 Jalan Sin On Tawau, Sabah.", "Longitude": 116.293291, "Latitude": 6.214785, "Region": "Sabah", "Category": "血缘", "PageNumber": "389" }, "geometry": { "type": "Point", "coordinates": [ 116.2933, 6.2148, 116.2933 ] } },
{ "type": "Feature", "properties": { "Name_CH": "斗湖雅寄杨氏福利会", "Name_ML": null, "Name_EN": "The Yongs of Nga-Khi Welfare Association, Tawau", "Location": "P.O.Box 2063, 91045 Tawau, Sabah.", "Longitude": 116.293291, "Latitude": 6.214785, "Region": "Sabah", "Category": "血缘", "PageNumber": "389" }, "geometry": { "type": "Point", "coordinates": [ 116.2933, 6.2148, 116.2933 ] } },
{ "type": "Feature", "properties": { "Name_CH": "斗湖曾氏宗亲会", "Name_ML": null, "Name_EN": "Tawau Residency Tsen Clan Association", "Location": "P.O.Box 60506, 91015 Tawau, Sabah.", "Longitude": 116.293291, "Latitude": 6.214785, "Region": "Sabah", "Category": "血缘", "PageNumber": "389" }, "geometry": { "type": "Point", "coordinates": [ 116.2933, 6.2148, 116.2933 ] } },
{ "type": "Feature", "properties": { "Name_CH": "沙巴斗湖李氏宗亲会", "Name_ML": null, "Name_EN": "Lee Kinship Association Sabah (Tawau Branch)", "Location": "P.O.Box 60979, 91019 Tawau, Sabah.", "Longitude": 116.293291, "Latitude": 6.214785, "Region": "Sabah", "Category": "血缘", "PageNumber": "389" }, "geometry": { "type": "Point", "coordinates": [ 116.2933, 6.2148, 116.2933 ] } },
{ "type": "Feature", "properties": { "Name_CH": "沙巴罗氏（龙川公会）", "Name_ML": "Persatuan Klan Lodong Chuan) Sabah", "Name_EN": null, "Location": "No.8, 3Floor, Bevely, Kota Kinabalu, Sabah.", "Longitude": 102.234988, "Latitude": 2.241958, "Region": "Sabah", "Category": "血缘", "PageNumber": "390" }, "geometry": { "type": "Point", "coordinates": [ 102.235, 2.242, 102.235 ] } },
{ "type": "Feature", "properties": { "Name_CH": "沙巴州谭氏公会", "Name_ML": "Persatuan Klan Tham", "Name_EN": "Tham Clan Association Sabah", "Location": "P O.Box 157, 89007 Keningau, Sabah.", "Longitude": 116.156085, "Latitude": 5.336006, "Region": "Sabah", "Category": "血缘", "PageNumber": "390" }, "geometry": { "type": "Point", "coordinates": [ 116.1561, 5.336, 116.1561 ] } },
{ "type": "Feature", "properties": { "Name_CH": "沙巴亚庇六楼堂宗亲会", "Name_ML": "Persatuan Keturunan Liu Kwee Tang Kota Kinabalu Sabah", "Name_EN": null, "Location": "WDTO. 18, 88856 Likas, Sabah.", "Longitude": 116.817599, "Latitude": 5.364564, "Region": "Sabah", "Category": "血缘", "PageNumber": "390" }, "geometry": { "type": "Point", "coordinates": [ 116.8176, 5.3646, 116.8176 ] } },
{ "type": "Feature", "properties": { "Name_CH": "沙巴颍川陈氏宗亲会山打根分会", "Name_ML": "Persatuan Klan Chen (Ying Chuan) Sabah Cawangan Sandakan", "Name_EN": null, "Location": "P.O.Box No. 1603, 90717.Sandakan, Sabah.", "Longitude": 116.817599, "Latitude": 5.364564, "Region": "Sabah", "Category": "血缘", "PageNumber": "390" }, "geometry": { "type": "Point", "coordinates": [ 116.8176, 5.3646, 116.8176 ] } },
{ "type": "Feature", "properties": { "Name_CH": "亚庇吴氏公会", "Name_ML": "Persatuan Wu Kota Kinabalu", "Name_EN": "Wu Association Kota Kinabalu, Sabah", "Location": "Bevely Plaza Lot 19, 2 Floor, Jalan Bunduson, I Kota Kinabalu, Sabah.", "Longitude": 116.076991, "Latitude": 5.927837, "Region": "Sabah", "Category": "血缘", "PageNumber": "390" }, "geometry": { "type": "Point", "coordinates": [ 116.077, 5.9278, 116.077 ] } },
{ "type": "Feature", "properties": { "Name_CH": "沙巴州萧氏宗亲会", "Name_ML": "Persatuan Klan Siau Sabah", "Name_EN": "Siau Clan Association", "Location": "H. 140, Taman Fu Yen Lorong Untaz Jalan Luyang, 88300 Kota Kinabalu, Sabah.", "Longitude": 116.087553, "Latitude": 5.93558, "Region": "Sabah", "Category": "血缘", "PageNumber": "390" }, "geometry": { "type": "Point", "coordinates": [ 116.0876, 5.9356, 116.0876 ] } },
{ "type": "Feature", "properties": { "Name_CH": "沙巴州彭城刘氏宗亲会", "Name_ML": "Persatuan Klan Liu Peng-Cheng Sabah", "Name_EN": "Soboh Lius' Clan Peng-Cheng Association", "Location": "Wisma Ys Liewz, Mile 6, Jalan Penampang, P.O.Box 10483, 88300 Kota Kinabalu, Sabah", "Longitude": 116.078647, "Latitude": 5.952557, "Region": "Sabah", "Category": "血缘", "PageNumber": "390" }, "geometry": { "type": "Point", "coordinates": [ 116.0786, 5.9526, 116.0786 ] } },
{ "type": "Feature", "properties": { "Name_CH": "沙巴李氏宗亲会", "Name_ML": null, "Name_EN": "Lee Kinship Association Sabah", "Location": "P.O.Box 12, Taman Antrabonsa, 88300 Kota Kinabalu, Sabah.", "Longitude": 116.108811, "Latitude": 5.999236, "Region": "Sabah", "Category": "血缘", "PageNumber": "390" }, "geometry": { "type": "Point", "coordinates": [ 116.1088, 5.9992, 116.1088 ] } },
{ "type": "Feature", "properties": { "Name_CH": "沙巴雅寄杨氏福利会", "Name_ML": "Persatuan Kebajikan Yong Nga Khi Sabah", "Name_EN": null, "Location": "P.O.Box 10196, 38802 Kota Kinabalu, Sabah.", "Longitude": 116.108811, "Latitude": 5.999236, "Region": "Sabah", "Category": "血缘", "PageNumber": "390" }, "geometry": { "type": "Point", "coordinates": [ 116.1088, 5.9992, 116.1088 ] } },
{ "type": "Feature", "properties": { "Name_CH": "沙巴颍川堂陈氏宗亲会", "Name_ML": "Persatuan Klan Chen (Ying Chuan) Sabah", "Name_EN": null, "Location": "P.O.Box 12535,88773 Luyang, Kota Kinabalu, Sabah.", "Longitude": 116.108811, "Latitude": 5.999236, "Region": "Sabah", "Category": "血缘", "PageNumber": "390" }, "geometry": { "type": "Point", "coordinates": [ 116.1088, 5.9992, 116.1088 ] } },
{ "type": "Feature", "properties": { "Name_CH": "亚庇清河堂张氏公会", "Name_ML": "Persatuan Klan Zhang Kota Kinabalu", "Name_EN": "Kota Kinabalu Zhang Clan Association", "Location": "P.O.Box 11625, 88817, Kota Kinabalu, Sabah. ", "Longitude": 116.108811, "Latitude": 5.999236, "Region": "Sabah", "Category": "血缘", "PageNumber": "390" }, "geometry": { "type": "Point", "coordinates": [ 116.1088, 5.9992, 116.1088 ] } },
{ "type": "Feature", "properties": { "Name_CH": "斗湖建筑业同业公会", "Name_ML": null, "Name_EN": "Tawau Building Contractors & Afficiates Association", "Location": "P.O. Box 62497, 91034 Tawau, Sabah", "Longitude": null, "Latitude": null, "Region": "Sabah", "Category": "业缘", "PageNumber": "391" }, "geometry": { "type": "Point", "coordinates": [ 0.0, 0.0, 0.0 ] } },
{ "type": "Feature", "properties": { "Name_CH": "斗湖省娱乐商公会", "Name_ML": "Persatuan Pengusaha Pusat Rekreasi, Tawau", "Name_EN": null, "Location": "P.O.Box 826, 91008 Tawau, Sabah.", "Longitude": null, "Latitude": null, "Region": "Sabah", "Category": "业缘", "PageNumber": "391" }, "geometry": { "type": "Point", "coordinates": [ 0.0, 0.0, 0.0 ] } },
{ "type": "Feature", "properties": { "Name_CH": "斗湖学生车主司机公会", "Name_ML": "Persatuan Pengusaha\/Permandu Bas Sri Tanjung Tawau, Sabah", "Name_EN": null, "Location": "4 Batu, Jalan Kuhara Tawau, Sabah.", "Longitude": 118.078636, "Latitude": 5.858031, "Region": "Sabah", "Category": "业缘", "PageNumber": "391" }, "geometry": { "type": "Point", "coordinates": [ 118.0786, 5.858, 118.0786 ] } },
{ "type": "Feature", "properties": { "Name_CH": "兵南邦中华商会", "Name_ML": null, "Name_EN": "Penampang Chinese Chamber Of Commerce & Industry", "Location": "C\/O Locked Bag 95, 88999 Kota Kinabalu, Sabah.", "Longitude": 116.108811, "Latitude": 5.999236, "Region": "Sabah", "Category": "业缘", "PageNumber": "391" }, "geometry": { "type": "Point", "coordinates": [ 116.1088, 5.9992, 116.1088 ] } },
{ "type": "Feature", "properties": { "Name_CH": "吧巴中华商会", "Name_ML": null, "Name_EN": "Papar Chinese Chamber Of Commerce", "Location": "P.O.Box 209, 89608 Papar, Sabah.", "Longitude": 116.293291, "Latitude": 6.214785, "Region": "Sabah", "Category": "业缘", "PageNumber": "391" }, "geometry": { "type": "Point", "coordinates": [ 116.2933, 6.2148, 116.2933 ] } },
{ "type": "Feature", "properties": { "Name_CH": "保佛中华商会", "Name_ML": null, "Name_EN": "Beaufort Chinese Chamber Of Commerce", "Location": "P.O.Box 112, 89807 Beaufort, Sabah.", "Longitude": 116.293291, "Latitude": 6.214785, "Region": "Sabah", "Category": "业缘", "PageNumber": "391" }, "geometry": { "type": "Point", "coordinates": [ 116.2933, 6.2148, 116.2933 ] } },
{ "type": "Feature", "properties": { "Name_CH": "丹南中华商会", "Name_ML": null, "Name_EN": "Tenom Chinese Chamber Of Commerce", "Location": "P.O.Box 22, 89907 Tenom, Sabah.", "Longitude": 116.293291, "Latitude": 6.214785, "Region": "Sabah", "Category": "业缘", "PageNumber": "391" }, "geometry": { "type": "Point", "coordinates": [ 116.2933, 6.2148, 116.2933 ] } },
{ "type": "Feature", "properties": { "Name_CH": "斗湖教车同业公会", "Name_ML": null, "Name_EN": "Tawau Driving Tutors Association", "Location": "P.O.Box 62492, 91034 Tawau, Sabah.", "Longitude": 116.293291, "Latitude": 6.214785, "Region": "Sabah", "Category": "业缘", "PageNumber": "391" }, "geometry": { "type": "Point", "coordinates": [ 116.2933, 6.2148, 116.2933 ] } },
{ "type": "Feature", "properties": { "Name_CH": "斗湖罗厘同业公会", "Name_ML": "Persatuan Pemandu Dan Pemilik Lori Daerah Tawau", "Name_EN": null, "Location": "P.O.Box 2063, 91045 Tawau, Sabah.", "Longitude": 116.293291, "Latitude": 6.214785, "Region": "Sabah", "Category": "业缘", "PageNumber": "391" }, "geometry": { "type": "Point", "coordinates": [ 116.2933, 6.2148, 116.2933 ] } },
{ "type": "Feature", "properties": { "Name_CH": "斗湖摄影协会", "Name_ML": null, "Name_EN": "Tawua Photographic Society", "Location": "P.O.Box 62035, 91030 Tawau, Sabah.", "Longitude": 116.293291, "Latitude": 6.214785, "Region": "Sabah", "Category": "业缘", "PageNumber": "391" }, "geometry": { "type": "Point", "coordinates": [ 116.2933, 6.2148, 116.2933 ] } },
{ "type": "Feature", "properties": { "Name_CH": "斗湖饮食同业公会", "Name_ML": "Persatuan Peniaga-Peniaga Makanan Dan Minumam Tawau", "Name_EN": null, "Location": "P.O.Box 62070, 91034 Tawau, Sabah.", "Longitude": 116.293291, "Latitude": 6.214785, "Region": "Sabah", "Category": "业缘", "PageNumber": "391" }, "geometry": { "type": "Point", "coordinates": [ 116.2933, 6.2148, 116.2933 ] } },
{ "type": "Feature", "properties": { "Name_CH": "古打毛律中华工商会", "Name_ML": "Dewan Perniagaan Dan Perindustrian Tiong Hua Kota Belud Sabah", "Name_EN": "Kota Belud Chinese Chamber Of Commerce", "Location": "Lot 5 Blok A, Bangunan Seri Rangan, P.O.Box 74z 89157 Kota Belud, Sabah", "Longitude": null, "Latitude": null, "Region": "Sabah", "Category": "业缘", "PageNumber": "392" }, "geometry": { "type": "Point", "coordinates": [ 0.0, 0.0, 0.0 ] } },
{ "type": "Feature", "properties": { "Name_CH": "纳闽中华商会", "Name_ML": null, "Name_EN": "Lobuan Chinese Chamber Of Commerce", "Location": "1st Floor, U0091, Jalan O\/CK Awang Besac Labuan. P.O.Box 31, 87008 Labuan.", "Longitude": 101.697265, "Latitude": 3.142452, "Region": "Sabah", "Category": "业缘", "PageNumber": "392" }, "geometry": { "type": "Point", "coordinates": [ 101.6973, 3.1425, 101.6973 ] } },
{ "type": "Feature", "properties": { "Name_CH": "斗湖中华商会", "Name_ML": null, "Name_EN": "Chinese Chamber Of Commerce Tawau", "Location": "P.O.Box 164, 91007 Tawau, Sabah.", "Longitude": 117.914862, "Latitude": 4.282483, "Region": "Sabah", "Category": "业缘", "PageNumber": "392" }, "geometry": { "type": "Point", "coordinates": [ 117.9149, 4.2825, 117.9149 ] } },
{ "type": "Feature", "properties": { "Name_CH": "拿笃中华商会", "Name_ML": null, "Name_EN": "Lahad Datu Chinese Chamber Of Commerce", "Location": "P.O.Box 60170, 91111 Lahad Datu, Sabah.", "Longitude": 118.294759, "Latitude": 5.028548, "Region": "Sabah", "Category": "业缘", "PageNumber": "392" }, "geometry": { "type": "Point", "coordinates": [ 118.2948, 5.0285, 118.2948 ] } },
{ "type": "Feature", "properties": { "Name_CH": "默迪卡购物中心公会", "Name_ML": null, "Name_EN": "Merdeka Complex Traders Association", "Location": "Lot AG10, Wisma Merdeka, Phase 1, Jalan Tun Razak, 88000 Kota Kinabalu, Sabah.", "Longitude": 116.074096, "Latitude": 5.980915, "Region": "Sabah", "Category": "业缘", "PageNumber": "392" }, "geometry": { "type": "Point", "coordinates": [ 116.0741, 5.9809, 116.0741 ] } },
{ "type": "Feature", "properties": { "Name_CH": "沙巴建造行", "Name_ML": "Persaluan Kin Cho Negeri Sabah", "Name_EN": null, "Location": "P.O.Box 14719, 88854 Kota Kinabalu, Sabah.", "Longitude": 116.108811, "Latitude": 5.999236, "Region": "Sabah", "Category": "业缘", "PageNumber": "392" }, "geometry": { "type": "Point", "coordinates": [ 116.1088, 5.9992, 116.1088 ] } },
{ "type": "Feature", "properties": { "Name_CH": "斗湖杂货商公会", "Name_ML": null, "Name_EN": "Grocers Association Tawau", "Location": "P.O.Box 469, 91074 Tawau, Sabah.", "Longitude": 116.293291, "Latitude": 6.214785, "Region": "Sabah", "Category": "业缘", "PageNumber": "392" }, "geometry": { "type": "Point", "coordinates": [ 116.2933, 6.2148, 116.2933 ] } },
{ "type": "Feature", "properties": { "Name_CH": "斗亚兰中华商会", "Name_ML": null, "Name_EN": "Tuaran Chinese Chamber Of Commerce", "Location": "P.O.Box 37, 89207 Tuaran, Sabah.", "Longitude": 116.293291, "Latitude": 6.214785, "Region": "Sabah", "Category": "业缘", "PageNumber": "392" }, "geometry": { "type": "Point", "coordinates": [ 116.2933, 6.2148, 116.2933 ] } },
{ "type": "Feature", "properties": { "Name_CH": "哥打马鲁都中华商会", "Name_ML": "Dewan Perniagaan Tiong Hua Kota Marudu", "Name_EN": null, "Location": "P.O.Box 357, 89108 Kota Morudu, Sabah.", "Longitude": 116.293291, "Latitude": 6.214785, "Region": "Sabah", "Category": "业缘", "PageNumber": "392" }, "geometry": { "type": "Point", "coordinates": [ 116.2933, 6.2148, 116.2933 ] } },
{ "type": "Feature", "properties": { "Name_CH": "根地咬中华商会", "Name_ML": null, "Name_EN": "Keningau Chinese Chamber Of Commerce", "Location": "P.O.Box 14, 89007 Keningau, Sabah.", "Longitude": 116.293291, "Latitude": 6.214785, "Region": "Sabah", "Category": "业缘", "PageNumber": "392" }, "geometry": { "type": "Point", "coordinates": [ 116.2933, 6.2148, 116.2933 ] } },
{ "type": "Feature", "properties": { "Name_CH": "古达中华商会", "Name_ML": null, "Name_EN": "Kudat Chinese Chamber Of Commerce", "Location": "P.O.Box 39, 89057 Kudat Sabah.", "Longitude": 116.293291, "Latitude": 6.214785, "Region": "Sabah", "Category": "业缘", "PageNumber": "392" }, "geometry": { "type": "Point", "coordinates": [ 116.2933, 6.2148, 116.2933 ] } },
{ "type": "Feature", "properties": { "Name_CH": "古纳中华商会", "Name_ML": null, "Name_EN": "Kunok Chinese Chamber Of Commerce", "Location": "P.O.Box 63, 91207 Kunak, Sabah.", "Longitude": 116.293291, "Latitude": 6.214785, "Region": "Sabah", "Category": "业缘", "PageNumber": "392" }, "geometry": { "type": "Point", "coordinates": [ 116.2933, 6.2148, 116.2933 ] } },
{ "type": "Feature", "properties": { "Name_CH": "沙巴亚庇中药商公会", "Name_ML": null, "Name_EN": "Kota Kinabalu Chinese Druggists Association", "Location": null, "Longitude": null, "Latitude": null, "Region": "Sabah", "Category": "业缘", "PageNumber": "393" }, "geometry": { "type": "Point", "coordinates": [ 0.0, 0.0, 0.0 ] } },
{ "type": "Feature", "properties": { "Name_CH": "山打根厨业饮食公会", "Name_ML": "Persatuan Restoran & Tukang Masak(Sandakan) Sabah", "Name_EN": null, "Location": "P.O.Box 40, Jalan Utara, Sandakan, Sabah.", "Longitude": 118.114748, "Latitude": 5.847134, "Region": "Sabah", "Category": "业缘", "PageNumber": "393" }, "geometry": { "type": "Point", "coordinates": [ 118.1147, 5.8471, 118.1147 ] } },
{ "type": "Feature", "properties": { "Name_CH": "沙巴州广告同业公会", "Name_ML": "Persatuan Pengiklanan Negeri Sabah", "Name_EN": null, "Location": "Lot 43-3(F), 3rd Floor, Beverly Plaza , Jalan Bundusan, 88300 Kota Kinabalu, Sabah.", "Longitude": 116.091714, "Latitude": 5.926225, "Region": "Sabah", "Category": "业缘", "PageNumber": "393" }, "geometry": { "type": "Point", "coordinates": [ 116.0917, 5.9262, 116.0917 ] } },
{ "type": "Feature", "properties": { "Name_CH": "沙巴州兵南邦中华工商会", "Name_ML": "Dewan Perniagaan & Perindustrian Tionghua Penampang", "Name_EN": "Penampong Chinese Chamber Of Commerce & Industry", "Location": "Lot 15 & 16, 2nd Floor, New World Commercial Centre,  Donggongon, Penampang, Sabah.", "Longitude": 116.079832, "Latitude": 5.940064, "Region": "Sabah", "Category": "业缘", "PageNumber": "393" }, "geometry": { "type": "Point", "coordinates": [ 116.0798, 5.9401, 116.0798 ] } },
{ "type": "Feature", "properties": { "Name_CH": "沙巴州厨业好友会", "Name_ML": "Persatuan Restoran Persahabat Sabah", "Name_EN": "Sobah Retaurants Fellowship Association", "Location": "Lot 6, Shop No. 62, 2nd Floor, Lorong Medan Inanam, 88400 Kota Kinabalu, Sabah. P.O.Box 10668, 88807 Kota Kinabalu, Sabah", "Longitude": 116.079702, "Latitude": 5.940153, "Region": "Sabah", "Category": "业缘", "PageNumber": "393" }, "geometry": { "type": "Point", "coordinates": [ 116.0797, 5.9402, 116.0797 ] } },
{ "type": "Feature", "properties": { "Name_CH": "沙巴禽畜业公会", "Name_ML": "Persatuan Ternakan Sabah", "Name_EN": null, "Location": "Taman Bunga Raya, Kota Kinabalu, Sabah.", "Longitude": 116.073088, "Latitude": 5.945535, "Region": "Sabah", "Category": "业缘", "PageNumber": "393" }, "geometry": { "type": "Point", "coordinates": [ 116.0731, 5.9455, 116.0731 ] } },
{ "type": "Feature", "properties": { "Name_CH": "沙巴州中华商会联合会", "Name_ML": "Gabunagan Dewan Perniagaan Tiong Huat", "Name_EN": "The Sabah United Chinese Chamber Of Commerce", "Location": "N-5.1, Level 5, Kota Kinabalu, Chinese Chamber of Commerce & Industry Building, Jalan Laiman Diki Kg. Air, 88000 Kota Kinabalu, Sabah. P.O.Box 12176, 88824 Kota Kinabalu, Sabah.", "Longitude": 116.074393, "Latitude": 5.978136, "Region": "Sabah", "Category": "业缘", "PageNumber": "393" }, "geometry": { "type": "Point", "coordinates": [ 116.0744, 5.9781, 116.0744 ] } },
{ "type": "Feature", "properties": { "Name_CH": "沙巴建筑公会", "Name_ML": null, "Name_EN": "Sabah Builders Association", "Location": "P.O.Box 10582, 88806 Kota Kinabalu, Sabah.", "Longitude": 116.108811, "Latitude": 5.999236, "Region": "Sabah", "Category": "业缘", "PageNumber": "393" }, "geometry": { "type": "Point", "coordinates": [ 116.1088, 5.9992, 116.1088 ] } },
{ "type": "Feature", "properties": { "Name_CH": "沙巴书业文具公会", "Name_ML": "Persatuan Penjual Buku Dan Alatulis Sabah", "Name_EN": null, "Location": "P.O.Box 14587, 88852 Kota Kinabalu, Sabah.", "Longitude": 116.108811, "Latitude": 5.999236, "Region": "Sabah", "Category": "业缘", "PageNumber": "393" }, "geometry": { "type": "Point", "coordinates": [ 116.1088, 5.9992, 116.1088 ] } },
{ "type": "Feature", "properties": { "Name_CH": "沙巴州汽车维修同业公会", "Name_ML": null, "Name_EN": "Sabah Automobile Repairers Association", "Location": "P.O.Box 12694, 88830 Kota Kinabalu, Sabah.", "Longitude": 116.108811, "Latitude": 5.999236, "Region": "Sabah", "Category": "业缘", "PageNumber": "393" }, "geometry": { "type": "Point", "coordinates": [ 116.1088, 5.9992, 116.1088 ] } },
{ "type": "Feature", "properties": { "Name_CH": "沙巴建筑工友福利会", "Name_ML": null, "Name_EN": "The Sabah Building Labourers Welfare Society", "Location": "P.O.Box 11046, 88811 Kota Kinabalu. 9-1, Jalan Tun Fuad, Sinsuran Complex.", "Longitude": 116.293291, "Latitude": 6.214785, "Region": "Sabah", "Category": "业缘", "PageNumber": "393" }, "geometry": { "type": "Point", "coordinates": [ 116.2933, 6.2148, 116.2933 ] } },
{ "type": "Feature", "properties": { "Name_CH": "沙巴西海岸学生巴士司机同业公会", "Name_ML": null, "Name_EN": "Sabah West Coast School Bus Operators Association", "Location": "P.O.Box 550, 88856 Likas, Sabah.", "Longitude": 116.293291, "Latitude": 6.214785, "Region": "Sabah", "Category": "业缘", "PageNumber": "393" }, "geometry": { "type": "Point", "coordinates": [ 116.2933, 6.2148, 116.2933 ] } },
{ "type": "Feature", "properties": { "Name_CH": "山打根金饰商公会", "Name_ML": "Persatuan Perniagaan Emas Sandakan", "Name_EN": null, "Location": "P.O.Box 1683,90718 Sandakan, Sabah.", "Longitude": 118.068549, "Latitude": 5.865902, "Region": "Sabah", "Category": "业缘", "PageNumber": "394" }, "geometry": { "type": "Point", "coordinates": [ 118.0685, 5.8659, 118.0685 ] } },
{ "type": "Feature", "properties": { "Name_CH": "山打根小贩公会", "Name_ML": "Persatuan Penjaja Sandakan Sabah", "Name_EN": null, "Location": "1st Floor Lot No 8A, Block C Old Slipway, P.O.Box 193, 90007 Sandakan, Sabah.", "Longitude": 116.077277, "Latitude": 5.926191, "Region": "Sabah", "Category": "业缘", "PageNumber": "394" }, "geometry": { "type": "Point", "coordinates": [ 116.0773, 5.9262, 116.0773 ] } },
{ "type": "Feature", "properties": { "Name_CH": "亚庇新闻从业员协会", "Name_ML": "Persatuan Wartawan Kota Kinabalu Sabah", "Name_EN": null, "Location": "Lot 1-1-13, Api-Api Center, Lorong Api-Api 2, Jalan Center Point 88000 Kota Kinabalu, Sabah.", "Longitude": 116.06335, "Latitude": 5.965204, "Region": "Sabah", "Category": "业缘", "PageNumber": "394" }, "geometry": { "type": "Point", "coordinates": [ 116.0633, 5.9652, 116.0633 ] } },
{ "type": "Feature", "properties": { "Name_CH": "太平洋商业公会", "Name_ML": "Persatuan Masyarakat Peniaga Centre Point,KK", "Name_EN": "The Association of the Centre Point Business Community Kota Kinabalu, Sabah", "Location": "P.O.Box 14156, 88847 Kota Kinabalu, Sabah.", "Longitude": 116.108811, "Latitude": 5.999236, "Region": "Sabah", "Category": "业缘", "PageNumber": "394" }, "geometry": { "type": "Point", "coordinates": [ 116.1088, 5.9992, 116.1088 ] } },
{ "type": "Feature", "properties": { "Name_CH": "西海岸咖啡商公会", "Name_ML": null, "Name_EN": "The West Coast Coffee Shops Association", "Location": "P.O.Box 14841, 88855 Kota Kinabalu Sabah.", "Longitude": 116.108811, "Latitude": 5.999236, "Region": "Sabah", "Category": "业缘", "PageNumber": "394" }, "geometry": { "type": "Point", "coordinates": [ 116.1088, 5.9992, 116.1088 ] } },
{ "type": "Feature", "properties": { "Name_CH": "亚庇车辆零件商会公会", "Name_ML": null, "Name_EN": "Cycle & Motor Traders Association K.K.", "Location": "P.O.Box 12480, 88827 Kota Kinabalu, Sabah.", "Longitude": 116.108811, "Latitude": 5.999236, "Region": "Sabah", "Category": "业缘", "PageNumber": "394" }, "geometry": { "type": "Point", "coordinates": [ 116.1088, 5.9992, 116.1088 ] } },
{ "type": "Feature", "properties": { "Name_CH": "亚庇中华工商总会", "Name_ML": "Dewan Perniagaan dan Perindustrian Tionghua Kota Kinabalu", "Name_EN": "Kota Kinabalu Chinese Chamber of Commerce and industry", "Location": "P.O.Box 10063, 88801 Kota Kinabalu, Sabah.", "Longitude": 116.108811, "Latitude": 5.999236, "Region": "Sabah", "Category": "业缘", "PageNumber": "394" }, "geometry": { "type": "Point", "coordinates": [ 116.1088, 5.9992, 116.1088 ] } },
{ "type": "Feature", "properties": { "Name_CH": "山打根罗里营业运输公会", "Name_ML": null, "Name_EN": "Sandakan Hire Lorry Transport Association", "Location": "P.O.Box 127, 90701 Sandakan, Sabah.", "Longitude": 116.293291, "Latitude": 6.214785, "Region": "Sabah", "Category": "业缘", "PageNumber": "394" }, "geometry": { "type": "Point", "coordinates": [ 116.2933, 6.2148, 116.2933 ] } },
{ "type": "Feature", "properties": { "Name_CH": "山打根渔业（艟舡）公会", "Name_ML": null, "Name_EN": "Sandakan Fishing (Tong Kang) Association", "Location": "P.O.Box 486, 90705 Sandakan, Sabah.", "Longitude": 116.293291, "Latitude": 6.214785, "Region": "Sabah", "Category": "业缘", "PageNumber": "394" }, "geometry": { "type": "Point", "coordinates": [ 116.2933, 6.2148, 116.2933 ] } },
{ "type": "Feature", "properties": { "Name_CH": "山打根中华商会", "Name_ML": null, "Name_EN": "Sandakan Chinese Chamber Of Commerce", "Location": "P.O.Box 161, 90702 Sandakan, Sabah. Block 47, Chinese Chamber Of Commerce Building , Jalan Leila, Sandakan, Sabah.", "Longitude": 116.293291, "Latitude": 6.214785, "Region": "Sabah", "Category": "业缘", "PageNumber": "394" }, "geometry": { "type": "Point", "coordinates": [ 116.2933, 6.2148, 116.2933 ] } },
{ "type": "Feature", "properties": { "Name_CH": "实必丹中华商会", "Name_ML": null, "Name_EN": "Sipitang Chinese Chamber Of Commerce", "Location": "P.O.Box 4, 89857 Sipitang, Sabah.", "Longitude": 116.293291, "Latitude": 6.214785, "Region": "Sabah", "Category": "业缘", "PageNumber": "394" }, "geometry": { "type": "Point", "coordinates": [ 116.2933, 6.2148, 116.2933 ] } },
{ "type": "Feature", "properties": { "Name_CH": "仙本那中华商会", "Name_ML": null, "Name_EN": "Semporna Chinese Chamber Of Commerce", "Location": "P.O.Box 44, 91307 Semporna, Sabah.", "Longitude": 116.293291, "Latitude": 6.214785, "Region": "Sabah", "Category": "业缘", "PageNumber": "394" }, "geometry": { "type": "Point", "coordinates": [ 116.2933, 6.2148, 116.2933 ] } },
{ "type": "Feature", "properties": { "Name_CH": "拿笃育才校友会", "Name_ML": "Persatuan Bekas Murid S.R.J.K Yuk Choi Lahad Datu", "Name_EN": null, "Location": "P.O.Box 60331, 91112 Lahad Datu, Sabah.", "Longitude": 118.294759, "Latitude": 5.028548, "Region": "Sabah", "Category": "文教", "PageNumber": "395" }, "geometry": { "type": "Point", "coordinates": [ 118.2948, 5.0285, 118.2948 ] } },
{ "type": "Feature", "properties": { "Name_CH": "根地咬文华健言社", "Name_ML": "Kelab Taostmaster Mandaran Keningau Sabah", "Name_EN": "Keningau Mandarin Taostmaster Club", "Location": "P.O.Box 1248z 89008 Keningau, Sabah.", "Longitude": 116.159364, "Latitude": 5.362613, "Region": "Sabah", "Category": "文教", "PageNumber": "395" }, "geometry": { "type": "Point", "coordinates": [ 116.1594, 5.3626, 116.1594 ] } },
{ "type": "Feature", "properties": { "Name_CH": "古达市区乐育小学校友会", "Name_ML": "Persatuan Alumni Sek Rendah Lok Yuk Batui Sabah", "Name_EN": null, "Location": "SJK© Lok Yuk Batu 1, 67, Kudat 89057, Sabah.", "Longitude": 116.817599, "Latitude": 5.364564, "Region": "Sabah", "Category": "文教", "PageNumber": "395" }, "geometry": { "type": "Point", "coordinates": [ 116.8176, 5.3646, 116.8176 ] } },
{ "type": "Feature", "properties": { "Name_CH": "沙巴华人文化协会", "Name_ML": null, "Name_EN": "Sabah Chinese Cultural Association", "Location": "11th Floor, Wisma Pendidikan, Jalan Padang, 88000 Kota Kinabalu, Sabah.", "Longitude": 116.076115, "Latitude": 5.978375, "Region": "Sabah", "Category": "文教", "PageNumber": "395" }, "geometry": { "type": "Point", "coordinates": [ 116.0761, 5.9784, 116.0761 ] } },
{ "type": "Feature", "properties": { "Name_CH": "京那峇鲁艺术协会", "Name_ML": null, "Name_EN": "Kinabalu Art Society Kota Kinabalu", "Location": "P.O.Box 12370, 88826 Kota Kinabalu, Sabah.", "Longitude": 116.108811, "Latitude": 5.999236, "Region": "Sabah", "Category": "文教", "PageNumber": "395" }, "geometry": { "type": "Point", "coordinates": [ 116.1088, 5.9992, 116.1088 ] } },
{ "type": "Feature", "properties": { "Name_CH": "沙巴国民型华校董事联合总会", "Name_ML": null, "Name_EN": "The Association Of Sabah National Type Chinese School Management Committee", "Location": "P.O.Box 14024, 88846 Kota Kinabalu, Sabah.", "Longitude": 116.108811, "Latitude": 5.999236, "Region": "Sabah", "Category": "文教", "PageNumber": "395" }, "geometry": { "type": "Point", "coordinates": [ 116.1088, 5.9992, 116.1088 ] } },
{ "type": "Feature", "properties": { "Name_CH": "担波罗里中华小学校友会", "Name_ML": "Persatuan Bekas Penuntut SRJK Chung Hwa Tamparuli Sabah", "Name_EN": null, "Location": "Tamparuli Chung Hwa Primary School, jalan Padang, PS 77, 89257 Tamparuli, Sabah.", "Longitude": 116.296218, "Latitude": 6.139336, "Region": "Sabah", "Category": "文教", "PageNumber": "395" }, "geometry": { "type": "Point", "coordinates": [ 116.2962, 6.1393, 116.2962 ] } },
{ "type": "Feature", "properties": { "Name_CH": "斗湖巴华中学校友会", "Name_ML": "Persatuan Alumni Sekolah Tinggi Cina Twu", "Name_EN": null, "Location": "P.O.Box 61487, 91024 Tawau, Sabah.", "Longitude": 116.293291, "Latitude": 6.214785, "Region": "Sabah", "Category": "文教", "PageNumber": "395" }, "geometry": { "type": "Point", "coordinates": [ 116.2933, 6.2148, 116.2933 ] } },
{ "type": "Feature", "properties": { "Name_CH": "根华中学校友会", "Name_ML": "Persatuan Alumni SM Ken Hwa Keningau", "Name_EN": null, "Location": "P.O.Box 55, 89007 Keningau, Sabah.", "Longitude": 116.293291, "Latitude": 6.214785, "Region": "Sabah", "Category": "文教", "PageNumber": "395" }, "geometry": { "type": "Point", "coordinates": [ 116.2933, 6.2148, 116.2933 ] } },
{ "type": "Feature", "properties": { "Name_CH": "沙巴崇正校友会", "Name_ML": null, "Name_EN": "Sabah Tshung Tsin Alumni Association", "Location": "P.O.Box 22554, 88785 Luyang, Kota Kinabalu, Sabah", "Longitude": 116.293291, "Latitude": 6.214785, "Region": "Sabah", "Category": "文教", "PageNumber": "395" }, "geometry": { "type": "Point", "coordinates": [ 116.2933, 6.2148, 116.2933 ] } },
{ "type": "Feature", "properties": { "Name_CH": "沙巴独中校友会联合会", "Name_ML": "Gabungan Persatuan-Persatuan Alumni Sekolah Persendirian Sabah", "Name_EN": null, "Location": "P.O.Box 268, 89908 Tenom, Sabah.", "Longitude": 116.293291, "Latitude": 6.214785, "Region": "Sabah", "Category": "文教", "PageNumber": "395" }, "geometry": { "type": "Point", "coordinates": [ 116.2933, 6.2148, 116.2933 ] } },
{ "type": "Feature", "properties": { "Name_CH": "山打根政民学校校友会", "Name_ML": "Persatuan Alumni Sek Cheng Min Sandakan Sabah Sabah", "Name_EN": "Sekolah Rendah Kebangsaan Cheng Min Sandakn", "Location": null, "Longitude": 118.111365, "Latitude": 5.839364, "Region": "Sabah", "Category": "文教", "PageNumber": "396" }, "geometry": { "type": "Point", "coordinates": [ 118.1114, 5.8394, 118.1114 ] } },
{ "type": "Feature", "properties": { "Name_CH": "沙巴山打根培英小学校友会", "Name_ML": "Pertubuhan Alumni Pei Ying Sandakan", "Name_EN": null, "Location": "P.O.Box 1326, 90714, Sandakan, Sabah.", "Longitude": 118.068549, "Latitude": 5.865902, "Region": "Sabah", "Category": "文教", "PageNumber": "396" }, "geometry": { "type": "Point", "coordinates": [ 118.0685, 5.8659, 118.0685 ] } },
{ "type": "Feature", "properties": { "Name_CH": "沙巴华文作家协会", "Name_ML": "Persatuan Penulis Cina Sabah", "Name_EN": null, "Location": "57, Jalan Zirafah , Taman Luyang (Phase II) 88300, Kota Kinabalu, Sabah.", "Longitude": 116.108811, "Latitude": 5.999236, "Region": "Sabah", "Category": "文教", "PageNumber": "396" }, "geometry": { "type": "Point", "coordinates": [ 116.1088, 5.9992, 116.1088 ] } },
{ "type": "Feature", "properties": { "Name_CH": "沙巴留台同乡会", "Name_ML": "Persatuan Alumni Taiwan Sabah", "Name_EN": "Alumni Association Of Taiwan Universities, Sabah", "Location": "P.O.Box 11761, 88819 Kota Kinabalu, Sabah.", "Longitude": 116.108811, "Latitude": 5.999236, "Region": "Sabah", "Category": "文教", "PageNumber": "396" }, "geometry": { "type": "Point", "coordinates": [ 116.1088, 5.9992, 116.1088 ] } },
{ "type": "Feature", "properties": { "Name_CH": "沙巴神山诗词学会", "Name_ML": "Persatuan Puisi Kinabalu Sabah", "Name_EN": null, "Location": "P.O.Box 12933, 88832 Kota Kinabalu, Sabah.", "Longitude": 116.108811, "Latitude": 5.999236, "Region": "Sabah", "Category": "文教", "PageNumber": "396" }, "geometry": { "type": "Point", "coordinates": [ 116.1088, 5.9992, 116.1088 ] } },
{ "type": "Feature", "properties": { "Name_CH": "亚庇长粤乐社", "Name_ML": null, "Name_EN": "Cheong Hung Cantonese Music Society", "Location": "Lot 20,1st Floor, Light Industrial Shoplot, 88300 Kota Kinabalu,Sabah.", "Longitude": 116.108811, "Latitude": 5.999236, "Region": "Sabah", "Category": "文教", "PageNumber": "396" }, "geometry": { "type": "Point", "coordinates": [ 116.1088, 5.9992, 116.1088 ] } },
{ "type": "Feature", "properties": { "Name_CH": "亚庇建国中学校友会", "Name_ML": "Persatuan Alumni S.M. Kian Kok", "Name_EN": null, "Location": "P.O.Box 10965, Kota Kinabalu, Sabah.", "Longitude": 116.108811, "Latitude": 5.999236, "Region": "Sabah", "Category": "文教", "PageNumber": "396" }, "geometry": { "type": "Point", "coordinates": [ 116.1088, 5.9992, 116.1088 ] } },
{ "type": "Feature", "properties": { "Name_CH": "亚庇文华健言社", "Name_ML": null, "Name_EN": "Kota Kinabalu Mandarin Toastmasters Club", "Location": "P.O.Box 22379, 88782 Kota Kinabalu, Sabah.", "Longitude": 116.108811, "Latitude": 5.999236, "Region": "Sabah", "Category": "文教", "PageNumber": "396" }, "geometry": { "type": "Point", "coordinates": [ 116.1088, 5.9992, 116.1088 ] } },
{ "type": "Feature", "properties": { "Name_CH": "亚庇友谊花开校友会", "Name_ML": "Persatuan Semarak Persahabatan Belia Kota Kinabalu", "Name_EN": null, "Location": "P.O.Box 15607,88864, Kota Kinabalu, Sabah.", "Longitude": 116.108811, "Latitude": 5.999236, "Region": "Sabah", "Category": "文教", "PageNumber": "396" }, "geometry": { "type": "Point", "coordinates": [ 116.1088, 5.9992, 116.1088 ] } },
{ "type": "Feature", "properties": { "Name_CH": "沙巴华文独立中学董事会联合会", "Name_ML": "Kumpulan Persatuan Jawatankuasa S.M.(C)Persendirian Sabah", "Name_EN": "The United Association Of Private Chinese School Committees Sabah", "Location": "P.O.Box 21190, 88769 Luyang Kota Kinabalu, Sabah. Lot 26 & 27, 3 Floor, BLKE Damai Plaza Phaza 3, Luyang 88300 Kota Kinabalu, Sabah.", "Longitude": 116.293291, "Latitude": 6.214785, "Region": "Sabah", "Category": "文教", "PageNumber": "396" }, "geometry": { "type": "Point", "coordinates": [ 116.2933, 6.2148, 116.2933 ] } },
{ "type": "Feature", "properties": { "Name_CH": "山打根华小华幼董事联合会", "Name_ML": "Persatuan Jawatankuasa Pengurusan SRJK Cina Dan Tapik Cina Sandakan", "Name_EN": "The Association Of Sandakan United Management Committee Of Chinese National Type Primary School And Chinese Kindergartens", "Location": "P.O.Box 114, 96701, Sandakan, Sabah.", "Longitude": 116.293291, "Latitude": 6.214785, "Region": "Sabah", "Category": "文教", "PageNumber": "396" }, "geometry": { "type": "Point", "coordinates": [ 116.2933, 6.2148, 116.2933 ] } },
{ "type": "Feature", "properties": { "Name_CH": "新华学校校友会", "Name_ML": "Persatuan Bekas Pelajar Sekolah Syn Hua Sandakan", "Name_EN": null, "Location": "P.O.Box 368, 90704 Sandakan, Sabah.", "Longitude": 116.293291, "Latitude": 6.214785, "Region": "Sabah", "Category": "文教", "PageNumber": "396" }, "geometry": { "type": "Point", "coordinates": [ 116.2933, 6.2148, 116.2933 ] } },
{ "type": "Feature", "properties": { "Name_CH": "丹南雷藏寺同修会", "Name_ML": "Persatuan Penganut Buddha Rey Tsang Shih Tenom, Sabah", "Name_EN": null, "Location": "P.O.Box 291, Tenom, Sabah.", "Longitude": 116.004976, "Latitude": 4.743266, "Region": "Sabah", "Category": "宗教", "PageNumber": "397" }, "geometry": { "type": "Point", "coordinates": [ 116.005, 4.7433, 116.005 ] } },
{ "type": "Feature", "properties": { "Name_CH": "兵南邦福德宫", "Name_ML": "Fook Tet Kung Temple Penampang", "Name_EN": null, "Location": "P.O.Box lz 89507 Penampang, Sabah.", "Longitude": 116.133752, "Latitude": 5.915697, "Region": "Sabah", "Category": "宗教", "PageNumber": "397" }, "geometry": { "type": "Point", "coordinates": [ 116.1338, 5.9157, 116.1338 ] } },
{ "type": "Feature", "properties": { "Name_CH": "保佛庆藏中元会", "Name_ML": "Persatuan Agama Buddha Chong Yen Beaufort Sabah", "Name_EN": null, "Location": "Batu 43, Jalan Papar Beaufort Highway, Beaufort, Sabah.", "Longitude": 116.071724, "Latitude": 5.965813, "Region": "Sabah", "Category": "宗教", "PageNumber": "397" }, "geometry": { "type": "Point", "coordinates": [ 116.0717, 5.9658, 116.0717 ] } },
{ "type": "Feature", "properties": { "Name_CH": "必打丹福德宫", "Name_ML": "Persatuan Penganut Agama Buddha Fook Tet Putatan Sabah", "Name_EN": null, "Location": "d\/a Venny Wong @ Maria Winnie Wong, 5, Kg Baru, Jalan Buit Hill Putatan, 88100 Kota Kinabalu, Sabah", "Longitude": 116.064806, "Latitude": 5.969075, "Region": "Sabah", "Category": "宗教", "PageNumber": "397" }, "geometry": { "type": "Point", "coordinates": [ 116.0648, 5.9691, 116.0648 ] } },
{ "type": "Feature", "properties": { "Name_CH": "亚庇中学校友会", "Name_ML": "The K.K. High School Ex-Student's Association", "Name_EN": null, "Location": "P.O.Box 20766, 88764 Kota Kinabalu, Sabah.", "Longitude": 116.108811, "Latitude": 5.999236, "Region": "Sabah", "Category": "文教", "PageNumber": "397" }, "geometry": { "type": "Point", "coordinates": [ 116.1088, 5.9992, 116.1088 ] } },
{ "type": "Feature", "properties": { "Name_CH": "兵南那协天宫", "Name_ML": "Persatuan Penganut Agama Buddha Hiap Tian Kung Kota Kinabalu Sabah", "Name_EN": null, "Location": "Batu 4, Jalan Penampang Lama, CL 215301116, Kota Kinabalu, Sabah.", "Longitude": 116.108811, "Latitude": 5.999236, "Region": "Sabah", "Category": "宗教", "PageNumber": "397" }, "geometry": { "type": "Point", "coordinates": [ 116.1088, 5.9992, 116.1088 ] } },
{ "type": "Feature", "properties": { "Name_CH": "吧巴广福宫（天后宫）", "Name_ML": "Pertubuhan Buddha Kong Hock Papar", "Name_EN": null, "Location": "P.O.Box 16, 89607 Papar, Sabah.", "Longitude": 116.293291, "Latitude": 6.214785, "Region": "Sabah", "Category": "宗教", "PageNumber": "397" }, "geometry": { "type": "Point", "coordinates": [ 116.2933, 6.2148, 116.2933 ] } },
{ "type": "Feature", "properties": { "Name_CH": "吧巴腾南堂", "Name_ML": "Thin Nam Tong Papar", "Name_EN": null, "Location": "P.O.Box 188, 89608 Paper, Sabah.", "Longitude": 116.293291, "Latitude": 6.214785, "Region": "Sabah", "Category": "宗教", "PageNumber": "397" }, "geometry": { "type": "Point", "coordinates": [ 116.2933, 6.2148, 116.2933 ] } },
{ "type": "Feature", "properties": { "Name_CH": "保佛龙末龙华庙", "Name_ML": "Persatuan Penganut Agama Buddha Lung Hwa Beaufort", "Name_EN": null, "Location": "P.O.Box 833, 89807 Beaufort, Sabah.", "Longitude": 116.293291, "Latitude": 6.214785, "Region": "Sabah", "Category": "宗教", "PageNumber": "397" }, "geometry": { "type": "Point", "coordinates": [ 116.2933, 6.2148, 116.2933 ] } },
{ "type": "Feature", "properties": { "Name_CH": "丹南大伯公庙", "Name_ML": "Persatuan Dewan Tai Pak Kung Tenom", "Name_EN": null, "Location": "P.O.Box 22, 89907 Tenom, Sabah.", "Longitude": 116.293291, "Latitude": 6.214785, "Region": "Sabah", "Category": "宗教", "PageNumber": "397" }, "geometry": { "type": "Point", "coordinates": [ 116.2933, 6.2148, 116.2933 ] } },
{ "type": "Feature", "properties": { "Name_CH": "丹南佛教会", "Name_ML": "Persatua Buddhist Tenom", "Name_EN": null, "Location": "P.O.Box 170, 89908 Tenom, Sabah.", "Longitude": 116.293291, "Latitude": 6.214785, "Region": "Sabah", "Category": "宗教", "PageNumber": "397" }, "geometry": { "type": "Point", "coordinates": [ 116.2933, 6.2148, 116.2933 ] } },
{ "type": "Feature", "properties": { "Name_CH": "根地咬济公寺", "Name_ML": "Persatuan Penganut Dewa Chi Kung Keningau Sabah", "Name_EN": "Conference Room Of Chi Kung Temple", "Location": "Batu 1, Jalan Nabawan, Keningau, Sabah.", "Longitude": 115.549645, "Latitude": 5.06391, "Region": "Sabah", "Category": "宗教", "PageNumber": "398" }, "geometry": { "type": "Point", "coordinates": [ 115.5496, 5.0639, 115.5496 ] } },
{ "type": "Feature", "properties": { "Name_CH": "根地咬大伯公庙（顺天宫）", "Name_ML": "Pertubuhan Ugama Buddha Tai Pak Kung Keningau", "Name_EN": "The Buddhist Tai Pak Kung Mision Keningau", "Location": "P.O.Box 1304, 89008 Keningau , Sabah.", "Longitude": 116.159364, "Latitude": 5.362613, "Region": "Sabah", "Category": "宗教", "PageNumber": "398" }, "geometry": { "type": "Point", "coordinates": [ 116.1594, 5.3626, 116.1594 ] } },
{ "type": "Feature", "properties": { "Name_CH": "根地咬佛教会（广济寺委员会）", "Name_ML": null, "Name_EN": "The Keningau Guang Ji Si Temple Building Committee", "Location": "P.O.Box 2112, 89008 Keningau, Sabah.", "Longitude": 116.159364, "Latitude": 5.362613, "Region": "Sabah", "Category": "宗教", "PageNumber": "398" }, "geometry": { "type": "Point", "coordinates": [ 116.1594, 5.3626, 116.1594 ] } },
{ "type": "Feature", "properties": { "Name_CH": "斗湖德教会紫辰阁", "Name_ML": "Pertubuhan Pendidikan Akhlak Che Hsing Khor Tawau", "Name_EN": "Che Hsing Khor Noral Uplifting Society, Tawau", "Location": "No. 3412, Jalan Salleh, P.O.Box No.914, 91008 Tawau, Sabah.", "Longitude": 118.386912, "Latitude": 5.685366, "Region": "Sabah", "Category": "宗教", "PageNumber": "398" }, "geometry": { "type": "Point", "coordinates": [ 118.3869, 5.6854, 118.3869 ] } },
{ "type": "Feature", "properties": { "Name_CH": "古达德教会紫章阁", "Name_ML": "Pertubuhan Pendidikan Akha Che Jang Khor Kudat Sabah", "Name_EN": null, "Location": "Lot No.39, Shophouse Taman Ehsan, PS94, 89057, Kudat, Sabah.", "Longitude": 116.089141, "Latitude": 5.947041, "Region": "Sabah", "Category": "宗教", "PageNumber": "398" }, "geometry": { "type": "Point", "coordinates": [ 116.0891, 5.947, 116.0891 ] } },
{ "type": "Feature", "properties": { "Name_CH": "斗湖西里丹绒浸信教会", "Name_ML": "Persatuan Penganut Gereja Baptist Sri Tanjung Tawau Sabah", "Name_EN": null, "Location": "Tawau Baptist Church, Mile 2 3\/4, Kuhara Road, 91037 Tawau, Sabah.", "Longitude": 116.067971, "Latitude": 5.947736, "Region": "Sabah", "Category": "宗教", "PageNumber": "398" }, "geometry": { "type": "Point", "coordinates": [ 116.068, 5.9477, 116.068 ] } },
{ "type": "Feature", "properties": { "Name_CH": "京那律镇南寺", "Name_ML": null, "Name_EN": "Tien Nam Shi Temple, Kinarut", "Location": "P.O.Box 14246, 88848 Kota Kinabalu, Sabah.", "Longitude": 116.108811, "Latitude": 5.999236, "Region": "Sabah", "Category": "宗教", "PageNumber": "398" }, "geometry": { "type": "Point", "coordinates": [ 116.1088, 5.9992, 116.1088 ] } },
{ "type": "Feature", "properties": { "Name_CH": "斗湖佛教居士林（普照寺）", "Name_ML": null, "Name_EN": "The Tawau Buddhist Lodge", "Location": "P.O.Box 356, 91007 Tawauz Sabah.", "Longitude": 116.293291, "Latitude": 6.214785, "Region": "Sabah", "Category": "宗教", "PageNumber": "398" }, "geometry": { "type": "Point", "coordinates": [ 116.2933, 6.2148, 116.2933 ] } },
{ "type": "Feature", "properties": { "Name_CH": "斗亚兰龙山庙", "Name_ML": "Tuaran Buddhist Ling San Mission", "Name_EN": null, "Location": "P.O.Box 94, 89208 Tuaran, Sabah.", "Longitude": 116.293291, "Latitude": 6.214785, "Region": "Sabah", "Category": "宗教", "PageNumber": "398" }, "geometry": { "type": "Point", "coordinates": [ 116.2933, 6.2148, 116.2933 ] } },
{ "type": "Feature", "properties": { "Name_CH": "斗亚兰玉皇庙", "Name_ML": "Tuaran Buddhist Yu Huan Biao AAission", "Name_EN": null, "Location": "P.O.Box 115, 89208 Tuaran, Sabah.", "Longitude": 116.293291, "Latitude": 6.214785, "Region": "Sabah", "Category": "宗教", "PageNumber": "398" }, "geometry": { "type": "Point", "coordinates": [ 116.2933, 6.2148, 116.2933 ] } },
{ "type": "Feature", "properties": { "Name_CH": "哥打马鲁都福德祠理事会", "Name_ML": "Pertubuhan Pengurusan Tokong Fok Tak Chu Kota Marudu", "Name_EN": null, "Location": "P.O.Box 259, 89108 Kota Marudu, Sabah.", "Longitude": 116.293291, "Latitude": 6.214785, "Region": "Sabah", "Category": "宗教", "PageNumber": "398" }, "geometry": { "type": "Point", "coordinates": [ 116.2933, 6.2148, 116.2933 ] } },
{ "type": "Feature", "properties": { "Name_CH": "纳闽凤凰山八仙庙九皇大帝", "Name_ML": "Persatuan Penganut Hong Fong Sang Ba Sian Miao W.P. Labuan", "Name_EN": null, "Location": "1st Floor, Lot 107, Jalan Okk Awang Besar, P.O.Box 31, 87008 W.P.Labuan", "Longitude": 101.697265, "Latitude": 3.142452, "Region": "Sabah", "Category": "宗教", "PageNumber": "399" }, "geometry": { "type": "Point", "coordinates": [ 101.6973, 3.1425, 101.6973 ] } },
{ "type": "Feature", "properties": { "Name_CH": "沙巴斗湖真佛宗建莲宾同修会", "Name_ML": "Persatuan Penganut Buddha Lean Pang Tawau Sabah", "Name_EN": null, "Location": "TB 1694, Jalan Sin On, Taman Eastern, 91000 Tawau, Sabah.", "Longitude": 117.890567, "Latitude": 4.246919, "Region": "Sabah", "Category": "宗教", "PageNumber": "399" }, "geometry": { "type": "Point", "coordinates": [ 117.8906, 4.2469, 117.8906 ] } },
{ "type": "Feature", "properties": { "Name_CH": "沙巴天道院", "Name_ML": "Persatuan Tein Tau Yen Sabah", "Name_EN": null, "Location": "TB 3197,1 Floor Elnysa Industrial Centre, Jalan Kubota, Tawau, Sabah.", "Longitude": 117.890567, "Latitude": 4.246919, "Region": "Sabah", "Category": "宗教", "PageNumber": "399" }, "geometry": { "type": "Point", "coordinates": [ 117.8906, 4.2469, 117.8906 ] } },
{ "type": "Feature", "properties": { "Name_CH": "沙巴华人回教理事会", "Name_ML": "Pertubuhan Cina Islam Sabah", "Name_EN": "Sabah Chinese Muslim Associaion", "Location": "MDLB 4109, Taman Tabang Jalan Semanga, Sabah.", "Longitude": 116.817599, "Latitude": 5.364564, "Region": "Sabah", "Category": "宗教", "PageNumber": "399" }, "geometry": { "type": "Point", "coordinates": [ 116.8176, 5.3646, 116.8176 ] } },
{ "type": "Feature", "properties": { "Name_CH": "沙巴吧巴佛教会", "Name_ML": "Persatuan Penganut Buddha Papar Sabah", "Name_EN": null, "Location": "P.O.Box 347,89608 Papar, Sabah.", "Longitude": 115.935618, "Latitude": 5.720643, "Region": "Sabah", "Category": "宗教", "PageNumber": "399" }, "geometry": { "type": "Point", "coordinates": [ 115.9356, 5.7206, 115.9356 ] } },
{ "type": "Feature", "properties": { "Name_CH": "沙巴州山打根佛教会", "Name_ML": null, "Name_EN": "The Sandakan (Sabah) Buddhist Mission", "Location": "W.D.T 427, 90009 Sandakan, Sabah.", "Longitude": 118.068549, "Latitude": 5.865902, "Region": "Sabah", "Category": "宗教", "PageNumber": "399" }, "geometry": { "type": "Point", "coordinates": [ 118.0685, 5.8659, 118.0685 ] } },
{ "type": "Feature", "properties": { "Name_CH": "庆赞中元", "Name_ML": "Persatuan Penggaut Agama Buddha Chong Yen Beaufort, Sabah", "Name_EN": null, "Location": "Batu 43, Jalan Papar Beaufort Highway, Beaufort, Sabah,Peti Surat 833, Beaufort, Sabah.", "Longitude": 116.071724, "Latitude": 5.965813, "Region": "Sabah", "Category": "宗教", "PageNumber": "399" }, "geometry": { "type": "Point", "coordinates": [ 116.0717, 5.9658, 116.0717 ] } },
{ "type": "Feature", "properties": { "Name_CH": "沙巴南丹杨大伯公庙", "Name_ML": "Persatuan Agama Buddha Yong Tai Pak Kung Tenom Sabah", "Name_EN": null, "Location": "Conference Room, Yong Tai Pak Kung Temple, Tenom, Sabah.", "Longitude": 116.107555, "Latitude": 5.991003, "Region": "Sabah", "Category": "宗教", "PageNumber": "399" }, "geometry": { "type": "Point", "coordinates": [ 116.1076, 5.991, 116.1076 ] } },
{ "type": "Feature", "properties": { "Name_CH": "沙巴佛教会", "Name_ML": "Sabah Buddhist Association", "Name_EN": null, "Location": "P.O.Box 11340, 88815 Kota Kinabalu, Sabah.", "Longitude": 116.108811, "Latitude": 5.999236, "Region": "Sabah", "Category": "宗教", "PageNumber": "399" }, "geometry": { "type": "Point", "coordinates": [ 116.1088, 5.9992, 116.1088 ] } },
{ "type": "Feature", "properties": { "Name_CH": "沙巴亚庇茅山道教会", "Name_ML": "Persatuan Mau San Thong Kota Kinabalu, Sabah", "Name_EN": null, "Location": "Lot 55, Taman Southern, Lorong Unta II, Kota Kinabalu, Sabah.", "Longitude": 116.108811, "Latitude": 5.999236, "Region": "Sabah", "Category": "宗教", "PageNumber": "399" }, "geometry": { "type": "Point", "coordinates": [ 116.1088, 5.9992, 116.1088 ] } },
{ "type": "Feature", "properties": { "Name_CH": "沙巴州正义天道院", "Name_ML": "Persatuan Jeng Yih Tian Daw Sabah", "Name_EN": "Jeng Yih Tian Daw Association , Sabah", "Location": "Jalan Kepayan Kobusak Penampang, Kota Kinabalu, Sabah.", "Longitude": 116.108811, "Latitude": 5.999236, "Region": "Sabah", "Category": "宗教", "PageNumber": "399" }, "geometry": { "type": "Point", "coordinates": [ 116.1088, 5.9992, 116.1088 ] } },
{ "type": "Feature", "properties": { "Name_CH": "沙巴南天宫九皇大帝", "Name_ML": "Nam Tien Kong (Jiu Wang Da Di) KK", "Name_EN": null, "Location": "P.O. Box 16275, 88869 Kota Kinabalu, Sabah.", "Longitude": 116.111396, "Latitude": 6.025372, "Region": "Sabah", "Category": "宗教", "PageNumber": "399" }, "geometry": { "type": "Point", "coordinates": [ 116.1114, 6.0254, 116.1114 ] } },
{ "type": "Feature", "properties": { "Name_CH": "真佛宗古达同修会", "Name_ML": "Persatuan Penganut Buddha Rey Shih Kudat Sabah", "Name_EN": null, "Location": "No.8, Bk B 2 Floor, Sedco Building Kudat, Sabah.", "Longitude": 102.234988, "Latitude": 2.241958, "Region": "Sabah", "Category": "宗教", "PageNumber": "400" }, "geometry": { "type": "Point", "coordinates": [ 102.235, 2.242, 102.235 ] } },
{ "type": "Feature", "properties": { "Name_CH": "真佛宗秉公堂", "Name_ML": "Persatuan Penganut Buddha Rey Tsang Shih Tenom, Sabah", "Name_EN": null, "Location": "P.O.Box 2238, 89008 Keningau, Sabah.", "Longitude": 116.159364, "Latitude": 5.362613, "Region": "Sabah", "Category": "宗教", "PageNumber": "400" }, "geometry": { "type": "Point", "coordinates": [ 116.1594, 5.3626, 116.1594 ] } },
{ "type": "Feature", "properties": { "Name_CH": "山打根包公庙", "Name_ML": "Persatuan Pau Kung Temple", "Name_EN": null, "Location": "P.O.Box 2265 90725 Sandakan, Sabah.", "Longitude": 118.068549, "Latitude": 5.865902, "Region": "Sabah", "Category": "宗教", "PageNumber": "400" }, "geometry": { "type": "Point", "coordinates": [ 118.0685, 5.8659, 118.0685 ] } },
{ "type": "Feature", "properties": { "Name_CH": "亚庇佛教居士林", "Name_ML": "Pertubuhan Ugama Buddha Che Sze Lim Kota Kinabalu", "Name_EN": null, "Location": "Lorong Quia , Miles 5 1\/2，Jalan Tuaran, Kota Kinabalu, Sabah.", "Longitude": 116.090859, "Latitude": 5.965159, "Region": "Sabah", "Category": "宗教", "PageNumber": "400" }, "geometry": { "type": "Point", "coordinates": [ 116.0909, 5.9652, 116.0909 ] } },
{ "type": "Feature", "properties": { "Name_CH": "下南南佛道灵仙圣庙", "Name_ML": "Tokong Fuk Tau Lin Sian Inanam", "Name_EN": null, "Location": "P.O.Box 269z 89357 Inanam, Sabah.", "Longitude": 116.1321, "Latitude": 5.9922, "Region": "Sabah", "Category": "宗教", "PageNumber": "400" }, "geometry": { "type": "Point", "coordinates": [ 116.1321, 5.9922, 116.1321 ] } },
{ "type": "Feature", "properties": { "Name_CH": "世界佛圆觉宗沙巴学会诺那华藏精舍", "Name_ML": "Persatuan Penganut Agama Buddha", "Name_EN": "Kesedaran Sempuma Sabah", "Location": "Lot 19-20, Grand Industrial Centre II, jalan Bundusan, Penampan, Kota Kinabalu, Sabah.", "Longitude": 116.108811, "Latitude": 5.999236, "Region": "Sabah", "Category": "宗教", "PageNumber": "400" }, "geometry": { "type": "Point", "coordinates": [ 116.1088, 5.9992, 116.1088 ] } },
{ "type": "Feature", "properties": { "Name_CH": "亚庇碧南堂", "Name_ML": "K.K. Peak Nam Tong Buddhist Mission", "Name_EN": null, "Location": "P.O.Box 12158, 88823 Kota Kinabalu, Sabah.", "Longitude": 116.108811, "Latitude": 5.999236, "Region": "Sabah", "Category": "宗教", "PageNumber": "400" }, "geometry": { "type": "Point", "coordinates": [ 116.1088, 5.9992, 116.1088 ] } },
{ "type": "Feature", "properties": { "Name_CH": "山打根弘法精舍", "Name_ML": "Persatuan Penganut Buddha Hong Fa, Sandakan", "Name_EN": null, "Location": "P.O.Box 1496, Sandakan , Sabah. Mile 2 1\/2 , Jalan Labuk, Peaky Valley L.B2.Sandakan , Sabah.", "Longitude": 116.293291, "Latitude": 6.214785, "Region": "Sabah", "Category": "宗教", "PageNumber": "400" }, "geometry": { "type": "Point", "coordinates": [ 116.2933, 6.2148, 116.2933 ] } },
{ "type": "Feature", "properties": { "Name_CH": "实必丹福德宫", "Name_ML": "Kuil Hock Teck Kong Sipitang", "Name_EN": null, "Location": "P.O.Box 98, 89857 Sipitang, Sabah.", "Longitude": 116.293291, "Latitude": 6.214785, "Region": "Sabah", "Category": "宗教", "PageNumber": "400" }, "geometry": { "type": "Point", "coordinates": [ 116.2933, 6.2148, 116.2933 ] } },
{ "type": "Feature", "properties": { "Name_CH": "西里丹绒浸信会", "Name_ML": "Persatuan Penganut Geraja Baptist Sri Tanjung", "Name_EN": "Sri Tanjung Baptist Church Of Tawau", "Location": "P.O.Box 1257, 91037 Tawauz Sabah.", "Longitude": 116.293291, "Latitude": 6.214785, "Region": "Sabah", "Category": "宗教", "PageNumber": "400" }, "geometry": { "type": "Point", "coordinates": [ 116.2933, 6.2148, 116.2933 ] } },
{ "type": "Feature", "properties": { "Name_CH": "仙本那佛教会", "Name_ML": "Persatuan Buddhist Semporna", "Name_EN": null, "Location": "P.O.Box 116, 91308 Semporna, Sabah.", "Longitude": 116.293291, "Latitude": 6.214785, "Region": "Sabah", "Category": "宗教", "PageNumber": "400" }, "geometry": { "type": "Point", "coordinates": [ 116.2933, 6.2148, 116.2933 ] } },
{ "type": "Feature", "properties": { "Name_CH": "真佛宗吧巴安慧同修会", "Name_ML": "Persatuan Jen Foo Chung An Fui Tong Xiu Sei Parpo", "Name_EN": null, "Location": "P.O.Box 158, 89608, Papar, Sabah.", "Longitude": 116.293291, "Latitude": 6.214785, "Region": "Sabah", "Category": "宗教", "PageNumber": "400" }, "geometry": { "type": "Point", "coordinates": [ 116.2933, 6.2148, 116.2933 ] } },
{ "type": "Feature", "properties": { "Name_CH": "斗湖潮州音乐俱乐部", "Name_ML": "Tawau Teo Chew Musical Club", "Name_EN": null, "Location": "P.O.Box 384, 91007 Tawau, Sabah.", "Longitude": null, "Latitude": null, "Region": "Sabah", "Category": "体育联谊", "PageNumber": "401" }, "geometry": { "type": "Point", "coordinates": [ 0.0, 0.0, 0.0 ] } },
{ "type": "Feature", "properties": { "Name_CH": "斗湖富士园俱乐部", "Name_ML": "Kelab Rekreasi Taman Fuji Tawau", "Name_EN": "Fuji Park Recreation Club Tawau", "Location": "TB 3399, Jalan Sin On , Tawau, Sabah.", "Longitude": 117.890567, "Latitude": 4.246919, "Region": "Sabah", "Category": "体育联谊", "PageNumber": "401" }, "geometry": { "type": "Point", "coordinates": [ 117.8906, 4.2469, 117.8906 ] } },
{ "type": "Feature", "properties": { "Name_CH": "斗湖华小退休校长及高级助理协会", "Name_ML": "Persatuan Bekas Guru Besar Dan Penolong Kanan SR Cina Tawau, Sabah.", "Name_EN": null, "Location": "P.O Box 1522, 91040 Towau, Sabah.", "Longitude": 117.743228, "Latitude": 4.63728, "Region": "Sabah", "Category": "体育联谊", "PageNumber": "401" }, "geometry": { "type": "Point", "coordinates": [ 117.7432, 4.6373, 117.7432 ] } },
{ "type": "Feature", "properties": { "Name_CH": "真佛宗纳闽德化堂", "Name_ML": "Persatuan Ling Shen Jen Soh Chong De Huat Tang", "Name_EN": null, "Location": "Jalan Lancan-Loncan Light Industrial Lazenda Shophouse BK C, Lot 19, Labuan.", "Longitude": 115.215263, "Latitude": 5.318793, "Region": "Sabah", "Category": "宗教", "PageNumber": "401" }, "geometry": { "type": "Point", "coordinates": [ 115.2153, 5.3188, 115.2153 ] } },
{ "type": "Feature", "properties": { "Name_CH": "真佛宗沙巴雷藏寺", "Name_ML": "Persatuan Penganut Buddha Rey Tsang Shih Kota Kinabalu, Sabah", "Name_EN": null, "Location": "2 Floor, Lot 13, Rolnas Industrial Estate 4 1\/2 Jalan Penampang, Kota Kinabalu, Sabah.", "Longitude": 116.084935, "Latitude": 5.933104, "Region": "Sabah", "Category": "宗教", "PageNumber": "401" }, "geometry": { "type": "Point", "coordinates": [ 116.0849, 5.9331, 116.0849 ] } },
{ "type": "Feature", "properties": { "Name_CH": "真佛宗沙巴本觉党", "Name_ML": "Persatuan Ling Shen Jen Foo Chung Benjue Tang, Sabah", "Name_EN": null, "Location": "Lot 1-2,3 Floor BKA, Wisma WTT, Jalan Bundusan, 88300 Penampang, Kota Kinabalu, Sabah.P.O.Box 22390, 88783 Luyang, Kota Kinabalu, Sabah.", "Longitude": 116.080497, "Latitude": 5.940121, "Region": "Sabah", "Category": "宗教", "PageNumber": "401" }, "geometry": { "type": "Point", "coordinates": [ 116.0805, 5.9401, 116.0805 ] } },
{ "type": "Feature", "properties": { "Name_CH": "真佛宗连湖雷藏寺", "Name_ML": "Pertubuhan Meditasi Penganut Agama Buddha, Tawau Lean Fu Tang, Sabah", "Name_EN": null, "Location": "P.O.Box 62134, 91031 Tawau, Sabah.", "Longitude": 116.293291, "Latitude": 6.214785, "Region": "Sabah", "Category": "宗教", "PageNumber": "401" }, "geometry": { "type": "Point", "coordinates": [ 116.2933, 6.2148, 116.2933 ] } },
{ "type": "Feature", "properties": { "Name_CH": "保佛乐龄协会", "Name_ML": "Beaufort District Senior Citizens' s Association", "Name_EN": null, "Location": "P.O.Box 90, 89807 Beaufort, Sabah.", "Longitude": 116.293291, "Latitude": 6.214785, "Region": "Sabah", "Category": "体育联谊", "PageNumber": "401" }, "geometry": { "type": "Point", "coordinates": [ 116.2933, 6.2148, 116.2933 ] } },
{ "type": "Feature", "properties": { "Name_CH": "丹南黄氏太极学会", "Name_ML": "Persatuan Tai Chi Huang Tenom", "Name_EN": null, "Location": "P.O.Box 212, 89908 Tenom, Sabah.", "Longitude": 116.293291, "Latitude": 6.214785, "Region": "Sabah", "Category": "体育联谊", "PageNumber": "401" }, "geometry": { "type": "Point", "coordinates": [ 116.2933, 6.2148, 116.2933 ] } },
{ "type": "Feature", "properties": { "Name_CH": "斗湖长安社", "Name_ML": "Persatuan Cheong On Sho, Tawau", "Name_EN": null, "Location": "P.O.Box 61617, 91026 Tawau, Sabah.", "Longitude": 116.293291, "Latitude": 6.214785, "Region": "Sabah", "Category": "体育联谊", "PageNumber": "401" }, "geometry": { "type": "Point", "coordinates": [ 116.2933, 6.2148, 116.2933 ] } },
{ "type": "Feature", "properties": { "Name_CH": "沙巴武术总会", "Name_ML": "Persatuan Seni Mempertahankan Diri China (Wushu) Sabah", "Name_EN": null, "Location": "Tingkat 11, Wisma Pendidikan, Jalan Padang, Kota Kinabalu, Sabah.", "Longitude": 101.039502, "Latitude": 4.570166, "Region": "Sabah", "Category": "体育联谊", "PageNumber": "402" }, "geometry": { "type": "Point", "coordinates": [ 101.0395, 4.5702, 101.0395 ] } },
{ "type": "Feature", "properties": { "Name_CH": "根地咬黄氏太极学会", "Name_ML": "Persatuan Tai Chi Huang Keningau", "Name_EN": null, "Location": "P.O.Box 825z 89008 Keningau, Sabah.", "Longitude": 116.159364, "Latitude": 5.362613, "Region": "Sabah", "Category": "体育联谊", "PageNumber": "402" }, "geometry": { "type": "Point", "coordinates": [ 116.1594, 5.3626, 116.1594 ] } },
{ "type": "Feature", "properties": { "Name_CH": "山打根太极健身学会", "Name_ML": "Sandakan Tai Chi Physical Culture Society", "Name_EN": null, "Location": "P.O.Box 3153, 90735 Sandakan, Sabah.", "Longitude": 118.068549, "Latitude": 5.865902, "Region": "Sabah", "Category": "体育联谊", "PageNumber": "402" }, "geometry": { "type": "Point", "coordinates": [ 118.0685, 5.8659, 118.0685 ] } },
{ "type": "Feature", "properties": { "Name_CH": "沙巴华夏智气功学会", "Name_ML": "Persatuan Hwaxia Zhineng Qigong Sabah", "Name_EN": null, "Location": "103, Lorong Seroja, Taman Fortuna, Jalan Penampang, Kota Kinabalu, Sabah.", "Longitude": 116.077074, "Latitude": 5.942786, "Region": "Sabah", "Category": "体育联谊", "PageNumber": "402" }, "geometry": { "type": "Point", "coordinates": [ 116.0771, 5.9428, 116.0771 ] } },
{ "type": "Feature", "properties": { "Name_CH": "沙巴华人甲必丹福利会", "Name_ML": "Persatuan Kebajikan Kapitan Cina Sabah", "Name_EN": null, "Location": "Lot 98C, Lok Kawi Industrial Estate, Peti Surat 14692, 88854 Kota Kinabalu, Sabah.", "Longitude": 116.089141, "Latitude": 5.947041, "Region": "Sabah", "Category": "体育联谊", "PageNumber": "402" }, "geometry": { "type": "Point", "coordinates": [ 116.0891, 5.947, 116.0891 ] } },
{ "type": "Feature", "properties": { "Name_CH": "沙巴甲必丹政务联委会", "Name_ML": "Jawatankuasa Perhubungan Ketua Masyarakat (Kapitan)", "Name_EN": null, "Location": "P.O.Box 14692, 88854, Kota Kinabalu, Sabah.", "Longitude": 116.108811, "Latitude": 5.999236, "Region": "Sabah", "Category": "体育联谊", "PageNumber": "402" }, "geometry": { "type": "Point", "coordinates": [ 116.1088, 5.9992, 116.1088 ] } },
{ "type": "Feature", "properties": { "Name_CH": "斗湖亲善体育会", "Name_ML": "Persatuan Sukan Muhiboh, Tawau", "Name_EN": null, "Location": "P.O.Box 60117, 91011 Tawau, Sabah.", "Longitude": 116.293291, "Latitude": 6.214785, "Region": "Sabah", "Category": "体育联谊", "PageNumber": "402" }, "geometry": { "type": "Point", "coordinates": [ 116.2933, 6.2148, 116.2933 ] } },
{ "type": "Feature", "properties": { "Name_CH": "斗湖群益社", "Name_ML": "Khiun Yet Sha Association Tawau", "Name_EN": null, "Location": "P.O.Box 62035, 91030 Tawau, Sabah.", "Longitude": 116.293291, "Latitude": 6.214785, "Region": "Sabah", "Category": "体育联谊", "PageNumber": "402" }, "geometry": { "type": "Point", "coordinates": [ 116.2933, 6.2148, 116.2933 ] } },
{ "type": "Feature", "properties": { "Name_CH": "斗湖太极气功十八式学会", "Name_ML": "Persatuan Taiji Gigong 18, Tawau", "Name_EN": null, "Location": "P.O.Box 1933, 91044 Tawau, Sabah.", "Longitude": 116.293291, "Latitude": 6.214785, "Region": "Sabah", "Category": "体育联谊", "PageNumber": "402" }, "geometry": { "type": "Point", "coordinates": [ 116.2933, 6.2148, 116.2933 ] } },
{ "type": "Feature", "properties": { "Name_CH": "斗湖象棋公会", "Name_ML": "Tawau Chess Association", "Name_EN": null, "Location": "P.O.Box 1562, 91040 Tawau, Sabah.", "Longitude": 116.293291, "Latitude": 6.214785, "Region": "Sabah", "Category": "体育联谊", "PageNumber": "402" }, "geometry": { "type": "Point", "coordinates": [ 116.2933, 6.2148, 116.2933 ] } },
{ "type": "Feature", "properties": { "Name_CH": "古达南华体育会", "Name_ML": "Kelab Sukan Nam Hwa Kudat", "Name_EN": "Nom Hwa Sport Club", "Location": "Chinese Chamber Of Commerce , 1st Floor, No.43, Jalan Lo Thien Chock, Kudat, Sabah.", "Longitude": 116.84469, "Latitude": 6.903964, "Region": "Sabah", "Category": "体育联谊", "PageNumber": "402" }, "geometry": { "type": "Point", "coordinates": [ 116.8447, 6.904, 116.8447 ] } },
{ "type": "Feature", "properties": { "Name_CH": "保佛乡联益寿会", "Name_ML": "Persatuan Faedah Bersama Hiong Len Yit Shu Beaufort, Sabah", "Name_EN": null, "Location": "Dewan Persatuan Hakka Beaufort, Peti Surat 712, 89808, Beaufort, Sabah.", "Longitude": 115.733366, "Latitude": 5.354651, "Region": "Sabah", "Category": "慈善福利", "PageNumber": "403" }, "geometry": { "type": "Point", "coordinates": [ 115.7334, 5.3547, 115.7334 ] } },
{ "type": "Feature", "properties": { "Name_CH": "保佛福寿互助会", "Name_ML": "Persatuan Faedah Persama Fook Shu Beaufort", "Name_EN": null, "Location": "P.O.Box 1195, 89808 Beaufort, Sabah.", "Longitude": 115.704204, "Latitude": 5.375257, "Region": "Sabah", "Category": "慈善福利", "PageNumber": "403" }, "geometry": { "type": "Point", "coordinates": [ 115.7042, 5.3753, 115.7042 ] } },
{ "type": "Feature", "properties": { "Name_CH": "吧巴里巴古中华义山", "Name_ML": "Perkuburan Cina Libaku Pa par", "Name_EN": null, "Location": "Chung Fook Tong, Libaku. 10-B, Jalan S.M. K. Majakir, 89607 Papar, Sabah.", "Longitude": 115.935618, "Latitude": 5.720643, "Region": "Sabah", "Category": "慈善福利", "PageNumber": "403" }, "geometry": { "type": "Point", "coordinates": [ 115.9356, 5.7206, 115.9356 ] } },
{ "type": "Feature", "properties": { "Name_CH": "亚庇太极学会", "Name_ML": "Sabah Tai Chi Association Kota Kinabalu", "Name_EN": null, "Location": "P.O.Box 13916, 88845 Kota Kinabalu, Sabah.", "Longitude": 116.108811, "Latitude": 5.999236, "Region": "Sabah", "Category": "体育联谊", "PageNumber": "403" }, "geometry": { "type": "Point", "coordinates": [ 116.1088, 5.9992, 116.1088 ] } },
{ "type": "Feature", "properties": { "Name_CH": "亚庇象棋公会", "Name_ML": null, "Name_EN": "Kota Kinabalu Chess Association", "Location": "P.O.Box 10783, 88806 Kota Kinabalu, Sabah.", "Longitude": 116.108811, "Latitude": 5.999236, "Region": "Sabah", "Category": "体育联谊", "PageNumber": "403" }, "geometry": { "type": "Point", "coordinates": [ 116.1088, 5.9992, 116.1088 ] } },
{ "type": "Feature", "properties": { "Name_CH": "亚庇华小退休校长主任联谊会", "Name_ML": "Persatuan Bekas Guru Besar Dan Penolong Kanan SRC Kota Kinabalu Sabah", "Name_EN": "Association Of Retired Headmasters And Senior Assistants Of Chinese Primary Schools Kota Kinabalu Sabah", "Location": "P.O. Box No.20747, 88764 Luyang, Kota Kinabalu, Sabah", "Longitude": 116.111396, "Latitude": 6.025372, "Region": "Sabah", "Category": "体育联谊", "PageNumber": "403" }, "geometry": { "type": "Point", "coordinates": [ 116.1114, 6.0254, 116.1114 ] } },
{ "type": "Feature", "properties": { "Name_CH": "吧巴基督教墓园（巴色会\/圣公会\/真耶稣教会）", "Name_ML": null, "Name_EN": "The Christian Cemetery Papar", "Location": "P.O.Box 93, 89608 Pa par, Sabah.", "Longitude": 116.293291, "Latitude": 6.214785, "Region": "Sabah", "Category": "慈善福利", "PageNumber": "403" }, "geometry": { "type": "Point", "coordinates": [ 116.2933, 6.2148, 116.2933 ] } },
{ "type": "Feature", "properties": { "Name_CH": "吧巴中华义山", "Name_ML": "Perkuburan Cina Papar Batu 8Z Kampong Lingan, Papar", "Name_EN": null, "Location": "P.O.Box 209, 89608 Papar Sabah.", "Longitude": 116.293291, "Latitude": 6.214785, "Region": "Sabah", "Category": "慈善福利", "PageNumber": "403" }, "geometry": { "type": "Point", "coordinates": [ 116.2933, 6.2148, 116.2933 ] } },
{ "type": "Feature", "properties": { "Name_CH": "斗湖阿拔士七哩半义山", "Name_ML": "Tanah Perkuburan Batu 7, Jalan Apas Tawau", "Name_EN": null, "Location": "P.O.Box 164, 91007 Tawau, Sabah", "Longitude": null, "Latitude": null, "Region": "Sabah", "Category": "慈善福利", "PageNumber": "404" }, "geometry": { "type": "Point", "coordinates": [ 0.0, 0.0, 0.0 ] } },
{ "type": "Feature", "properties": { "Name_CH": "斗湖华人义山", "Name_ML": "Tonah Perkuburan Tawau.", "Name_EN": null, "Location": "P.O.Box 164, 91007 Tawau, Sabah", "Longitude": null, "Latitude": null, "Region": "Sabah", "Category": "慈善福利", "PageNumber": "404" }, "geometry": { "type": "Point", "coordinates": [ 0.0, 0.0, 0.0 ] } },
{ "type": "Feature", "properties": { "Name_CH": "斗湖华侨协助会", "Name_ML": "Persatuan Pengebumian Hiap Lip Kinabutan Tawau", "Name_EN": null, "Location": "TB 5737, Taman Da Hua 2, 91000 Tawau, Sabah.", "Longitude": 117.890567, "Latitude": 4.246919, "Region": "Sabah", "Category": "慈善福利", "PageNumber": "404" }, "geometry": { "type": "Point", "coordinates": [ 117.8906, 4.2469, 117.8906 ] } },
{ "type": "Feature", "properties": { "Name_CH": "保福佛堂墓园", "Name_ML": null, "Name_EN": "BCCA Beaufort Graveyard", "Location": "P.O.Box No.33, 89807 Beaufort, Sabah.", "Longitude": 115.704204, "Latitude": 5.375257, "Region": "Sabah", "Category": "慈善福利", "PageNumber": "404" }, "geometry": { "type": "Point", "coordinates": [ 115.7042, 5.3753, 115.7042 ] } },
{ "type": "Feature", "properties": { "Name_CH": "兵南邦华人福利会（义山）", "Name_ML": null, "Name_EN": "Penampang Chinese Welfare Society Cemetery", "Location": "P.O.Box 13315, 88837 Kota Kinabalu, Sabah.", "Longitude": 116.108811, "Latitude": 5.999236, "Region": "Sabah", "Category": "慈善福利", "PageNumber": "404" }, "geometry": { "type": "Point", "coordinates": [ 116.1088, 5.9992, 116.1088 ] } },
{ "type": "Feature", "properties": { "Name_CH": "打里卜华人福寿会", "Name_ML": null, "Name_EN": "Telipok Chinese Public Cemetery Board", "Location": "P.O.Box 99, 88450 Telipok, Kota Kinabalu, Sabah.", "Longitude": 116.108811, "Latitude": 5.999236, "Region": "Sabah", "Category": "慈善福利", "PageNumber": "404" }, "geometry": { "type": "Point", "coordinates": [ 116.1088, 5.9992, 116.1088 ] } },
{ "type": "Feature", "properties": { "Name_CH": "丹南安达湾华人义山", "Name_ML": "Kuburan Cina Kg. Entabuan, Tenom", "Name_EN": null, "Location": "P.O.Box 134, 89907 Tenom, Sabah.", "Longitude": 116.293291, "Latitude": 6.214785, "Region": "Sabah", "Category": "慈善福利", "PageNumber": "404" }, "geometry": { "type": "Point", "coordinates": [ 116.2933, 6.2148, 116.2933 ] } },
{ "type": "Feature", "properties": { "Name_CH": "丹南珍达玛达中华义山", "Name_ML": "Kuburan Chung Hwa Yee San Tenom", "Name_EN": null, "Location": "P.O.Box 59, 89907 Tenom, Sabah.", "Longitude": 116.293291, "Latitude": 6.214785, "Region": "Sabah", "Category": "慈善福利", "PageNumber": "404" }, "geometry": { "type": "Point", "coordinates": [ 116.2933, 6.2148, 116.2933 ] } },
{ "type": "Feature", "properties": { "Name_CH": "丹南中华商会义山小组", "Name_ML": "Dewan Perniagaan Tionghua (AJK Perkuburan Tenom)", "Name_EN": null, "Location": "P.O.Box 22, 89907 Tenom, Sabah.", "Longitude": 116.293291, "Latitude": 6.214785, "Region": "Sabah", "Category": "慈善福利", "PageNumber": "404" }, "geometry": { "type": "Point", "coordinates": [ 116.2933, 6.2148, 116.2933 ] } },
{ "type": "Feature", "properties": { "Name_CH": "担波罗里众福堂人寿会", "Name_ML": "Persatuan Chung Fook Tong Tamparuli", "Name_EN": null, "Location": "P.O.Box 139, 89257 Tamparuli, Sabah.", "Longitude": 116.293291, "Latitude": 6.214785, "Region": "Sabah", "Category": "慈善福利", "PageNumber": "404" }, "geometry": { "type": "Point", "coordinates": [ 116.2933, 6.2148, 116.2933 ] } },
{ "type": "Feature", "properties": { "Name_CH": "斗湖安平福利社", "Name_ML": null, "Name_EN": "Tawau Onn Ping Sha Association", "Location": "P.O.Box 60185, Tawau, Sabah.", "Longitude": 116.293291, "Latitude": 6.214785, "Region": "Sabah", "Category": "慈善福利", "PageNumber": "404" }, "geometry": { "type": "Point", "coordinates": [ 116.2933, 6.2148, 116.2933 ] } },
{ "type": "Feature", "properties": { "Name_CH": "斗湖丹绒巴都义山", "Name_ML": "Tanah Perkuburan Kg. Tanjung Batu Tawau", "Name_EN": null, "Location": null, "Longitude": null, "Latitude": null, "Region": "Sabah", "Category": "慈善福利", "PageNumber": "404" }, "geometry": null },
{ "type": "Feature", "properties": { "Name_CH": "马来西亚基督教巴色会山打根区会西埔架墓园", "Name_ML": null, "Name_EN": "BCCM Sandakan Parish Sibuga Cemetery", "Location": "P.O.Box No.1100, 90712 Sandakan Sabah.", "Longitude": 118.068549, "Latitude": 5.865902, "Region": "Sabah", "Category": "慈善福利", "PageNumber": "405" }, "geometry": { "type": "Point", "coordinates": [ 118.0685, 5.8659, 118.0685 ] } },
{ "type": "Feature", "properties": { "Name_CH": "斗亚兰中华商会属下华人义山", "Name_ML": null, "Name_EN": "Tuaran Chinese Chamber Of Commerce Cemetery Management Committee", "Location": "2nd Floor, Lot 12, Block 4, Jalan Teo Teck Ong, P.O.Box 37, 89207 Tuaran, Sabah.", "Longitude": 116.077171, "Latitude": 5.927755, "Region": "Sabah", "Category": "慈善福利", "PageNumber": "405" }, "geometry": { "type": "Point", "coordinates": [ 116.0772, 5.9278, 116.0772 ] } },
{ "type": "Feature", "properties": { "Name_CH": "根地咬中华义山", "Name_ML": "Perkuburan Cina Keningau", "Name_EN": null, "Location": "Lot 7,8,9, Sri Padasa Keningau, P.O.Box 14, 89007, Keningau, Sabah.", "Longitude": 116.079832, "Latitude": 5.940064, "Region": "Sabah", "Category": "慈善福利", "PageNumber": "405" }, "geometry": { "type": "Point", "coordinates": [ 116.0798, 5.9401, 116.0798 ] } },
{ "type": "Feature", "properties": { "Name_CH": "哥打马鲁都中华义山", "Name_ML": "Perkuburan Cina Kota Marudu", "Name_EN": null, "Location": "Lot 6, Block A, Bangunan Haxan,Kota Marudu. P.O.Box 357, 89108 Kota Kinabalu, Sabah.", "Longitude": 116.079702, "Latitude": 5.940153, "Region": "Sabah", "Category": "慈善福利", "PageNumber": "405" }, "geometry": { "type": "Point", "coordinates": [ 116.0797, 5.9402, 116.0797 ] } },
{ "type": "Feature", "properties": { "Name_CH": "京那律华人义山", "Name_ML": "Perkuburan Cina Kinarut", "Name_EN": null, "Location": "Kefai No 5, Kinarut Sabah, 89608 Papar Sabah.", "Longitude": 116.079068, "Latitude": 5.944139, "Region": "Sabah", "Category": "慈善福利", "PageNumber": "405" }, "geometry": { "type": "Point", "coordinates": [ 116.0791, 5.9441, 116.0791 ] } },
{ "type": "Feature", "properties": { "Name_CH": "马来西亚基督教巴色会德里福堂", "Name_ML": null, "Name_EN": "Basel Christian Church Of Malaysia, Telipok", "Location": "Mile 15, Jalan Tuaran, Telipok, Kota Kinabalu, Sabah .", "Longitude": 116.108811, "Latitude": 5.999236, "Region": "Sabah", "Category": "慈善福利", "PageNumber": "405" }, "geometry": { "type": "Point", "coordinates": [ 116.1088, 5.9992, 116.1088 ] } },
{ "type": "Feature", "properties": { "Name_CH": "古达福建义山", "Name_ML": "Kudat Hokkien Cemetery", "Name_EN": null, "Location": "P.O.Box 39, 89057 Kudat Sabah.", "Longitude": 116.293291, "Latitude": 6.214785, "Region": "Sabah", "Category": "慈善福利", "PageNumber": "405" }, "geometry": { "type": "Point", "coordinates": [ 116.2933, 6.2148, 116.2933 ] } },
{ "type": "Feature", "properties": { "Name_CH": "古打毛律中华义山（1），（2）&（3）", "Name_ML": "Kuburan Cina (1),(2) & (3) Kota Belud", "Name_EN": null, "Location": "P.O.Box 66, 89157 Kota Belud, Sabah.", "Longitude": 116.293291, "Latitude": 6.214785, "Region": "Sabah", "Category": "慈善福利", "PageNumber": "405" }, "geometry": { "type": "Point", "coordinates": [ 116.2933, 6.2148, 116.2933 ] } },
{ "type": "Feature", "properties": { "Name_CH": "古纳华人福寿会", "Name_ML": "Persatuan Faedah Bersama China Fook Siew Kunak", "Name_EN": null, "Location": "P.O.Box 108, 91209 Kunak, Sabah.", "Longitude": 116.293291, "Latitude": 6.214785, "Region": "Sabah", "Category": "慈善福利", "PageNumber": "405" }, "geometry": { "type": "Point", "coordinates": [ 116.2933, 6.2148, 116.2933 ] } },
{ "type": "Feature", "properties": { "Name_CH": "马来西亚基督教巴色会孟加达堂墓园", "Name_ML": null, "Name_EN": "BCCM Menggatal Cemetery", "Location": "P.O.Box No.455, Menggatal 88450 Kota Kinabalu, Sabah.", "Longitude": 116.293291, "Latitude": 6.214785, "Region": "Sabah", "Category": "慈善福利", "PageNumber": "405" }, "geometry": { "type": "Point", "coordinates": [ 116.2933, 6.2148, 116.2933 ] } },
{ "type": "Feature", "properties": { "Name_CH": "古达巴色会埠堂墓园", "Name_ML": null, "Name_EN": "Basel Cemetery Kudat Town", "Location": "P.O.Box No.61, Kudat Sabah.", "Longitude": 116.84469, "Latitude": 6.903964, "Region": "Sabah", "Category": "慈善福利", "PageNumber": "405" }, "geometry": { "type": "Point", "coordinates": [ 116.8447, 6.904, 116.8447 ] } },
{ "type": "Feature", "properties": { "Name_CH": "老山巴色会墓园", "Name_ML": null, "Name_EN": "BCCM Lau San Cemetery Kudat", "Location": "P.O.Box No.110, 89057 Kudat, Sabah.", "Longitude": 116.84469, "Latitude": 6.903964, "Region": "Sabah", "Category": "慈善福利", "PageNumber": "405" }, "geometry": { "type": "Point", "coordinates": [ 116.8447, 6.904, 116.8447 ] } },
{ "type": "Feature", "properties": { "Name_CH": "纳闽文华狮子会", "Name_ML": null, "Name_EN": "The Lions Club Of Labuan Mandarin", "Location": "Lot A2, Manmohan' s Warehouse, Jalan Patau-Patau, 87007 W.P.Labuan.", "Longitude": 103.124655, "Latitude": 3.721557, "Region": "Sabah", "Category": "慈善福利", "PageNumber": "406" }, "geometry": { "type": "Point", "coordinates": [ 103.1247, 3.7216, 103.1247 ] } },
{ "type": "Feature", "properties": { "Name_CH": "拿笃埠旧华人义山", "Name_ML": null, "Name_EN": "Lahad Datu Old Chinese Cemetery", "Location": "P.O.Box 60170, 91100 Lahad Datu, Sabah.", "Longitude": 118.294759, "Latitude": 5.028548, "Region": "Sabah", "Category": "慈善福利", "PageNumber": "406" }, "geometry": { "type": "Point", "coordinates": [ 118.2948, 5.0285, 118.2948 ] } },
{ "type": "Feature", "properties": { "Name_CH": "拿笃中华义山（诗南路）", "Name_ML": "Lahad Datu New Chinese Cemetery(Jalan Silam)", "Name_EN": null, "Location": "P.O.Box 60170, 91100 Lahad Datu, Sabah.", "Longitude": 118.294759, "Latitude": 5.028548, "Region": "Sabah", "Category": "慈善福利", "PageNumber": "406" }, "geometry": { "type": "Point", "coordinates": [ 118.2948, 5.0285, 118.2948 ] } },
{ "type": "Feature", "properties": { "Name_CH": "山打根北部扶轮社", "Name_ML": null, "Name_EN": "Rotary Club Of Sandakan North", "Location": "P.O.Box 2032, 90723 Sandakan, Sabah.", "Longitude": 118.068549, "Latitude": 5.865902, "Region": "Sabah", "Category": "慈善福利", "PageNumber": "406" }, "geometry": { "type": "Point", "coordinates": [ 118.0685, 5.8659, 118.0685 ] } },
{ "type": "Feature", "properties": { "Name_CH": "山打根福建互助会", "Name_ML": null, "Name_EN": "The Hockien Benevolent Society", "Location": "P.O.Box 3486,90739 Sandakan, Sabah", "Longitude": 118.068549, "Latitude": 5.865902, "Region": "Sabah", "Category": "慈善福利", "PageNumber": "406" }, "geometry": { "type": "Point", "coordinates": [ 118.0685, 5.8659, 118.0685 ] } },
{ "type": "Feature", "properties": { "Name_CH": "马来西亚基督教巴色会下南南墓园", "Name_ML": null, "Name_EN": "BCCM Inanam Cemetery", "Location": "Batu 1\/2, Jalan Kiansom Inanam. P.O.Box A429, 89357 Inanam, Sabah.", "Longitude": 116.1321, "Latitude": 5.9922, "Region": "Sabah", "Category": "慈善福利", "PageNumber": "406" }, "geometry": { "type": "Point", "coordinates": [ 116.1321, 5.9922, 116.1321 ] } },
{ "type": "Feature", "properties": { "Name_CH": "马来西亚基督教巴色会亚庇堂墓园", "Name_ML": null, "Name_EN": "The Basel Christian Church of Malaysia, Kota Kinabalu Cemetery", "Location": "P.O.Box 10188, 88802 Kota Kinabalu, Sabah.", "Longitude": 116.108811, "Latitude": 5.999236, "Region": "Sabah", "Category": "慈善福利", "PageNumber": "406" }, "geometry": { "type": "Point", "coordinates": [ 116.1088, 5.9992, 116.1088 ] } },
{ "type": "Feature", "properties": { "Name_CH": "拿笃育才长寿互助会", "Name_ML": "Pertubuhan Faedah Bersama Chong Shu Kampung Yuk Choi", "Name_EN": null, "Location": "P.O.Box 60331, 91112, Lahad Datu Miles 3,Jalan Segama, Lahad Datu, Sabah.", "Longitude": 116.293291, "Latitude": 6.214785, "Region": "Sabah", "Category": "慈善福利", "PageNumber": "406" }, "geometry": { "type": "Point", "coordinates": [ 116.2933, 6.2148, 116.2933 ] } },