{
"type": "FeatureCollection",
"name": "Region_8",
"crs": { "type": "name", "properties": { "name": "urn:ogc:def:crs:OGC:1.3:CRS84" } },
"features": [
{ "type": "Feature", "properties": { "Name_CH": "巴生滨海安溪会馆", "Name_ML": "Persatuan Ann Kway Pantai Klang", "Name_EN": null, "Location": "Lot PT 14236, Jalan Perusahaan 25, Kawasan 11, D\/A Jalan Banting, pandamaran, 42000 Pelabuhan Kelang, Selangor.", "Longitude": 101.422384, "Latitude": 2.9964678, "Region": "Selangor", "Category": "地缘", "PageNumber": "182" }, "geometry": { "type": "Point", "coordinates": [ 101.4224, 2.9965, 101.4224 ] } },
{ "type": "Feature", "properties": { "Name_CH": "巴生滨海福州十邑同乡会", "Name_ML": "Persatuan Foochow Klang", "Name_EN": null, "Location": "39, 1st Floor, Lorong Tingkat Klang, 41000 Selangor.", "Longitude": 101.447604, "Latitude": 3.0399418, "Region": "Selangor", "Category": "地缘", "PageNumber": "182" }, "geometry": { "type": "Point", "coordinates": [ 101.4476, 3.0399, 101.4476 ] } },
{ "type": "Feature", "properties": { "Name_CH": "巴生滨海潮州会馆", "Name_ML": "Persatuan Teochew Klang Dan Pantai", "Name_EN": "The Teochew Association Klang & Coast", "Location": "No.16, Jalan Dato Hamzah, 41000 Klang, Selangor.", "Longitude": 101.4484976, "Latitude": 3.0411369, "Region": "Selangor", "Category": "地缘", "PageNumber": "182" }, "geometry": { "type": "Point", "coordinates": [ 101.4485, 3.0411, 101.4485 ] } },
{ "type": "Feature", "properties": { "Name_CH": "巴生滨海兴安会馆", "Name_ML": "Persatuan Hin Ann Pantai Klang", "Name_EN": null, "Location": "37A, Jalan Batu Tiga, Klang, 41300 Selangor.", "Longitude": 101.4509864, "Latitude": 3.047564, "Region": "Selangor", "Category": "地缘", "PageNumber": "182" }, "geometry": { "type": "Point", "coordinates": [ 101.451, 3.0476, 101.451 ] } },
{ "type": "Feature", "properties": { "Name_CH": "巴生滨海南安会馆", "Name_ML": "Persatuan Nam Ann Daerah Klang & Pantai", "Name_EN": null, "Location": "2-B, Jalan Taiping, Klang, 41400 Selangor.", "Longitude": 101.4471039, "Latitude": 3.0487665, "Region": "Selangor", "Category": "地缘", "PageNumber": "182" }, "geometry": { "type": "Point", "coordinates": [ 101.4471, 3.0488, 101.4471 ] } },
{ "type": "Feature", "properties": { "Name_CH": "巴生滨海福莆仙同乡会", "Name_ML": null, "Name_EN": "The Klang & Coast Hock Poh Sien Clan Association", "Location": "20, Jalan Goh Hock Huat, 41400 Kelang, Selangor.", "Longitude": 101.44688, "Latitude": 3.05156, "Region": "Selangor", "Category": "地缘", "PageNumber": "182" }, "geometry": { "type": "Point", "coordinates": [ 101.4469, 3.0516, 101.4469 ] } },
{ "type": "Feature", "properties": { "Name_CH": "马来西亚中华大会堂总会(华总)", "Name_ML": "Gabungan Pertubuhan Cina Malaysia", "Name_EN": "The Federeation of Chinese Association, Malaysia", "Location": "1, Jalan Maharajalela, 50150 Kuala Lumpur.", "Longitude": 101.6978452, "Latitude": 3.1390664, "Region": "Selangor", "Category": "综合", "PageNumber": "182" }, "geometry": { "type": "Point", "coordinates": [ 101.6978, 3.1391, 101.6978 ] } },
{ "type": "Feature", "properties": { "Name_CH": "雪兰莪中华大会堂", "Name_ML": "Dewan Perhimpunan China Selangor", "Name_EN": "The Selangor Chinese Assembly Hall", "Location": "No.1, Jalan Maharajalela, 50150 Kuala Lumpur.", "Longitude": 101.6978452, "Latitude": 3.1390664, "Region": "Selangor", "Category": "综合", "PageNumber": "182" }, "geometry": { "type": "Point", "coordinates": [ 101.6978, 3.1391, 101.6978 ] } },
{ "type": "Feature", "properties": { "Name_CH": "安邦福建会馆", "Name_ML": "Persatuan Hokkien Ampang Jaya", "Name_EN": null, "Location": "15B, Jalan Wawasan 4\/1, Bandar baru Ampang, 68000 Ampang, Selangor.", "Longitude": 101.7651945, "Latitude": 3.1474663, "Region": "Selangor", "Category": "地缘", "PageNumber": "182" }, "geometry": { "type": "Point", "coordinates": [ 101.7652, 3.1475, 101.7652 ] } },
{ "type": "Feature", "properties": { "Name_CH": "瓜拉冷岳海南会馆", "Name_ML": "Persatuan Hai Nam Kuala Langat", "Name_EN": null, "Location": "No.91, Jalan Bunga Pekan 2, Keawasan 6, 42700 Banting, Kuala Langat Selangor.", "Longitude": 101.4993019, "Latitude": 2.8110709, "Region": "Selangor", "Category": "地缘", "PageNumber": "183" }, "geometry": { "type": "Point", "coordinates": [ 101.4993, 2.8111, 101.4993 ] } },
{ "type": "Feature", "properties": { "Name_CH": "瓜拉冷岳福建会馆", "Name_ML": "Persatuan Hokkien Kuala Langat", "Name_EN": null, "Location": "22-24, Tingkat Atas, Jalan Bunga Pekan 5, Kaw 6, 42700 Banting, Selangor.", "Longitude": 101.506167, "Latitude": 2.8131183, "Region": "Selangor", "Category": "地缘", "PageNumber": "183" }, "geometry": { "type": "Point", "coordinates": [ 101.5062, 2.8131, 101.5062 ] } },
{ "type": "Feature", "properties": { "Name_CH": "巴生客家公会", "Name_ML": "Persatuan Hakka Kelang", "Name_EN": "Association Hakka Klang", "Location": "No.81-B, Persiaran Pegaga, Taman Batu Perdana, 41200 Klang, Selangor.", "Longitude": 101.4324033, "Latitude": 3.0187733, "Region": "Selangor", "Category": "地缘", "PageNumber": "183" }, "geometry": { "type": "Point", "coordinates": [ 101.4324, 3.0188, 101.4324 ] } },
{ "type": "Feature", "properties": { "Name_CH": "浮罗吉胆太原公会", "Name_ML": "Persatuan Tai Guan Pulau Ketam", "Name_EN": null, "Location": "P 1, Jalan Tepi Sungai, Pulau Ketam, 42940 Selangor.", "Longitude": 101.252654, "Latitude": 3.020617, "Region": "Selangor", "Category": "地缘", "PageNumber": "183" }, "geometry": { "type": "Point", "coordinates": [ 101.2527, 3.0206, 101.2527 ] } },
{ "type": "Feature", "properties": { "Name_CH": "巴生广东会馆", "Name_ML": null, "Name_EN": "Klang Kwong Tung Association", "Location": "27, Jalan Raja Timur, 41000 Klang Selangor.", "Longitude": 101.4656523, "Latitude": 3.0278377, "Region": "Selangor", "Category": "地缘", "PageNumber": "183" }, "geometry": { "type": "Point", "coordinates": [ 101.4657, 3.0278, 101.4657 ] } },
{ "type": "Feature", "properties": { "Name_CH": "巴生惠安泉港公会", "Name_ML": "Persatuan Hwee Ann Klang", "Name_EN": null, "Location": "114, Persiaran Raja Muda Musa, Klang, 41100 Selangor.", "Longitude": 101.4312013, "Latitude": 3.0299744, "Region": "Selangor", "Category": "地缘", "PageNumber": "183" }, "geometry": { "type": "Point", "coordinates": [ 101.4312, 3.03, 101.4312 ] } },
{ "type": "Feature", "properties": { "Name_CH": "巴生大埔同乡会", "Name_ML": "Persatuan Tai Pu Klang", "Name_EN": null, "Location": "40, Jalan Dato Hamzah Klang, 41000 Selangor", "Longitude": 101.4485502, "Latitude": 3.0410367, "Region": "Selangor", "Category": "地缘", "PageNumber": "183" }, "geometry": { "type": "Point", "coordinates": [ 101.4486, 3.041, 101.4486 ] } },
{ "type": "Feature", "properties": { "Name_CH": "巴生海南会馆", "Name_ML": "Persatuan Hainan Klang", "Name_EN": "Klang Hainan Association", "Location": "4, Tingkat 2, Jalan Tengku Ainudin, Klang, Selangor.", "Longitude": 101.447933, "Latitude": 3.0436789, "Region": "Selangor", "Category": "地缘", "PageNumber": "183" }, "geometry": { "type": "Point", "coordinates": [ 101.4479, 3.0437, 101.4479 ] } },
{ "type": "Feature", "properties": { "Name_CH": "巴生雪兰莪金门会馆", "Name_ML": null, "Name_EN": "Selangor Kim Mooi Association", "Location": "30A&30B, Tingkat 3, Jalan Bukit Kuda, Klang, 41300 Selangor.", "Longitude": 101.4672333, "Latitude": 3.0532106, "Region": "Selangor", "Category": "地缘", "PageNumber": "183" }, "geometry": { "type": "Point", "coordinates": [ 101.4672, 3.0532, 101.4672 ] } },
{ "type": "Feature", "properties": { "Name_CH": "巴生福建会馆", "Name_ML": "Persatuan Hokkien Klang\/Bangunan Persatuan Hokkien Klang", "Name_EN": null, "Location": "Jalan Batu Tiga Lama, Klang, 41300 Selangor", "Longitude": 101.467874, "Latitude": 3.0536292, "Region": "Selangor", "Category": "地缘", "PageNumber": "183" }, "geometry": { "type": "Point", "coordinates": [ 101.4679, 3.0536, 101.4679 ] } },
{ "type": "Feature", "properties": { "Name_CH": "瓜拉冷岳客属公会", "Name_ML": "Persatuan Hakka Kuala Langat", "Name_EN": null, "Location": "26, Jalan Telok Bunut Banting, Kuala Langat, 42700 Selangor.", "Longitude": 101.4997891, "Latitude": 2.8137932, "Region": "Selangor", "Category": "地缘", "PageNumber": "184" }, "geometry": { "type": "Point", "coordinates": [ 101.4998, 2.8138, 101.4998 ] } },
{ "type": "Feature", "properties": { "Name_CH": "蕉赖区福建公会", "Name_ML": "Persatuan Hokkien Cheras", "Name_EN": null, "Location": "9, 2nd Floor, Pekan Batu 11, Cheras, Jalan Belakong, 43200 Kajangz Selangor.", "Longitude": 101.7723127, "Latitude": 3.0424214, "Region": "Selangor", "Category": "地缘", "PageNumber": "184" }, "geometry": { "type": "Point", "coordinates": [ 101.7723, 3.0424, 101.7723 ] } },
{ "type": "Feature", "properties": { "Name_CH": "隆雪客家总会", "Name_ML": "Persatuan Hakka Wilayah Persekutuan Kuala Lumpur & Selangor", "Name_EN": null, "Location": "No.30B, Jalan Mutiara Raya, Taman Mutiara Cheras, 56000 Kuala Lumpur.", "Longitude": 101.7397478, "Latitude": 3.0911939, "Region": "Selangor", "Category": "地缘", "PageNumber": "184" }, "geometry": { "type": "Point", "coordinates": [ 101.7397, 3.0912, 101.7397 ] } },
{ "type": "Feature", "properties": { "Name_CH": "吉隆坡河婆同乡会", "Name_ML": "Persatuan Ho Po Kuala Lumpur", "Name_EN": null, "Location": "65&67, 5th Floor Wisma Hopo, Changkat Thambi Dollah, 55100 Kuala Lumpur", "Longitude": 101.7109699, "Latitude": 3.1406, "Region": "Selangor", "Category": "地缘", "PageNumber": "184" }, "geometry": { "type": "Point", "coordinates": [ 101.711, 3.1406, 101.711 ] } },
{ "type": "Feature", "properties": { "Name_CH": "吉隆坡赤溪公会", "Name_ML": "Persatuan Chak Kai Koong Kon Kuala Lumpur", "Name_EN": null, "Location": "85, 4th Floor, Jalan Sultan, 50000 Kuala Lumpur.", "Longitude": 101.6971714, "Latitude": 3.1425562, "Region": "Selangor", "Category": "地缘", "PageNumber": "184" }, "geometry": { "type": "Point", "coordinates": [ 101.6972, 3.1426, 101.6972 ] } },
{ "type": "Feature", "properties": { "Name_CH": "吉隆坡南海会馆", "Name_ML": "Persatuan Nam Hoi Kuala Lumpur", "Name_EN": null, "Location": "250B, Jalan Pudu, 55100 Kuala Lumpur.", "Longitude": 101.7076579, "Latitude": 3.1426313, "Region": "Selangor", "Category": "地缘", "PageNumber": "184" }, "geometry": { "type": "Point", "coordinates": [ 101.7077, 3.1426, 101.7077 ] } },
{ "type": "Feature", "properties": { "Name_CH": "吉隆坡永春会馆", "Name_ML": "KL Eng Choon Hoey Kuan", "Name_EN": null, "Location": "55-59, Tingkat 6, Bangunan Eng Choon, 50450 Jalan Ampang, Kuala Lumpur.", "Longitude": 101.6981589, "Latitude": 3.1515214, "Region": "Selangor", "Category": "地缘", "PageNumber": "184" }, "geometry": { "type": "Point", "coordinates": [ 101.6982, 3.1515, 101.6982 ] } },
{ "type": "Feature", "properties": { "Name_CH": "隆雪惠安泉港公会", "Name_ML": "Persatuan Hwee Ann Kuala Lumpur & Selangor", "Name_EN": null, "Location": "107, Jalan Raja Laut, 50350 Kuala Lumpur.", "Longitude": 101.6961289, "Latitude": 3.165536, "Region": "Selangor", "Category": "地缘", "PageNumber": "184" }, "geometry": { "type": "Point", "coordinates": [ 101.6961, 3.1655, 101.6961 ] } },
{ "type": "Feature", "properties": { "Name_CH": "吉隆坡甲洞福建会馆", "Name_ML": "Persatuan Hokkien Kepong", "Name_EN": null, "Location": "2162, Jalan Jinjang, 52000 Jinjang Utara, Kuala Lumpur.", "Longitude": 101.6590969, "Latitude": 3.2096438, "Region": "Selangor", "Category": "地缘", "PageNumber": "184" }, "geometry": { "type": "Point", "coordinates": [ 101.6591, 3.2096, 101.6591 ] } },
{ "type": "Feature", "properties": { "Name_CH": "甲洞客家会馆", "Name_ML": "Persatuan Hakka Kepong", "Name_EN": null, "Location": "95-2, Jalan Besar, Kepong 52100 Kuala Lumpur.", "Longitude": 101.6367417, "Latitude": 3.2145457, "Region": "Selangor", "Category": "地缘", "PageNumber": "184" }, "geometry": { "type": "Point", "coordinates": [ 101.6367, 3.2145, 101.6367 ] } },
{ "type": "Feature", "properties": { "Name_CH": "叻思暨答冬加里福建公所", "Name_ML": "Persatuan Hokkien Rasa Dan Batang Kali", "Name_EN": null, "Location": "22A, Jalan Kuala kali, 44200 Rasa, Selangor.", "Longitude": 101.6330512, "Latitude": 3.4963635, "Region": "Selangor", "Category": "地缘", "PageNumber": "184" }, "geometry": { "type": "Point", "coordinates": [ 101.6331, 3.4964, 101.6331 ] } },
{ "type": "Feature", "properties": { "Name_CH": "瓜雪及沙白福建会馆", "Name_ML": "Persatuan Hokkien Sekinchan", "Name_EN": null, "Location": "193, Jalan Gereja, 45400 Sekinchan, Selangor.", "Longitude": 101.1041656, "Latitude": 3.5099285, "Region": "Selangor", "Category": "地缘", "PageNumber": "184" }, "geometry": { "type": "Point", "coordinates": [ 101.1042, 3.5099, 101.1042 ] } },
{ "type": "Feature", "properties": { "Name_CH": "瓜雪暨沙白县福建会馆", "Name_ML": "Persatuan Hokkien Daerah Kuala Selangor& Sabak Bernam", "Name_EN": null, "Location": "193, Jalan Gereja, Sekinchan, 45400 Selangor.", "Longitude": 101.1041656, "Latitude": 3.5099285, "Region": "Selangor", "Category": "地缘", "PageNumber": "184" }, "geometry": { "type": "Point", "coordinates": [ 101.1042, 3.5099, 101.1042 ] } },
{ "type": "Feature", "properties": { "Name_CH": "吉灵两广同乡会", "Name_ML": null, "Name_EN": "Kwang-Tong, Kwang-Sai Assn", "Location": "97A, Kg. Air Panas, Kerling, 44100 Ulu Selangor, Selangor.", "Longitude": 101.6139721, "Latitude": 3.5969716, "Region": "Selangor", "Category": "地缘", "PageNumber": "184" }, "geometry": { "type": "Point", "coordinates": [ 101.614, 3.597, 101.614 ] } },
{ "type": "Feature", "properties": { "Name_CH": "龙邦福建会馆", "Name_ML": "Persekutuan Hokkien Kalumpang", "Name_EN": null, "Location": "379, Kg. Baru Kalumpang, 44100 Hulu Selangor.", "Longitude": 101.5674981, "Latitude": 3.6401075, "Region": "Selangor", "Category": "地缘", "PageNumber": "184" }, "geometry": { "type": "Point", "coordinates": [ 101.5675, 3.6401, 101.5675 ] } },
{ "type": "Feature", "properties": { "Name_CH": "蕉赖区福建公会", "Name_ML": "Persatuan Hokkien Cheras", "Name_EN": null, "Location": "9, 2nd Floor, Pekan Batu 11, Cheras, Jalan Belakong, 43200 Kajangz Selangor.", "Longitude": 101.7723127, "Latitude": 3.0424214, "Region": "Selangor", "Category": "地缘", "PageNumber": "184" }, "geometry": { "type": "Point", "coordinates": [ 101.7723, 3.0424, 101.7723 ] } },
{ "type": "Feature", "properties": { "Name_CH": "叻思暨答冬加里福建公所", "Name_ML": "Persatuan Hokkien Rasa Dan Batang Kali", "Name_EN": null, "Location": "22A, Jalan Kuala kali, 44200 Rasa, Selangor.", "Longitude": 101.6330512, "Latitude": 3.4963635, "Region": "Selangor", "Category": "地缘", "PageNumber": "184" }, "geometry": { "type": "Point", "coordinates": [ 101.6331, 3.4964, 101.6331 ] } },
{ "type": "Feature", "properties": { "Name_CH": "瓜雪及沙白福建会馆", "Name_ML": "Persatuan Hokkien Sekinchan", "Name_EN": null, "Location": "193, Jalan Gereja, 45400 Sekinchan, Selangor.", "Longitude": 101.1041656, "Latitude": 3.5099285, "Region": "Selangor", "Category": "地缘", "PageNumber": "184" }, "geometry": { "type": "Point", "coordinates": [ 101.1042, 3.5099, 101.1042 ] } },
{ "type": "Feature", "properties": { "Name_CH": "马来西亚客家公会联合会", "Name_ML": "Persekutuan Persatuan-Persatuan Hakka Malaysia", "Name_EN": "The Federation of Hakka Association of Malaysia", "Location": "30A, Jalan Mutiara Raya, Taman Mutiara, Cheras, 56000 Kuala Lumpur.", "Longitude": 101.7397478, "Latitude": 3.0911939, "Region": "Selangor", "Category": "地缘", "PageNumber": "185" }, "geometry": { "type": "Point", "coordinates": [ 101.7397, 3.0912, 101.7397 ] } },
{ "type": "Feature", "properties": { "Name_CH": "马来西亚湖北同乡会", "Name_ML": "Persatuan Hubei Malaysia", "Name_EN": "Hubei Association of Malaysia", "Location": "No.53, Jalan Midah 3, Taman Midah, Cheros, 56000 Kuala Lumpur.", "Longitude": 101.731916, "Latitude": 3.103608, "Region": "Selangor", "Category": "地缘", "PageNumber": "185" }, "geometry": { "type": "Point", "coordinates": [ 101.7319, 3.1036, 101.7319 ] } },
{ "type": "Feature", "properties": { "Name_CH": "马来西亚广西总会", "Name_ML": "Persatuan Guangxi Malaysia", "Name_EN": null, "Location": "27, Mezzanine Floor, Jalan Maharajalela, 50150 Kuala Lumpur.", "Longitude": 101.7010687, "Latitude": 3.1374443, "Region": "Selangor", "Category": "地缘", "PageNumber": "185" }, "geometry": { "type": "Point", "coordinates": [ 101.7011, 3.1374, 101.7011 ] } },
{ "type": "Feature", "properties": { "Name_CH": "马来西亚福州社团联合总会", "Name_ML": null, "Name_EN": "The Federation of Foochow Associations of Malaysia", "Location": "18-M, Lorong Thambi Dua, Pudu, 55100 Kuala Lumpur.", "Longitude": 101.7132518, "Latitude": 3.1394009, "Region": "Selangor", "Category": "地缘", "PageNumber": "185" }, "geometry": { "type": "Point", "coordinates": [ 101.7133, 3.1394, 101.7133 ] } },
{ "type": "Feature", "properties": { "Name_CH": "马来西亚福建社团联合会", "Name_ML": "Persekutuan Persatuan-Persatuan Hokkien Malaysia", "Name_EN": "The Federation of Hokkien Association of Malaysia", "Location": "Wisma Fujian, No.6&8, 3rd Floor, Lorong Thambi Dua, Pudu, 55100 Kuala Lumpur.", "Longitude": 101.712883, "Latitude": 3.139647, "Region": "Selangor", "Category": "地缘", "PageNumber": "185" }, "geometry": { "type": "Point", "coordinates": [ 101.7129, 3.1396, 101.7129 ] } },
{ "type": "Feature", "properties": { "Name_CH": "马来西亚会宁总会", "Name_ML": "Gabungan Persatuan Hui Ning Malaysia", "Name_EN": "The Federation of Hui Ning Association Malaysia", "Location": "8, Jalan Panggong 50000 Kuala Lumpur.", "Longitude": 101.6972892, "Latitude": 3.1418593, "Region": "Selangor", "Category": "地缘", "PageNumber": "185" }, "geometry": { "type": "Point", "coordinates": [ 101.6973, 3.1419, 101.6973 ] } },
{ "type": "Feature", "properties": { "Name_CH": "马来西亚高州总会", "Name_ML": "Persatuan Kochow Malaysia", "Name_EN": "Malaysia Kochow Association", "Location": "272, Jalan Pudu, 55100 Kuala Lumpur.", "Longitude": 101.7075772, "Latitude": 3.1427486, "Region": "Selangor", "Category": "地缘", "PageNumber": "185" }, "geometry": { "type": "Point", "coordinates": [ 101.7076, 3.1427, 101.7076 ] } },
{ "type": "Feature", "properties": { "Name_CH": "马来西亚海南会馆联合会", "Name_ML": "Persekutuan Persatuan Hainan Malaysia", "Name_EN": "The Federation of Hainan Association Malaysia", "Location": "Wisma Hainan, 1st Floor, 112- 114, Jalan Pudu, 55100 Kuala Lumpur.", "Longitude": 101.7054357, "Latitude": 3.1446981, "Region": "Selangor", "Category": "地缘", "PageNumber": "185" }, "geometry": { "type": "Point", "coordinates": [ 101.7054, 3.1447, 101.7054 ] } },
{ "type": "Feature", "properties": { "Name_CH": "马来西亚广东会馆联合会", "Name_ML": "Gabungan Persatuan Kwang Malaysia", "Name_EN": "The Federation of Kwang Tung Association Malaysia", "Location": "Suite 501, 5th Floor, 44, Jalan Pudu, 55100 Kuala Lumpur.", "Longitude": 101.7035025, "Latitude": 3.1451011, "Region": "Selangor", "Category": "地缘", "PageNumber": "185" }, "geometry": { "type": "Point", "coordinates": [ 101.7035, 3.1451, 101.7035 ] } },
{ "type": "Feature", "properties": { "Name_CH": "马来西亚安溪会馆联合会", "Name_ML": "Persekutuan Persatuan Persatuan Ann Koai Malaysia", "Name_EN": null, "Location": "Room 5, 5th Floor, Wisma Ann Koai, No.67, Jalan Ampang, 50450 Kuala Lumpur.", "Longitude": 101.6984599, "Latitude": 3.15178, "Region": "Selangor", "Category": "地缘", "PageNumber": "185" }, "geometry": { "type": "Point", "coordinates": [ 101.6985, 3.1518, 101.6985 ] } },
{ "type": "Feature", "properties": { "Name_CH": "马来西亚潮州公会联合会", "Name_ML": "Persekutuan Persatuan-Persatuan Teochew Malaysia", "Name_EN": "The Federation Teochew Association of Malaysia", "Location": "35, 1st Floor, Jalan Ampang, 50450 Kuala Lumpur.", "Longitude": 101.7142178, "Latitude": 3.1590323, "Region": "Selangor", "Category": "地缘", "PageNumber": "185" }, "geometry": { "type": "Point", "coordinates": [ 101.7142, 3.159, 101.7142 ] } },
{ "type": "Feature", "properties": { "Name_CH": "马来西亚南安社团联合会", "Name_ML": null, "Name_EN": "Federation of Nam Ann Association Malaysia", "Location": "No.1 Lorong Haji Taib Satu, 50350 Kuala Lumpur.", "Longitude": 101.6972284, "Latitude": 3.164227, "Region": "Selangor", "Category": "地缘", "PageNumber": "185" }, "geometry": { "type": "Point", "coordinates": [ 101.6972, 3.1642, 101.6972 ] } },
{ "type": "Feature", "properties": { "Name_CH": "乌鲁冷岳加影兴安会馆", "Name_ML": "Persatuan Hin Ann Kajang Ulu Langat", "Name_EN": null, "Location": "15-3, Jalan S10\/2, Section 10, 43000 Kajang, Selangor.", "Longitude": 101.7908337, "Latitude": 2.9896208, "Region": "Selangor", "Category": "地缘", "PageNumber": "186" }, "geometry": { "type": "Point", "coordinates": [ 101.7908, 2.9896, 101.7908 ] } },
{ "type": "Feature", "properties": { "Name_CH": "乌鲁冷岳广东会馆", "Name_ML": "Persatuan Kwang Tung Ulu Langat Kajang", "Name_EN": null, "Location": "16, 2nd&3rd Floor, Jalan Tun Abdul Aziz, 43000 Kajang, Selangor.", "Longitude": 101.7892036, "Latitude": 2.991358, "Region": "Selangor", "Category": "地缘", "PageNumber": "186" }, "geometry": { "type": "Point", "coordinates": [ 101.7892, 2.9914, 101.7892 ] } },
{ "type": "Feature", "properties": { "Name_CH": "乌鲁冷岳福建公会", "Name_ML": "Persatuan Hokkien Ulu Langat", "Name_EN": null, "Location": "3, Jalan Timur, 43000 Kajang, Selangor.", "Longitude": 101.7929183, "Latitude": 2.996164, "Region": "Selangor", "Category": "地缘", "PageNumber": "186" }, "geometry": { "type": "Point", "coordinates": [ 101.7929, 2.9962, 101.7929 ] } },
{ "type": "Feature", "properties": { "Name_CH": "太原公会", "Name_ML": "Peresatuan Tai Guan", "Name_EN": null, "Location": "P1, Jalan Tepi Sungai, 42940 Pulau Kertam, P. Kelang, Selangor.", "Longitude": 101.252654, "Latitude": 3.020617, "Region": "Selangor", "Category": "地缘", "PageNumber": "186" }, "geometry": { "type": "Point", "coordinates": [ 101.2527, 3.0206, 101.2527 ] } },
{ "type": "Feature", "properties": { "Name_CH": "双溪威福建会馆", "Name_ML": null, "Name_EN": "Sungai Way Hokkien Association", "Location": "1-12, 1st floor, Plaza Seri Setia, Jalan SS9\/2, Seri Setia, 47300 Petaling Jaya, Selangor.", "Longitude": 101.6201428, "Latitude": 3.0856461, "Region": "Selangor", "Category": "地缘", "PageNumber": "186" }, "geometry": { "type": "Point", "coordinates": [ 101.6201, 3.0856, 101.6201 ] } },
{ "type": "Feature", "properties": { "Name_CH": "马来西亚兴宁同乡会", "Name_ML": "Persatuan Kaum Xing Ning Malaysia", "Name_EN": null, "Location": "94A, Jalan Changkat Bukit Bintang, 50200 Kuala Lumpur.", "Longitude": 101.709806, "Latitude": 3.1463084, "Region": "Selangor", "Category": "地缘", "PageNumber": "186" }, "geometry": { "type": "Point", "coordinates": [ 101.7098, 3.1463, 101.7098 ] } },
{ "type": "Feature", "properties": { "Name_CH": "马来西亚兴安会馆总会", "Name_ML": null, "Name_EN": "The Federation of Heng Ann Association Malaysia", "Location": "544A, 1st Floor, Batu Complex, Batu 3, Jalan lpoh, 61200 Kuala Lumpur.", "Longitude": 101.6815349, "Latitude": 3.180966, "Region": "Selangor", "Category": "地缘", "PageNumber": "186" }, "geometry": { "type": "Point", "coordinates": [ 101.6815, 3.181, 101.6815 ] } },
{ "type": "Feature", "properties": { "Name_CH": "马来西亚三江总会", "Name_ML": "Persatuan San Kiang Malaysia", "Name_EN": "The Malaysian Federated San Kiang Association", "Location": "104-2, Jalan 2\/23A, Taman Danau Kota, Jalan Genting Klang, 53300 Setapak, Kuala Lumpur.", "Longitude": 101.7184439, "Latitude": 3.200222, "Region": "Selangor", "Category": "地缘", "PageNumber": "186" }, "geometry": { "type": "Point", "coordinates": [ 101.7184, 3.2002, 101.7184 ] } },
{ "type": "Feature", "properties": { "Name_CH": "万挠兴安会馆", "Name_ML": "Persatuan Shing An Rawang", "Name_EN": null, "Location": "14-B, Batu 18, Jalan lpoh, 48000 Rawang, Selangor.", "Longitude": 101.5782548, "Latitude": 3.31447, "Region": "Selangor", "Category": "地缘", "PageNumber": "186" }, "geometry": { "type": "Point", "coordinates": [ 101.5783, 3.3145, 101.5783 ] } },
{ "type": "Feature", "properties": { "Name_CH": "万挠广东会馆", "Name_ML": "Persatuan Kwang Tung Rawang", "Name_EN": null, "Location": "71 Jalan Silang, 48000, Rawang, Selangor.", "Longitude": 101.5827452, "Latitude": 3.333378, "Region": "Selangor", "Category": "地缘", "PageNumber": "186" }, "geometry": { "type": "Point", "coordinates": [ 101.5827, 3.3334, 101.5827 ] } },
{ "type": "Feature", "properties": { "Name_CH": "万挠高州会馆", "Name_ML": "Persatuan Koh Chow Rawang", "Name_EN": null, "Location": "2-B, Jalan Silang, Rawang, 48000 Selangor.", "Longitude": 101.5361726, "Latitude": 3.3605216, "Region": "Selangor", "Category": "地缘", "PageNumber": "186" }, "geometry": { "type": "Point", "coordinates": [ 101.5362, 3.3605, 101.5362 ] } },
{ "type": "Feature", "properties": { "Name_CH": "适耕庄潮州会馆", "Name_ML": "Persatuan Teo Chew Sekinchan", "Name_EN": null, "Location": "135, Jalan Teo Chew, Bagan Sekinchan, Sekinchan, 45400 Selangor.", "Longitude": 101.1000431, "Latitude": 3.5039652, "Region": "Selangor", "Category": "地缘", "PageNumber": "186" }, "geometry": { "type": "Point", "coordinates": [ 101.1, 3.504, 101.1 ] } },
{ "type": "Feature", "properties": { "Name_CH": "乌鲁冷岳加影兴安会馆", "Name_ML": "Persatuan Hin Ann Kajang Ulu Langat", "Name_EN": null, "Location": "15-3, Jalan S10\/2, Section 10, 43000 Kajang, Selangor.", "Longitude": 101.7908337, "Latitude": 2.9896208, "Region": "Selangor", "Category": "地缘", "PageNumber": "186" }, "geometry": { "type": "Point", "coordinates": [ 101.7908, 2.9896, 101.7908 ] } },
{ "type": "Feature", "properties": { "Name_CH": "太原公会", "Name_ML": "Peresatuan Tai Guan", "Name_EN": null, "Location": "P1, Jalan Tepi Sungai, 42940 Pulau Kertam, P. Kelang, Selangor.", "Longitude": 101.252654, "Latitude": 3.020617, "Region": "Selangor", "Category": "地缘", "PageNumber": "186" }, "geometry": { "type": "Point", "coordinates": [ 101.2527, 3.0206, 101.2527 ] } },
{ "type": "Feature", "properties": { "Name_CH": "雪邦福建会馆", "Name_ML": "Persatuan Hokkien Sepang Selangor", "Name_EN": null, "Location": "76, Jalan Besar, Sg. Pelek, 43950 Selangor.", "Longitude": 101.6782802, "Latitude": 2.6756453, "Region": "Selangor", "Category": "地缘", "PageNumber": "187" }, "geometry": { "type": "Point", "coordinates": [ 101.6783, 2.6756, 101.6783 ] } },
{ "type": "Feature", "properties": { "Name_CH": "雪邦琼州会馆", "Name_ML": null, "Name_EN": "Sepang Keng Chew Assn", "Location": "132, Jln Besar, Salak, Sepang, 43900 Selangor.", "Longitude": 101.750606, "Latitude": 2.783345, "Region": "Selangor", "Category": "地缘", "PageNumber": "187" }, "geometry": { "type": "Point", "coordinates": [ 101.7506, 2.7833, 101.7506 ] } },
{ "type": "Feature", "properties": { "Name_CH": "乌鲁冷岳客家公会", "Name_ML": "Persatuan Hakka Hulu Langat", "Name_EN": null, "Location": "6A, Jalan Besac Kajang, 43000 Selangor.", "Longitude": 101.752627, "Latitude": 2.938322, "Region": "Selangor", "Category": "地缘", "PageNumber": "187" }, "geometry": { "type": "Point", "coordinates": [ 101.7526, 2.9383, 101.7526 ] } },
{ "type": "Feature", "properties": { "Name_CH": "乌鲁冷岳兴安会馆", "Name_ML": "Persatuan Hin Ann Hulu langat Selangor", "Name_EN": null, "Location": "15-3, Jalan S10\/2, Section 10, 43000 Kajang, Selangor.", "Longitude": 101.7908337, "Latitude": 2.9896208, "Region": "Selangor", "Category": "地缘", "PageNumber": "187" }, "geometry": { "type": "Point", "coordinates": [ 101.7908, 2.9896, 101.7908 ] } },
{ "type": "Feature", "properties": { "Name_CH": "雪兰莪福建会馆", "Name_ML": null, "Name_EN": "Selangor Hokkien Association", "Location": "41-C, Jalan Hang Lekiu, 50100 Kuala Lumpur.", "Longitude": 101.6983102, "Latitude": 3.14833, "Region": "Selangor", "Category": "地缘", "PageNumber": "187" }, "geometry": { "type": "Point", "coordinates": [ 101.6983, 3.1483, 101.6983 ] } },
{ "type": "Feature", "properties": { "Name_CH": "雪兰莪安溪会馆", "Name_ML": null, "Name_EN": "Selangor Ann Khoe Association", "Location": "5th Floor, Room 5, 67 Jalan Ampang, 50450 Kuala Lumpur.", "Longitude": 101.6984599, "Latitude": 3.15178, "Region": "Selangor", "Category": "地缘", "PageNumber": "187" }, "geometry": { "type": "Point", "coordinates": [ 101.6985, 3.1518, 101.6985 ] } },
{ "type": "Feature", "properties": { "Name_CH": "雪兰莪暨吉隆坡南安会馆", "Name_ML": "Persatuan Nan Ann Selangor Dan Kuala Lumpur", "Name_EN": "The Selangor And Kuala Lumpur Nan Ann Association", "Location": "1, Lorong Haji Taib Satu, 50350 Kuala Lumpur.", "Longitude": 101.6972284, "Latitude": 3.164227, "Region": "Selangor", "Category": "地缘", "PageNumber": "187" }, "geometry": { "type": "Point", "coordinates": [ 101.6972, 3.1642, 101.6972 ] } },
{ "type": "Feature", "properties": { "Name_CH": "乌鲁音答鲁福建公所", "Name_ML": "Persatuan Hokkien Ulu Yam Bahru", "Name_EN": null, "Location": "18, Jalan Besar, Ulu Yam Bahru, Btg Kali, 44300 Selangor.", "Longitude": 101.6570457, "Latitude": 3.4336317, "Region": "Selangor", "Category": "地缘", "PageNumber": "187" }, "geometry": { "type": "Point", "coordinates": [ 101.657, 3.4336, 101.657 ] } },
{ "type": "Feature", "properties": { "Name_CH": "乌雪区安溪会馆", "Name_ML": "Persatuan Ann Koai Hulu Selangor", "Name_EN": null, "Location": "59A, Jalan Melanti 1, Bandar Utama, 44300 Batang Kali, Selangor.", "Longitude": 101.6555339, "Latitude": 3.4582, "Region": "Selangor", "Category": "地缘", "PageNumber": "187" }, "geometry": { "type": "Point", "coordinates": [ 101.6555, 3.4582, 101.6555 ] } },
{ "type": "Feature", "properties": { "Name_CH": "新古毛福建会馆", "Name_ML": "Persatuan Kuala Kubu Bharu", "Name_EN": null, "Location": "9, Jalan Maxwell Kuala Kubu Bharu, 44000 Selangor.", "Longitude": 101.658259, "Latitude": 3.5643032, "Region": "Selangor", "Category": "地缘", "PageNumber": "187" }, "geometry": { "type": "Point", "coordinates": [ 101.6583, 3.5643, 101.6583 ] } },
{ "type": "Feature", "properties": { "Name_CH": "新古毛高州会馆", "Name_ML": "Persatuan Kow Chow Kuala Kubu Bharu", "Name_EN": null, "Location": "49, Jalan Kamaruddun, 44000 Kuala Kubu Bharu, Hulu Selangor, Selangor.", "Longitude": 101.6593674, "Latitude": 3.5646081, "Region": "Selangor", "Category": "地缘", "PageNumber": "187" }, "geometry": { "type": "Point", "coordinates": [ 101.6594, 3.5646, 101.6594 ] } },
{ "type": "Feature", "properties": { "Name_CH": "乌鲁雪兰莪惠州会馆", "Name_ML": "Persatuan Fui Chiu Ulu Selangor", "Name_EN": null, "Location": "1, Jalan Rasathurai, K Kubu Bahru, 44000 Ulu Selangor, Selangor.", "Longitude": 101.660733, "Latitude": 3.5658971, "Region": "Selangor", "Category": "地缘", "PageNumber": "187" }, "geometry": { "type": "Point", "coordinates": [ 101.6607, 3.5659, 101.6607 ] } },
{ "type": "Feature", "properties": { "Name_CH": "雪兰莪安溪会馆", "Name_ML": null, "Name_EN": "Selangor Ann Khoe Association", "Location": "5th Floor, Room 5, 67 Jalan Ampang, 50450 Kuala Lumpur.", "Longitude": 101.6984599, "Latitude": 3.15178, "Region": "Selangor", "Category": "地缘", "PageNumber": "187" }, "geometry": { "type": "Point", "coordinates": [ 101.6985, 3.1518, 101.6985 ] } },
{ "type": "Feature", "properties": { "Name_CH": "雪兰莪蕉赖区福建公会", "Name_ML": "Persatuan Hokkien Cheras, Selangor", "Name_EN": null, "Location": "No.9, 2nd Floor, Pekan Batu l1, Cheras, Jalan Balakang, 43200 Selangor.", "Longitude": 101.7708079, "Latitude": 3.0411372, "Region": "Selangor", "Category": "地缘", "PageNumber": "188" }, "geometry": { "type": "Point", "coordinates": [ 101.7708, 3.0411, 101.7708 ] } },
{ "type": "Feature", "properties": { "Name_CH": "雪兰莪永春会馆", "Name_ML": "Persatuan Eng Choon Selangor", "Name_EN": null, "Location": "10, 2nd Floor, Jalan Tengku Diauddin, 41000 Klang, Selangor.", "Longitude": 101.4474078, "Latitude": 3.0423804, "Region": "Selangor", "Category": "地缘", "PageNumber": "188" }, "geometry": { "type": "Point", "coordinates": [ 101.4474, 3.0424, 101.4474 ] } },
{ "type": "Feature", "properties": { "Name_CH": "雪兰莪厦门公会", "Name_ML": "Persatuan Amoy Selangor", "Name_EN": "Selangor Amoy Association", "Location": "77A, Jalan Raya Barat, 41000 Klang, Selangor.", "Longitude": 101.4423495, "Latitude": 3.0433149, "Region": "Selangor", "Category": "地缘", "PageNumber": "188" }, "geometry": { "type": "Point", "coordinates": [ 101.4423, 3.0433, 101.4423 ] } },
{ "type": "Feature", "properties": { "Name_CH": "雪兰莪诏安东山会馆", "Name_ML": null, "Name_EN": "Selangor Chau Tong Sun Association", "Location": "20, Jalan Pasar, Klang, 41400 Selangor.", "Longitude": 101.4450683, "Latitude": 3.0490671, "Region": "Selangor", "Category": "地缘", "PageNumber": "188" }, "geometry": { "type": "Point", "coordinates": [ 101.4451, 3.0491, 101.4451 ] } },
{ "type": "Feature", "properties": { "Name_CH": "雪兰莪三水会馆", "Name_ML": "Persatuan Sam Shui Selangor", "Name_EN": null, "Location": "15-1A, Jalan Perdana 6\/6, Pandan Perdana, 55300 Kuala Lumpur.", "Longitude": 101.7436214, "Latitude": 3.1127911, "Region": "Selangor", "Category": "地缘", "PageNumber": "188" }, "geometry": { "type": "Point", "coordinates": [ 101.7436, 3.1128, 101.7436 ] } },
{ "type": "Feature", "properties": { "Name_CH": "雪兰莪暨联邦直辖区高要会馆", "Name_ML": null, "Name_EN": "Selangor & FT Koh Yew Association", "Location": "26-A, Lorong Meranti Satu, Off Jalan Kenanga, 52100 Kuala Lumpur.", "Longitude": 101.707367, "Latitude": 3.137263, "Region": "Selangor", "Category": "地缘", "PageNumber": "188" }, "geometry": { "type": "Point", "coordinates": [ 101.7074, 3.1373, 101.7074 ] } },
{ "type": "Feature", "properties": { "Name_CH": "雪兰莪暨联邦直辖区中山同乡会", "Name_ML": "Persatuan Chung Shan Selangor & WP Chung San", "Name_EN": null, "Location": "80 Jalan Rotan, Off Jalan Kg Attap, 50460 Kuala Lumpur.", "Longitude": 101.6966197, "Latitude": 3.1381006, "Region": "Selangor", "Category": "地缘", "PageNumber": "188" }, "geometry": { "type": "Point", "coordinates": [ 101.6966, 3.1381, 101.6966 ] } },
{ "type": "Feature", "properties": { "Name_CH": "雪兰莪三江公会", "Name_ML": "Persatuan San Kiang Selangor", "Name_EN": "Selangor San Kiang Association", "Location": "104-2, Jalan 2\/23A, Taman Danau Kota, Jalan Genting Klang, Setapak, 53300 Kuala Lumpur.", "Longitude": 101.7184439, "Latitude": 3.200222, "Region": "Selangor", "Category": "地缘", "PageNumber": "188" }, "geometry": { "type": "Point", "coordinates": [ 101.7184, 3.2002, 101.7184 ] } },
{ "type": "Feature", "properties": { "Name_CH": "雪兰莪三江公会", "Name_ML": "Persatuan San Kiang Selangor", "Name_EN": null, "Location": "104-2, Jalan 2\/23A, Taman Danau Kota, Jalan Genting Klang, 53300 Setapak, Kuala Lumpur.", "Longitude": 101.7184439, "Latitude": 3.200222, "Region": "Selangor", "Category": "地缘", "PageNumber": "188" }, "geometry": { "type": "Point", "coordinates": [ 101.7184, 3.2002, 101.7184 ] } },
{ "type": "Feature", "properties": { "Name_CH": "雪兰莪双文丹福建会馆", "Name_ML": "Hokkien Hoay Kuan Serendah", "Name_EN": null, "Location": "1, Jalan Tokong, Serendah, Ulu Selangor. 48200 Selangor.", "Longitude": 101.5745961, "Latitude": 3.3220334, "Region": "Selangor", "Category": "地缘", "PageNumber": "188" }, "geometry": { "type": "Point", "coordinates": [ 101.5746, 3.322, 101.5746 ] } },
{ "type": "Feature", "properties": { "Name_CH": "雪兰莪乌鲁音容鲁广东会馆", "Name_ML": null, "Name_EN": "The Ulu Yam Bahru Kwang Tung Association Selan", "Location": "74 Jalan Besar, Ulu Yam Bahru, 44300 Selangor.", "Longitude": 101.6573045, "Latitude": 3.4336645, "Region": "Selangor", "Category": "地缘", "PageNumber": "188" }, "geometry": { "type": "Point", "coordinates": [ 101.6573, 3.4337, 101.6573 ] } },
{ "type": "Feature", "properties": { "Name_CH": "雪兰莪三江公会", "Name_ML": "Persatuan San Kiang Selangor", "Name_EN": "Selangor San Kiang Association", "Location": "104-2, Jalan 2\/23A, Taman Danau Kota, Jalan Genting Klang, Setapak, 53300 Kuala Lumpur.", "Longitude": 101.7184439, "Latitude": 3.200222, "Region": "Selangor", "Category": "地缘", "PageNumber": "188" }, "geometry": { "type": "Point", "coordinates": [ 101.7184, 3.2002, 101.7184 ] } },
{ "type": "Feature", "properties": { "Name_CH": "雪兰莪三江公会", "Name_ML": "Persatuan San Kiang Selangor", "Name_EN": null, "Location": "104-2, Jalan 2\/23A, Taman Danau Kota, Jalan Genting Klang, 53300 Setapak, Kuala Lumpur.", "Longitude": 101.7184439, "Latitude": 3.200222, "Region": "Selangor", "Category": "地缘", "PageNumber": "188" }, "geometry": { "type": "Point", "coordinates": [ 101.7184, 3.2002, 101.7184 ] } },
{ "type": "Feature", "properties": { "Name_CH": "雪隆海南会馆", "Name_ML": "Persatuan Hainan Selangor & Wilayah Persekutuan", "Name_EN": "The Selangor & Federal Territory Hainan Association", "Location": "65, Persiaran Endah, Off Jalan Syed Putra, 50460 Kuala Lumpur.", "Longitude": 101.6876702, "Latitude": 3.1217806, "Region": "Selangor", "Category": "地缘", "PageNumber": "189" }, "geometry": { "type": "Point", "coordinates": [ 101.6877, 3.1218, 101.6877 ] } },
{ "type": "Feature", "properties": { "Name_CH": "雪隆茶阳(大埔)会馆", "Name_ML": "Persatuan Char Yong Selangor Dan Wilayah Persekutuan", "Name_EN": null, "Location": "2-4, Jalan Lengkongan Brunei Off Jalan Pudu, 55100 Kuala Lumpur.", "Longitude": 101.7110369, "Latitude": 3.1380545, "Region": "Selangor", "Category": "地缘", "PageNumber": "189" }, "geometry": { "type": "Point", "coordinates": [ 101.711, 3.1381, 101.711 ] } },
{ "type": "Feature", "properties": { "Name_CH": "雪隆茶阳回春馆", "Name_ML": "Persatuan Chha Yong Fay Choon Kuan Selangor & Wilayah Persekutuan", "Name_EN": null, "Location": "2-4, Jalan Lengkongan Brunei Off Jalan Pudu, 55100 Kuala Lumpur.", "Longitude": 101.7110369, "Latitude": 3.1380545, "Region": "Selangor", "Category": "地缘", "PageNumber": "189" }, "geometry": { "type": "Point", "coordinates": [ 101.711, 3.1381, 101.711 ] } },
{ "type": "Feature", "properties": { "Name_CH": "雪隆茶阳励志社", "Name_ML": "Persatuan Cha Yong Li Chee Selangor Dan Wilayah Persekutuan", "Name_EN": null, "Location": "2-4, Jalan Lengkongan Brunei, Off Jalan Pudu, 55100 Kuala Lumpur.", "Longitude": 101.7110369, "Latitude": 3.1380545, "Region": "Selangor", "Category": "地缘", "PageNumber": "189" }, "geometry": { "type": "Point", "coordinates": [ 101.711, 3.1381, 101.711 ] } },
{ "type": "Feature", "properties": { "Name_CH": "雪隆冈州会馆", "Name_ML": "Persatuan Kong Chau Kuala Lumpur & Selangor", "Name_EN": null, "Location": "306C-308C, Jalan Pudu, 55100 Kuala Lumpur.", "Longitude": 101.7099702, "Latitude": 3.1389998, "Region": "Selangor", "Category": "地缘", "PageNumber": "189" }, "geometry": { "type": "Point", "coordinates": [ 101.71, 3.139, 101.71 ] } },
{ "type": "Feature", "properties": { "Name_CH": "雪隆福州会馆", "Name_ML": "Persatuan Foochow Selangor & Kuala Lumpur", "Name_EN": null, "Location": "18M, Lorong Thambi 2, Jalan Pudu, 55100 Kuala Lumpur.", "Longitude": 101.7132518, "Latitude": 3.1394009, "Region": "Selangor", "Category": "地缘", "PageNumber": "189" }, "geometry": { "type": "Point", "coordinates": [ 101.7133, 3.1394, 101.7133 ] } },
{ "type": "Feature", "properties": { "Name_CH": "雪隆广肇会馆", "Name_ML": "Persatuan Kwong Siew Selangor Dan Wilayah Persekutuan", "Name_EN": "Selangor And Federal Territory Kwong Siew Association", "Location": "168, Jalan Tun H.S.Lee, 50000 Kuala Lumpur. 147-149, 3rd Floor, Wisma Kwong Siew.", "Longitude": 101.6963798, "Latitude": 3.1441, "Region": "Selangor", "Category": "地缘", "PageNumber": "189" }, "geometry": { "type": "Point", "coordinates": [ 101.6964, 3.1441, 101.6964 ] } },
{ "type": "Feature", "properties": { "Name_CH": "雪隆广东会馆", "Name_ML": null, "Name_EN": "The Sei & FT Kwang Tung Association", "Location": "Suite 501, 5th Floor, 44, Jalan Pudu, 55100 Kuala Lumpur.", "Longitude": 101.7035025, "Latitude": 3.1451011, "Region": "Selangor", "Category": "地缘", "PageNumber": "189" }, "geometry": { "type": "Point", "coordinates": [ 101.7035, 3.1451, 101.7035 ] } },
{ "type": "Feature", "properties": { "Name_CH": "雪隆番禺会馆", "Name_ML": "Persatuan Poon Yu Selangor & Kuala Lumpur", "Name_EN": null, "Location": "404, Tingkat 1, Jalan Pudu, 55100 Kuala Lumpur.", "Longitude": 101.6988886, "Latitude": 3.1454349, "Region": "Selangor", "Category": "地缘", "PageNumber": "189" }, "geometry": { "type": "Point", "coordinates": [ 101.6989, 3.1454, 101.6989 ] } },
{ "type": "Feature", "properties": { "Name_CH": "雪隆广西会馆", "Name_ML": "Persatuan Kwangsi Selangor & Kuala Lumpur", "Name_EN": null, "Location": "12&14, Tingkat 3, Jalan Pudu, 55100 Kuala Lumpur.", "Longitude": 101.6988886, "Latitude": 3.1454349, "Region": "Selangor", "Category": "地缘", "PageNumber": "189" }, "geometry": { "type": "Point", "coordinates": [ 101.6989, 3.1454, 101.6989 ] } },
{ "type": "Feature", "properties": { "Name_CH": "雪隆东安会馆", "Name_ML": "Persatuan Tong On Selangor & Wilayah Persekutuan", "Name_EN": null, "Location": "46-48, Jalan Berangan, 50200 Kuala Lumpur.", "Longitude": 101.7086323, "Latitude": 3.1480853, "Region": "Selangor", "Category": "地缘", "PageNumber": "189" }, "geometry": { "type": "Point", "coordinates": [ 101.7086, 3.1481, 101.7086 ] } },
{ "type": "Feature", "properties": { "Name_CH": "雪隆潮州会馆", "Name_ML": "Persatuan Teo Chew Selangor Dan Kuala Lumpur", "Name_EN": "The Selangor And Kuala Lumpur Teo Chew Association", "Location": "35, (1st Floor), Jalan Ampang, 50450 Kuala Lumpur.", "Longitude": 101.7142178, "Latitude": 3.1590323, "Region": "Selangor", "Category": "地缘", "PageNumber": "189" }, "geometry": { "type": "Point", "coordinates": [ 101.7142, 3.159, 101.7142 ] } },
{ "type": "Feature", "properties": { "Name_CH": "雪隆茶阳回春馆", "Name_ML": "Persatuan Chha Yong Fay Choon Kuan Selangor & Wilayah Persekutuan", "Name_EN": null, "Location": "2-4, Jalan Lengkongan Brunei Off Jalan Pudu, 55100 Kuala Lumpur.", "Longitude": 101.7110369, "Latitude": 3.1380545, "Region": "Selangor", "Category": "地缘", "PageNumber": "189" }, "geometry": { "type": "Point", "coordinates": [ 101.711, 3.1381, 101.711 ] } },
{ "type": "Feature", "properties": { "Name_CH": "雪隆茶阳励志社", "Name_ML": "Persatuan Cha Yong Li Chee Selangor Dan Wilayah Persekutuan", "Name_EN": null, "Location": "2-4, Jalan Lengkongan Brunei, Off Jalan Pudu, 55100 Kuala Lumpur.", "Longitude": 101.7110369, "Latitude": 3.1380545, "Region": "Selangor", "Category": "地缘", "PageNumber": "189" }, "geometry": { "type": "Point", "coordinates": [ 101.711, 3.1381, 101.711 ] } },
{ "type": "Feature", "properties": { "Name_CH": "雪隆顺德会馆", "Name_ML": "Persatuan Soon Tuck Selangor & Wilayah Persekutuan", "Name_EN": null, "Location": "61-3, Jalan SP 2\/2, Taman Serdang Perdana Seksyen 2, 43300 Seri Kembangan Selangor.", "Longitude": 101.7077598, "Latitude": 3.0317934, "Region": "Selangor", "Category": "地缘", "PageNumber": "190" }, "geometry": { "type": "Point", "coordinates": [ 101.7078, 3.0318, 101.7078 ] } },
{ "type": "Feature", "properties": { "Name_CH": "雪隆同安会馆", "Name_ML": "Persatuan Tong Ann Sei & Wilayah Persekutuan Kuala Lumpur", "Name_EN": null, "Location": "203, Jalan Kangsar, Off Jalan Meru, Klang, 41050 Selangor.", "Longitude": 101.4497069, "Latitude": 3.0506102, "Region": "Selangor", "Category": "地缘", "PageNumber": "190" }, "geometry": { "type": "Point", "coordinates": [ 101.4497, 3.0506, 101.4497 ] } },
{ "type": "Feature", "properties": { "Name_CH": "雪隆万宁同乡会", "Name_ML": "Persatuan Ban Ning Selangor Dan Wilayah Pesekutuan", "Name_EN": "The Ban Ning Association of The Selangor & Federal Territory", "Location": "12-2-6, Jalan Sri Jati Satu, Taman Sri Jati, Off Jalan Puchong, 58200 Kuala Lumpur.", "Longitude": 101.6645537, "Latitude": 3.0760177, "Region": "Selangor", "Category": "地缘", "PageNumber": "190" }, "geometry": { "type": "Point", "coordinates": [ 101.6646, 3.076, 101.6646 ] } },
{ "type": "Feature", "properties": { "Name_CH": "雪隆客家总会", "Name_ML": "Persatuan Hakka Wilayah Persekutuan Kuala Lumpur & Selangor", "Name_EN": null, "Location": "30A, Jalan Mutiara Raya, Tmn Mutiara, Cheras, 56000 Kuala Lumpur.", "Longitude": 101.7397478, "Latitude": 3.0911939, "Region": "Selangor", "Category": "地缘", "PageNumber": "190" }, "geometry": { "type": "Point", "coordinates": [ 101.7397, 3.0912, 101.7397 ] } },
{ "type": "Feature", "properties": { "Name_CH": "雪隆龙岩会馆", "Name_ML": "Persatuan Lung Yen Kuala Lumpur & Selangor", "Name_EN": null, "Location": "57C, Jalan Jejaka 1, Taman Maluri Cheras, 55100 Kuala Lumpur.", "Longitude": 101.7347544, "Latitude": 3.1299393, "Region": "Selangor", "Category": "地缘", "PageNumber": "190" }, "geometry": { "type": "Point", "coordinates": [ 101.7348, 3.1299, 101.7348 ] } },
{ "type": "Feature", "properties": { "Name_CH": "雪隆会甯公会", "Name_ML": "Persatuan Wui Leng Selangor Dan Kuala Lumpur", "Name_EN": "Selangor & Kuala Lumput Wui Leng Association", "Location": "8, Jalan Panggong, 50000 Kuala Lumpur.", "Longitude": 101.6972892, "Latitude": 3.1418593, "Region": "Selangor", "Category": "地缘", "PageNumber": "190" }, "geometry": { "type": "Point", "coordinates": [ 101.6973, 3.1419, 101.6973 ] } },
{ "type": "Feature", "properties": { "Name_CH": "雪隆嘉应会馆", "Name_ML": "Persatuan Ku Yin Wilayah Persekutuan Kuala Lumpur & Selangor", "Name_EN": null, "Location": "63B, (Tingkat 3) Jalan Sultan, 50000 Kuala Lumpur.", "Longitude": 101.6970129, "Latitude": 3.1425805, "Region": "Selangor", "Category": "地缘", "PageNumber": "190" }, "geometry": { "type": "Point", "coordinates": [ 101.697, 3.1426, 101.697 ] } },
{ "type": "Feature", "properties": { "Name_CH": "雪隆台山会馆", "Name_ML": "Persatuan Thoy San Selangor & Kuala Lumpur", "Name_EN": null, "Location": "13, Tingkat 2, Jalan Tong Shin, 50200 Kuala Lumpur.", "Longitude": 101.7069977, "Latitude": 3.1448262, "Region": "Selangor", "Category": "地缘", "PageNumber": "190" }, "geometry": { "type": "Point", "coordinates": [ 101.707, 3.1448, 101.707 ] } },
{ "type": "Feature", "properties": { "Name_CH": "雪隆惠州会馆", "Name_ML": "Persatuan Fui Chiu Wilayah Persekutuan Dan Selangor", "Name_EN": "The Selangor And Federal Territory Fui Chiu Wilayah Persekutuan Dan Selangor", "Location": "Tingkat 6, Wisma Fui Chiu, 8-12, Jalan Petaling, 50000 Kuala Lumpur.", "Longitude": 101.6974449, "Latitude": 3.1456439, "Region": "Selangor", "Category": "地缘", "PageNumber": "190" }, "geometry": { "type": "Point", "coordinates": [ 101.6974, 3.1456, 101.6974 ] } },
{ "type": "Feature", "properties": { "Name_CH": "雪隆鹤山会馆", "Name_ML": "Selangor & Kuala Lumpur Hock San Association", "Name_EN": null, "Location": "8, Jalan Rembia, 50200 Kuala Lumpur.", "Longitude": 101.7086172, "Latitude": 3.1465461, "Region": "Selangor", "Category": "地缘", "PageNumber": "190" }, "geometry": { "type": "Point", "coordinates": [ 101.7086, 3.1465, 101.7086 ] } },
{ "type": "Feature", "properties": { "Name_CH": "雪隆清远会馆", "Name_ML": "Persatuan Ching Yuen Selangor Dan Wilayah Persekutuan", "Name_EN": null, "Location": "35A, Jalan Berangan, 50200 Kuala Lumpur.", "Longitude": 101.7086542, "Latitude": 3.1476312, "Region": "Selangor", "Category": "地缘", "PageNumber": "190" }, "geometry": { "type": "Point", "coordinates": [ 101.7087, 3.1476, 101.7087 ] } },
{ "type": "Feature", "properties": { "Name_CH": "雪隆南安会馆", "Name_ML": null, "Name_EN": "Selangor & Kuala Lumpur Nam Ann Association", "Location": "1, Lorong Haji Taib Satu, Off Jalan Tuanku Abdul Rahman, 50350 Kuala Lumpur.", "Longitude": 101.6972284, "Latitude": 3.164227, "Region": "Selangor", "Category": "地缘", "PageNumber": "190" }, "geometry": { "type": "Point", "coordinates": [ 101.6972, 3.1642, 101.6972 ] } },
{ "type": "Feature", "properties": { "Name_CH": "雪隆晋江会馆", "Name_ML": null, "Name_EN": "Selangor & Kuala Lumpur Chin Kang Association", "Location": "64, Jalan Kuantan, 53200 Kuala Lumpur.", "Longitude": 101.7027463, "Latitude": 3.1752332, "Region": "Selangor", "Category": "地缘", "PageNumber": "190" }, "geometry": { "type": "Point", "coordinates": [ 101.7027, 3.1752, 101.7027 ] } },
{ "type": "Feature", "properties": { "Name_CH": "雪隆客家总会", "Name_ML": "Persatuan Hakka Wilayah Persekutuan Kuala Lumpur & Selangor", "Name_EN": null, "Location": "30A, Jalan Mutiara Raya, Tmn Mutiara, Cheras, 56000 Kuala Lumpur.", "Longitude": 101.7397478, "Latitude": 3.0911939, "Region": "Selangor", "Category": "地缘", "PageNumber": "190" }, "geometry": { "type": "Point", "coordinates": [ 101.7397, 3.0912, 101.7397 ] } },
{ "type": "Feature", "properties": { "Name_CH": "雪隆会甯公会", "Name_ML": "Persatuan Wui Leng Selangor Dan Kuala Lumpur", "Name_EN": "Selangor & Kuala Lumput Wui Leng Association", "Location": "8, Jalan Panggong, 50000 Kuala Lumpur.", "Longitude": 101.6972892, "Latitude": 3.1418593, "Region": "Selangor", "Category": "地缘", "PageNumber": "190" }, "geometry": { "type": "Point", "coordinates": [ 101.6973, 3.1419, 101.6973 ] } },
{ "type": "Feature", "properties": { "Name_CH": "雪隆南安会馆", "Name_ML": null, "Name_EN": "Selangor & Kuala Lumpur Nam Ann Association", "Location": "1, Lorong Haji Taib Satu, Off Jalan Tuanku Abdul Rahman, 50350 Kuala Lumpur.", "Longitude": 101.6972284, "Latitude": 3.164227, "Region": "Selangor", "Category": "地缘", "PageNumber": "190" }, "geometry": { "type": "Point", "coordinates": [ 101.6972, 3.1642, 101.6972 ] } },
{ "type": "Feature", "properties": { "Name_CH": "丹绒士拔谢氏宗祠", "Name_ML": null, "Name_EN": "Chia Ancestral Temple Tanjung Sepat", "Location": "660, Jalan Timur, Tanjung Sepat Kuala Langat, 42800 Selangor.", "Longitude": 101.522262, "Latitude": 2.832357, "Region": "Selangor", "Category": "血缘", "PageNumber": "191" }, "geometry": { "type": "Point", "coordinates": [ 101.5223, 2.8324, 101.5223 ] } },
{ "type": "Feature", "properties": { "Name_CH": "巴生滨海陈氏宗亲会", "Name_ML": "Persatuan Tan Klang Dan Pantai Klang", "Name_EN": null, "Location": "No.32-B, Jalan Dato Yusof Shahbudin 44,Taman Mewah Jaya, 41200 Klang Selangor.", "Longitude": 101.4691725, "Latitude": 3.0091313, "Region": "Selangor", "Category": "血缘", "PageNumber": "191" }, "geometry": { "type": "Point", "coordinates": [ 101.4692, 3.0091, 101.4692 ] } },
{ "type": "Feature", "properties": { "Name_CH": "巴生滨海区林氏宗亲会", "Name_ML": "Persatuan Keturunan Um Pantai Klang", "Name_EN": null, "Location": "69-B, Lebuh Berangan, 42000 Pelabuhan Klang, Selangor", "Longitude": 101.366035, "Latitude": 3.020856, "Region": "Selangor", "Category": "血缘", "PageNumber": "191" }, "geometry": { "type": "Point", "coordinates": [ 101.366, 3.0209, 101.366 ] } },
{ "type": "Feature", "properties": { "Name_CH": "浮罗吉胆谢氏公会", "Name_ML": "Persatuan Keturunan Chia", "Name_EN": null, "Location": "6P, Jalan Merdeka, Pulau Ketam, Port Klang, 42940 Selangor.", "Longitude": 101.366035, "Latitude": 3.020856, "Region": "Selangor", "Category": "血缘", "PageNumber": "191" }, "geometry": { "type": "Point", "coordinates": [ 101.366, 3.0209, 101.366 ] } },
{ "type": "Feature", "properties": { "Name_CH": "浮罗吉胆蔡氏公会", "Name_ML": null, "Name_EN": null, "Location": "76-K, Pulau Ketam, 42490 Selangor.", "Longitude": 101.2467116, "Latitude": 3.0334114, "Region": "Selangor", "Category": "血缘", "PageNumber": "191" }, "geometry": { "type": "Point", "coordinates": [ 101.2467, 3.0334, 101.2467 ] } },
{ "type": "Feature", "properties": { "Name_CH": "东关伟公陈氏公会", "Name_ML": "Persatuan Tong Kwan Wee Kong Tan Sze", "Name_EN": null, "Location": "114B, Jalan Pekan Baru, Off Jalan Meru, 41050 Klang Selangor.", "Longitude": 101.399359, "Latitude": 3.106163, "Region": "Selangor", "Category": "血缘", "PageNumber": "191" }, "geometry": { "type": "Point", "coordinates": [ 101.3994, 3.1062, 101.3994 ] } },
{ "type": "Feature", "properties": { "Name_CH": "雪隆兴安会馆", "Name_ML": "Persatuan Shing An Selangor & Wilayah Persekutuan", "Name_EN": null, "Location": "13-15, Jalan Thambapillal Brickfields, 50470 Kuala Lumpur.", "Longitude": 101.6886813, "Latitude": 3.1328514, "Region": "Selangor", "Category": "地缘", "PageNumber": "191" }, "geometry": { "type": "Point", "coordinates": [ 101.6887, 3.1329, 101.6887 ] } },
{ "type": "Feature", "properties": { "Name_CH": "吉隆坡谢氏联宗会", "Name_ML": null, "Name_EN": "The Chia Clansmen Association Of Kuala Lumpur", "Location": "48, 3rd Floor, Jalan Kampung Attap, 50460 Kuala Lumpur", "Longitude": 101.696089, "Latitude": 3.137838, "Region": "Selangor", "Category": "血缘", "PageNumber": "191" }, "geometry": { "type": "Point", "coordinates": [ 101.6961, 3.1378, 101.6961 ] } },
{ "type": "Feature", "properties": { "Name_CH": "马来西亚埔联总会", "Name_ML": null, "Name_EN": "The Federation of Taipu (Cha Yong) Associations Malaysia", "Location": "2-4, Jalan Lengkongan Brunal, off Jalan Pudu, 55100 Kuala Lumpur.", "Longitude": 101.7110369, "Latitude": 3.1380545, "Region": "Selangor", "Category": "地缘", "PageNumber": "191" }, "geometry": { "type": "Point", "coordinates": [ 101.711, 3.1381, 101.711 ] } },
{ "type": "Feature", "properties": { "Name_CH": "昉思江夏堂", "Name_ML": "Rasa Kong Har Tong Association", "Name_EN": null, "Location": "21,Jalan Kuala Kali, Rasa, Ulu Selangor, 44200 Selangor", "Longitude": 101.6330512, "Latitude": 3.4963635, "Region": "Selangor", "Category": "血缘", "PageNumber": "191" }, "geometry": { "type": "Point", "coordinates": [ 101.6331, 3.4964, 101.6331 ] } },
{ "type": "Feature", "properties": { "Name_CH": "吁鲁安南高州会馆", "Name_ML": null, "Name_EN": "Kho Chow Association Ulu Bernam Tanjung Malim", "Location": "76, Jalan Besar Ulu Bernam, 35900 Tanjung Malim, Perak.", "Longitude": 101.5263564, "Latitude": 3.6713369, "Region": "Selangor", "Category": "地缘", "PageNumber": "191" }, "geometry": { "type": "Point", "coordinates": [ 101.5264, 3.6713, 101.5264 ] } },
{ "type": "Feature", "properties": { "Name_CH": "丹绒士拔谢氏宗祠", "Name_ML": null, "Name_EN": "Chia Ancestral Temple Tanjung Sepat", "Location": "660, Jalan Timur, Tanjung Sepat Kuala Langat, 42800 Selangor.", "Longitude": 101.522262, "Latitude": 2.832357, "Region": "Selangor", "Category": "血缘", "PageNumber": "191" }, "geometry": { "type": "Point", "coordinates": [ 101.5223, 2.8324, 101.5223 ] } },
{ "type": "Feature", "properties": { "Name_CH": "马来西亚埔联总会", "Name_ML": null, "Name_EN": "The Federation of Taipu (Cha Yong) Associations Malaysia", "Location": "2-4, Jalan Lengkongan Brunal, off Jalan Pudu, 55100 Kuala Lumpur.", "Longitude": 101.7110369, "Latitude": 3.1380545, "Region": "Selangor", "Category": "地缘", "PageNumber": "191" }, "geometry": { "type": "Point", "coordinates": [ 101.711, 3.1381, 101.711 ] } },
{ "type": "Feature", "properties": { "Name_CH": "昉思江夏堂", "Name_ML": "Rasa Kong Har Tong Association", "Name_EN": null, "Location": "21,Jalan Kuala Kali, Rasa, Ulu Selangor, 44200 Selangor", "Longitude": 101.6330512, "Latitude": 3.4963635, "Region": "Selangor", "Category": "血缘", "PageNumber": "191" }, "geometry": { "type": "Point", "coordinates": [ 101.6331, 3.4964, 101.6331 ] } },
{ "type": "Feature", "properties": { "Name_CH": "马来西亚黄氏登进家族会", "Name_ML": "Persatuan Keluarga Ng Teng Chin Malaysia", "Name_EN": null, "Location": "No.2616, Wisma Teng Chin, Persiaran Tengku Ampuan Rahimah, 41200 Klang, Selangor.", "Longitude": 101.4423181, "Latitude": 3.029238, "Region": "Selangor", "Category": "血缘", "PageNumber": "192" }, "geometry": { "type": "Point", "coordinates": [ 101.4423, 3.0292, 101.4423 ] } },
{ "type": "Feature", "properties": { "Name_CH": "马来西亚海南林氏公会", "Name_ML": "Persatuan Keturunan Lim Hainan Malaysia", "Name_EN": null, "Location": "149-151, Jalan Sultan Abdul Samad, Brickfields, 50470 Kuala Lumpur", "Longitude": 101.6903605, "Latitude": 3.1329997, "Region": "Selangor", "Category": "血缘", "PageNumber": "192" }, "geometry": { "type": "Point", "coordinates": [ 101.6904, 3.133, 101.6904 ] } },
{ "type": "Feature", "properties": { "Name_CH": "陸雪陈氏书院(宗亲会)", "Name_ML": "Persatuan Keturunan Chan She Shu Yuen Kuala Lumpur & Selangor", "Name_EN": null, "Location": "172, Jalan Petaling, 50000 Kuala Lumpur.", "Longitude": 101.6983789, "Latitude": 3.1402903, "Region": "Selangor", "Category": "血缘", "PageNumber": "192" }, "geometry": { "type": "Point", "coordinates": [ 101.6984, 3.1403, 101.6984 ] } },
{ "type": "Feature", "properties": { "Name_CH": "马来西亚李氏总会", "Name_ML": "Persekutuan Persatuan Lee Malaysia", "Name_EN": "The United Lee' s Federation Of Malaysia", "Location": "57- A, Changkat Tambi Dollan, Pudu 55100 Kuala Lumpur.", "Longitude": 101.7106991, "Latitude": 3.1407272, "Region": "Selangor", "Category": "血缘", "PageNumber": "192" }, "geometry": { "type": "Point", "coordinates": [ 101.7107, 3.1407, 101.7107 ] } },
{ "type": "Feature", "properties": { "Name_CH": "马来西亚符氏总会", "Name_ML": "Persekutuan Persatuan Keturunan Foo Malaysia", "Name_EN": "Foo Clan Association Malaysia", "Location": "7, Tengkat Tong Shin, 50200 Kuala Lumpur.", "Longitude": 101.7071161, "Latitude": 3.1454025, "Region": "Selangor", "Category": "血缘", "PageNumber": "192" }, "geometry": { "type": "Point", "coordinates": [ 101.7071, 3.1454, 101.7071 ] } },
{ "type": "Feature", "properties": { "Name_CH": "马来西亚黄氏宗祠", "Name_ML": null, "Name_EN": null, "Location": "44B, Jalan Chow Kit, 50350 Kuala Lumpur", "Longitude": 101.6966769, "Latitude": 3.1666046, "Region": "Selangor", "Category": "血缘", "PageNumber": "192" }, "geometry": { "type": "Point", "coordinates": [ 101.6967, 3.1666, 101.6967 ] } },
{ "type": "Feature", "properties": { "Name_CH": "马来西亚关氏公会", "Name_ML": "Persatuan Kaum Kuan Malaysia", "Name_EN": "Malaysia Kuan Clansmen Association", "Location": "38A, Jalan Tekukor, Off Jalan Ipoh Batu 3, 51100 Kuala Lumpur.", "Longitude": 101.6827842, "Latitude": 3.1816251, "Region": "Selangor", "Category": "血缘", "PageNumber": "192" }, "geometry": { "type": "Point", "coordinates": [ 101.6828, 3.1816, 101.6828 ] } },
{ "type": "Feature", "properties": { "Name_CH": "马来西亚何氏总会", "Name_ML": null, "Name_EN": "Ho Association Of Malaysia", "Location": "129, Jalan Bukit Candan, Batu 41\/4, Off Jalan lpoh, 51100 Kuala Lumpur.", "Longitude": 101.678477, "Latitude": 3.200004, "Region": "Selangor", "Category": "血缘", "PageNumber": "192" }, "geometry": { "type": "Point", "coordinates": [ 101.6785, 3.2, 101.6785 ] } },
{ "type": "Feature", "properties": { "Name_CH": "马来西亚陈氏宗亲总会", "Name_ML": "Persekutuan Persatuan-Persatuan Chen (Tan) Malaysia", "Name_EN": "The Federation Of Chan (Tan) Clan Association Malaysia", "Location": "5, Jalan 3\/33A, Batu 7 Off Jalan Kepong, 52100 Kuala Lumpur.", "Longitude": 101.6450711, "Latitude": 3.2122364, "Region": "Selangor", "Category": "血缘", "PageNumber": "192" }, "geometry": { "type": "Point", "coordinates": [ 101.6451, 3.2122, 101.6451 ] } },
{ "type": "Feature", "properties": { "Name_CH": "马来西亚高氏公会", "Name_ML": "Persatuan Gao Malaysia", "Name_EN": null, "Location": "1-2-2, Jalan 7\/18D, Taman Mastiara, Jalan Ipoh, 52100 Kuala Lumpur.", "Longitude": 101.6733753, "Latitude": 3.2143825, "Region": "Selangor", "Category": "血缘", "PageNumber": "192" }, "geometry": { "type": "Point", "coordinates": [ 101.6734, 3.2144, 101.6734 ] } },
{ "type": "Feature", "properties": { "Name_CH": "马来西亚、雪隆郑氏公会", "Name_ML": "Persatuan Keturunan Kaum Keluarga Tee Selangor Dan Wilayah Persekutuan P.K.K.K.Tee Selangor, Wilayah Persekutuan Malaysia", "Name_EN": null, "Location": "8400 Lot 4868, Jalan E1\/1 Light Industrial Area, Taman Ehsan, 52100 Kepong, Selangor.", "Longitude": 101.6197764, "Latitude": 3.2188811, "Region": "Selangor", "Category": "血缘", "PageNumber": "192" }, "geometry": { "type": "Point", "coordinates": [ 101.6198, 3.2189, 101.6198 ] } },
{ "type": "Feature", "properties": { "Name_CH": "马来西亚傅氏公会", "Name_ML": "Persatuan Keturunan Poh Malaysia", "Name_EN": "Poh Association Of Malaysia", "Location": "6A, Jalan SG1\/2, Taman Seri Gombak, Batu Caves, 68100 Selangor.", "Longitude": 101.6988424, "Latitude": 3.2364654, "Region": "Selangor", "Category": "血缘", "PageNumber": "192" }, "geometry": { "type": "Point", "coordinates": [ 101.6988, 3.2365, 101.6988 ] } },
{ "type": "Feature", "properties": { "Name_CH": "马来西亚、雪隆郑氏公会", "Name_ML": "Persatuan Keturunan Kaum Keluarga Tee Selangor Dan Wilayah Persekutuan P.K.K.K.Tee Selangor, Wilayah Persekutuan Malaysia", "Name_EN": null, "Location": "8400 Lot 4868, Jalan E1\/1 Light Industrial Area, Taman Ehsan, 52100 Kepong, Selangor.", "Longitude": 101.6197764, "Latitude": 3.2188811, "Region": "Selangor", "Category": "血缘", "PageNumber": "192" }, "geometry": { "type": "Point", "coordinates": [ 101.6198, 3.2189, 101.6198 ] } },
{ "type": "Feature", "properties": { "Name_CH": "马来西亚永春美山林氏家族会", "Name_ML": "Persatuan Keturunan Bee San Lim (Eng Choon) Malaysia", "Name_EN": null, "Location": "Lot 578D, Sungai Rasa, Jalan Batu Tiga, 41300 Klang, Selangor.", "Longitude": 101.4676834, "Latitude": 3.0536895, "Region": "Selangor", "Category": "血缘", "PageNumber": "193" }, "geometry": { "type": "Point", "coordinates": [ 101.4677, 3.0537, 101.4677 ] } },
{ "type": "Feature", "properties": { "Name_CH": "马来西亚谭氏宗亲会", "Name_ML": "Persatuan Keturunan Tham Malaysia", "Name_EN": null, "Location": "24A, Jalan 10\/118B, Desa Tun Razak, 56000 Kuala Lumpur.", "Longitude": 101.7184274, "Latitude": 3.0792143, "Region": "Selangor", "Category": "血缘", "PageNumber": "193" }, "geometry": { "type": "Point", "coordinates": [ 101.7184, 3.0792, 101.7184 ] } },
{ "type": "Feature", "properties": { "Name_CH": "马来西亚温氏宗亲会", "Name_ML": "Persatuan Keturunan Woon Malaysia", "Name_EN": null, "Location": "46B, Jalan Cerdas, Taman Connaught 56000 Kuala Lumpur.", "Longitude": 101.7380474, "Latitude": 3.0813819, "Region": "Selangor", "Category": "血缘", "PageNumber": "193" }, "geometry": { "type": "Point", "coordinates": [ 101.738, 3.0814, 101.738 ] } },
{ "type": "Feature", "properties": { "Name_CH": "马来西亚马氏宗亲总会", "Name_ML": null, "Name_EN": "Malaysian Mah Clan Assciation", "Location": "86, Jalan Badminton 13\/29, Shah Alam, 40000 Selangor.", "Longitude": 101.5459847, "Latitude": 3.0907861, "Region": "Selangor", "Category": "血缘", "PageNumber": "193" }, "geometry": { "type": "Point", "coordinates": [ 101.546, 3.0908, 101.546 ] } },
{ "type": "Feature", "properties": { "Name_CH": "马来西亚罗氏公会", "Name_ML": "Persatuan Keturunan Orang-Orang Loh Malaysia", "Name_EN": null, "Location": "34-3-1, Jalan 1\/101 C, Cheras Business Centre, Batu 5, Jalan Cheras, 56100 Kuala Lumpur.", "Longitude": 101.730458, "Latitude": 3.108233, "Region": "Selangor", "Category": "血缘", "PageNumber": "193" }, "geometry": { "type": "Point", "coordinates": [ 101.7305, 3.1082, 101.7305 ] } },
{ "type": "Feature", "properties": { "Name_CH": "马来西亚萧氏公会", "Name_ML": null, "Name_EN": "Siow Assn Of Malaysia", "Location": "147-2, 3 1\/4 Miles, Jalan Klang Lama, 58000 Kuala Lumpur.", "Longitude": 101.6785803, "Latitude": 3.1135264, "Region": "Selangor", "Category": "血缘", "PageNumber": "193" }, "geometry": { "type": "Point", "coordinates": [ 101.6786, 3.1135, 101.6786 ] } },
{ "type": "Feature", "properties": { "Name_CH": "马来西亚陆氏宗亲会", "Name_ML": "Persatuan Loke Malaysia", "Name_EN": "Loke Association Of Malaysia", "Location": "25-1 Jalan Maharajalela, 50150 Kuala Lumpur.", "Longitude": 101.699702, "Latitude": 3.1379788, "Region": "Selangor", "Category": "血缘", "PageNumber": "193" }, "geometry": { "type": "Point", "coordinates": [ 101.6997, 3.138, 101.6997 ] } },
{ "type": "Feature", "properties": { "Name_CH": "马来西亚谢氏总会", "Name_ML": "Persatuan Keturunan Chia Malaysia", "Name_EN": "The Federation Of Cina Clansmen Association Malaysia", "Location": "48, 3rd, Floor, Jalan Kampong Attap, 50460 Kuala Lumpur.", "Longitude": 101.6964811, "Latitude": 3.1382044, "Region": "Selangor", "Category": "血缘", "PageNumber": "193" }, "geometry": { "type": "Point", "coordinates": [ 101.6965, 3.1382, 101.6965 ] } },
{ "type": "Feature", "properties": { "Name_CH": "马来西亚南阳宗亲总会", "Name_ML": null, "Name_EN": "The Federation Of Nanyang Association Malaysia", "Location": "No.102 & 104, Jalan Tun H S Lee, 50000 Kuala Lumpur.", "Longitude": 101.6967778, "Latitude": 3.1466125, "Region": "Selangor", "Category": "血缘", "PageNumber": "193" }, "geometry": { "type": "Point", "coordinates": [ 101.6968, 3.1466, 101.6968 ] } },
{ "type": "Feature", "properties": { "Name_CH": "马来西亚吴氏公会", "Name_ML": "Persatuan Wu Malaysia", "Name_EN": null, "Location": "10-B, Laman Raja Laut, Off Jalan Raja Laut, 50350 Kuala Lumpur.", "Longitude": 101.6955968, "Latitude": 3.1613721, "Region": "Selangor", "Category": "血缘", "PageNumber": "193" }, "geometry": { "type": "Point", "coordinates": [ 101.6956, 3.1614, 101.6956 ] } },
{ "type": "Feature", "properties": { "Name_CH": "马来西亚南安刘氏公会", "Name_ML": "Persatuan Kaum Nam Ann Low Malaysia", "Name_EN": null, "Location": "17-1 & 19-1, Jalan 45\/26, Taman Seri Rampai, 53300 Setapak, Kuala Lumpur.", "Longitude": 101.73197, "Latitude": 3.19407, "Region": "Selangor", "Category": "血缘", "PageNumber": "193" }, "geometry": { "type": "Point", "coordinates": [ 101.732, 3.1941, 101.732 ] } },
{ "type": "Feature", "properties": { "Name_CH": "马来西亚蓬莱刘氏公会", "Name_ML": "Persatuan Hong Lai Low Malaysia", "Name_EN": "Malaysia Hong Lai Low' s Assciation", "Location": "35, Jalan Arang, Kepong Baru, 52000 Kuala Lumpur.", "Longitude": 101.6423615, "Latitude": 3.2090694, "Region": "Selangor", "Category": "血缘", "PageNumber": "193" }, "geometry": { "type": "Point", "coordinates": [ 101.6424, 3.2091, 101.6424 ] } },
{ "type": "Feature", "properties": { "Name_CH": "马来西亚谢氏总会", "Name_ML": "Persatuan Keturunan Chia Malaysia", "Name_EN": "The Federation Of Cina Clansmen Association Malaysia", "Location": "48, 3rd, Floor, Jalan Kampong Attap, 50460 Kuala Lumpur.", "Longitude": 101.6964811, "Latitude": 3.1382044, "Region": "Selangor", "Category": "血缘", "PageNumber": "193" }, "geometry": { "type": "Point", "coordinates": [ 101.6965, 3.1382, 101.6965 ] } },
{ "type": "Feature", "properties": { "Name_CH": "马来西亚南阳宗亲总会", "Name_ML": null, "Name_EN": "The Federation Of Nanyang Association Malaysia", "Location": "No.102 & 104, Jalan Tun H S Lee, 50000 Kuala Lumpur.", "Longitude": 101.6967778, "Latitude": 3.1466125, "Region": "Selangor", "Category": "血缘", "PageNumber": "193" }, "geometry": { "type": "Point", "coordinates": [ 101.6968, 3.1466, 101.6968 ] } },
{ "type": "Feature", "properties": { "Name_CH": "雪兰莪洪氏公会", "Name_ML": null, "Name_EN": "Selangor Ang Clan Association", "Location": "322 & 435, Sg. Jarom, Jenjarom, Kuala Langat, 42600 Selangor.", "Longitude": 101.499692, "Latitude": 2.875983, "Region": "Selangor", "Category": "血缘", "PageNumber": "194" }, "geometry": { "type": "Point", "coordinates": [ 101.4997, 2.876, 101.4997 ] } },
{ "type": "Feature", "properties": { "Name_CH": "五姓公会（浮罗吉胆）", "Name_ML": null, "Name_EN": "Loo, Loh, Koh, Kho & Kee Association", "Location": "79-K, Branch Street, Pulau Ketam, 42490 Selangor.", "Longitude": 101.2467116, "Latitude": 3.0334114, "Region": "Selangor", "Category": "血缘", "PageNumber": "194" }, "geometry": { "type": "Point", "coordinates": [ 101.2467, 3.0334, 101.2467 ] } },
{ "type": "Feature", "properties": { "Name_CH": "兰莪及联邦直辖区彭氏联宗会", "Name_ML": "Persatuan Puak Peng Selangor Dan Wilayah Persekutuan", "Name_EN": "Selangor & Federal Territory Peng Clan Association", "Location": "158-2-9, Compleks Maluri, Jalan Jejaka, Taman Malurl 55100 Kuala Lumpur.", "Longitude": 101.73228, "Latitude": 3.127491, "Region": "Selangor", "Category": "血缘", "PageNumber": "194" }, "geometry": { "type": "Point", "coordinates": [ 101.7323, 3.1275, 101.7323 ] } },
{ "type": "Feature", "properties": { "Name_CH": "雪兰莪暨联邦直辖区（阁州）许氏公会", "Name_ML": "Persatuan Keluarga Koh WP & Selangor", "Name_EN": null, "Location": "28, Jalan Gelang, Off Jalan Sg Besi, 55200 Kuala Lumpur.", "Longitude": 101.7109112, "Latitude": 3.1311486, "Region": "Selangor", "Category": "血缘", "PageNumber": "194" }, "geometry": { "type": "Point", "coordinates": [ 101.7109, 3.1311, 101.7109 ] } },
{ "type": "Feature", "properties": { "Name_CH": "马来西亚永春周氏公会", "Name_ML": null, "Name_EN": "Eng Choon Chew' s Association Malaysia", "Location": "49B, Jalan Yew, Pudu, 55100 Kuala Lumpur.", "Longitude": 101.7165561, "Latitude": 3.1331545, "Region": "Selangor", "Category": "血缘", "PageNumber": "194" }, "geometry": { "type": "Point", "coordinates": [ 101.7166, 3.1332, 101.7166 ] } },
{ "type": "Feature", "properties": { "Name_CH": "南洋茶阳赵氏公会", "Name_ML": null, "Name_EN": "Nanyang Char Yong Chow Clan Association", "Location": "68-C, Jalan Brunei Utara, 55100 Pudu, Kuala Lumpur.", "Longitude": 101.7125251, "Latitude": 3.138878, "Region": "Selangor", "Category": "血缘", "PageNumber": "194" }, "geometry": { "type": "Point", "coordinates": [ 101.7125, 3.1389, 101.7125 ] } },
{ "type": "Feature", "properties": { "Name_CH": "雪兰莪暨联邦直辖区方氏公会", "Name_ML": "Persatuan Keturunan Fang Selangor & Wilayah Persekutuan", "Name_EN": null, "Location": "124-C, Jalan Imbi, 55100 Kuala Lumpur.", "Longitude": 101.7147373, "Latitude": 3.1455731, "Region": "Selangor", "Category": "血缘", "PageNumber": "194" }, "geometry": { "type": "Point", "coordinates": [ 101.7147, 3.1456, 101.7147 ] } },
{ "type": "Feature", "properties": { "Name_CH": "欧阳家族会", "Name_ML": "Persatuan Keturunan Au Yong", "Name_EN": "Au Yong Association", "Location": "47, Changkat Bukit Bintang, 50200, Kuala Lumpur.", "Longitude": 101.7079192, "Latitude": 3.1472356, "Region": "Selangor", "Category": "血缘", "PageNumber": "194" }, "geometry": { "type": "Point", "coordinates": [ 101.7079, 3.1472, 101.7079 ] } },
{ "type": "Feature", "properties": { "Name_CH": "马来西亚朱氏联合会", "Name_ML": "Persatuan Keturunan Choo Malaysia", "Name_EN": "Malaysia Choo Clan Association", "Location": "No.4, Jalan Chow Kit Kiri, 50350 Kuala Lumpur.", "Longitude": 101.6942184, "Latitude": 3.1668657, "Region": "Selangor", "Category": "血缘", "PageNumber": "194" }, "geometry": { "type": "Point", "coordinates": [ 101.6942, 3.1669, 101.6942 ] } },
{ "type": "Feature", "properties": { "Name_CH": "雪兰莪暨联邦直辖区廖氏公会", "Name_ML": null, "Name_EN": "The Leow，s Association Of Selangor & FT", "Location": "9-B, Jalan Batu Bata, Off Jalan Ipoh, 50400 Kuala Lumpur.", "Longitude": 101.6941039, "Latitude": 3.1718389, "Region": "Selangor", "Category": "血缘", "PageNumber": "194" }, "geometry": { "type": "Point", "coordinates": [ 101.6941, 3.1718, 101.6941 ] } },
{ "type": "Feature", "properties": { "Name_CH": "马釆亚苏氏联京会", "Name_ML": null, "Name_EN": "Saw Clansmen Association Of The State Of Malaya", "Location": "30A, Jalan Balam, Off Jalan Ipoh, Batu Tiga, 52100 Kuala Lumpur.", "Longitude": 101.6824142, "Latitude": 3.1831512, "Region": "Selangor", "Category": "血缘", "PageNumber": "194" }, "geometry": { "type": "Point", "coordinates": [ 101.6824, 3.1832, 101.6824 ] } },
{ "type": "Feature", "properties": { "Name_CH": "马来西亚永甜场林氏公会", "Name_ML": "Persatuan Orang-Orang Eng Choon Tow Teong Yang Bernama Lim", "Name_EN": null, "Location": "35, Jalan 3\/18C, Taman Mastiara, Batu 5, Jalan lpoh, 51200 Kuala Lumpur.", "Longitude": 101.676012, "Latitude": 3.2143683, "Region": "Selangor", "Category": "血缘", "PageNumber": "194" }, "geometry": { "type": "Point", "coordinates": [ 101.676, 3.2144, 101.676 ] } },
{ "type": "Feature", "properties": { "Name_CH": "兰莪及联邦直辖区彭氏联宗会", "Name_ML": "Persatuan Puak Peng Selangor Dan Wilayah Persekutuan", "Name_EN": "Selangor & Federal Territory Peng Clan Association", "Location": "158-2-9, Compleks Maluri, Jalan Jejaka, Taman Malurl 55100 Kuala Lumpur.", "Longitude": 101.73228, "Latitude": 3.127491, "Region": "Selangor", "Category": "血缘", "PageNumber": "194" }, "geometry": { "type": "Point", "coordinates": [ 101.7323, 3.1275, 101.7323 ] } },
{ "type": "Feature", "properties": { "Name_CH": "马来西亚永甜场林氏公会", "Name_ML": "Persatuan Orang-Orang Eng Choon Tow Teong Yang Bernama Lim", "Name_EN": null, "Location": "35, Jalan 3\/18C, Taman Mastiara, Batu 5, Jalan lpoh, 51200 Kuala Lumpur.", "Longitude": 101.676012, "Latitude": 3.2143683, "Region": "Selangor", "Category": "血缘", "PageNumber": "194" }, "geometry": { "type": "Point", "coordinates": [ 101.676, 3.2144, 101.676 ] } },
{ "type": "Feature", "properties": { "Name_CH": "雪隆官氏（上宫）公会", "Name_ML": "Persatuan Kaum Shang Kuan Wilayah Persekutuan & Selangor", "Name_EN": null, "Location": "224, Jalan Berjaya 1, Taman Berjaya, Sg. Chua, 43000 Kajang, Selangor.", "Longitude": 101.7794049, "Latitude": 2.986281, "Region": "Selangor", "Category": "血缘", "PageNumber": "195" }, "geometry": { "type": "Point", "coordinates": [ 101.7794, 2.9863, 101.7794 ] } },
{ "type": "Feature", "properties": { "Name_CH": "雪隆颜氏公会", "Name_ML": "Persatuan Gan Selangor & Wilayah Persekutuan", "Name_EN": null, "Location": "18B & C, Jalan Kapar, Klang, 41400 Selangor.", "Longitude": 101.4484151, "Latitude": 3.0506362, "Region": "Selangor", "Category": "血缘", "PageNumber": "195" }, "geometry": { "type": "Point", "coordinates": [ 101.4484, 3.0506, 101.4484 ] } },
{ "type": "Feature", "properties": { "Name_CH": "雪兰莪暨联邦直辖区唐氏公会", "Name_ML": "Persatuan Keturunan Tang Wilayah Persekutuan & Selangor", "Name_EN": null, "Location": "KT-11, Taman Evergreen, Batu 41\/4, Jalan Klang, 58000 Kuala Lumpur.", "Longitude": 101.6754746, "Latitude": 3.0970742, "Region": "Selangor", "Category": "血缘", "PageNumber": "195" }, "geometry": { "type": "Point", "coordinates": [ 101.6755, 3.0971, 101.6755 ] } },
{ "type": "Feature", "properties": { "Name_CH": "雪隆刘关张赵古城会", "Name_ML": "Persatuan Koo Seng, Kuala Lumpur & Selangor", "Name_EN": null, "Location": "35-B, Jalan Yew, 55100 Pudu, Kuala Lumpur.", "Longitude": 101.7168031, "Latitude": 3.133475, "Region": "Selangor", "Category": "血缘", "PageNumber": "195" }, "geometry": { "type": "Point", "coordinates": [ 101.7168, 3.1335, 101.7168 ] } },
{ "type": "Feature", "properties": { "Name_CH": "雪隆李氏宗亲", "Name_ML": null, "Name_EN": "The United Lee' s Association Selangor & Kuala Lumpur", "Location": "57- A, Changkat Thambi Dollah, Pudu, 55100 Kuala Lumpur.", "Longitude": 101.7106991, "Latitude": 3.1407272, "Region": "Selangor", "Category": "血缘", "PageNumber": "195" }, "geometry": { "type": "Point", "coordinates": [ 101.7107, 3.1407, 101.7107 ] } },
{ "type": "Feature", "properties": { "Name_CH": "雪隆伍氏宗亲会", "Name_ML": "Persatuan Kaum Ng Selangor Dan Wilayah Persekutuan", "Name_EN": null, "Location": "18, Jalan Sin Chew Kee, Off Jalan Pudu, 50150 Kuala Lumpur.", "Longitude": 101.7047149, "Latitude": 3.143188, "Region": "Selangor", "Category": "血缘", "PageNumber": "195" }, "geometry": { "type": "Point", "coordinates": [ 101.7047, 3.1432, 101.7047 ] } },
{ "type": "Feature", "properties": { "Name_CH": "雪隆符氏宗亲会", "Name_ML": "Persatuan Keturunan Foo Selangor & Kuala Lumpur", "Name_EN": null, "Location": "7, Tingkat Tong Shin, 50200 Kuala Lumpur.", "Longitude": 101.7071161, "Latitude": 3.1454025, "Region": "Selangor", "Category": "血缘", "PageNumber": "195" }, "geometry": { "type": "Point", "coordinates": [ 101.7071, 3.1454, 101.7071 ] } },
{ "type": "Feature", "properties": { "Name_CH": "雪隆江夏堂", "Name_ML": "Persatuan Kaum Huang Sei. Dan Kuala Lumpur", "Name_EN": "Huang Clan Assn Selangor & Kuala Lumpur", "Location": "44B, Jalan Chow Kit, 50350 Kuala Lumpur.", "Longitude": 101.6966769, "Latitude": 3.1666046, "Region": "Selangor", "Category": "血缘", "PageNumber": "195" }, "geometry": { "type": "Point", "coordinates": [ 101.6967, 3.1666, 101.6967 ] } },
{ "type": "Feature", "properties": { "Name_CH": "雪兰莪南阳叶氏公会", "Name_ML": null, "Name_EN": "Selangor Nam Yong （Yap Si） Association", "Location": "537-A, Jalan Tiong, Off Jalan Ipoh, 51100 Kuala Lumpur.", "Longitude": 101.6818282, "Latitude": 3.1832466, "Region": "Selangor", "Category": "血缘", "PageNumber": "195" }, "geometry": { "type": "Point", "coordinates": [ 101.6818, 3.1832, 101.6818 ] } },
{ "type": "Feature", "properties": { "Name_CH": "雪隆林氏宗祠", "Name_ML": "Persatuan Keturunan Um Selangor & Kuala Lumpur", "Name_EN": null, "Location": "Lot 14121, Jalan Air Keroh, Kg. Air Panas Baru, 53200 Setapak, Kuala Lumpur.", "Longitude": 101.7207884, "Latitude": 3.18885, "Region": "Selangor", "Category": "血缘", "PageNumber": "195" }, "geometry": { "type": "Point", "coordinates": [ 101.7208, 3.1888, 101.7208 ] } },
{ "type": "Feature", "properties": { "Name_CH": "雪隆许氏宗亲会", "Name_ML": "Persatuan Ko Yong Koh Si", "Name_EN": null, "Location": "NO.152A, Jalan Batu Kantonment, Batu 4, Jalan lpoh, 51200 Kuala Lumpur.", "Longitude": 101.6793541, "Latitude": 3.1953437, "Region": "Selangor", "Category": "血缘", "PageNumber": "195" }, "geometry": { "type": "Point", "coordinates": [ 101.6794, 3.1953, 101.6794 ] } },
{ "type": "Feature", "properties": { "Name_CH": "雪兰莪潘氏族亲会", "Name_ML": "Persatuan Kaum Kerabat Pan Selangor", "Name_EN": null, "Location": "92, Jalan Sabak Bernam, Sekinchan, 45400 Selangor.", "Longitude": 101.102218, "Latitude": 3.5056097, "Region": "Selangor", "Category": "血缘", "PageNumber": "195" }, "geometry": { "type": "Point", "coordinates": [ 101.1022, 3.5056, 101.1022 ] } },
{ "type": "Feature", "properties": { "Name_CH": "巴生港口中华商会", "Name_ML": "Dewan Perniagaan China Pelabuhan Klang", "Name_EN": null, "Location": "80-A, Jalan Tnegku Badar, Port Klang, 42000 Selangor.", "Longitude": 101.3978124, "Latitude": 3.0049179, "Region": "Selangor", "Category": "业缘", "PageNumber": "196" }, "geometry": { "type": "Point", "coordinates": [ 101.3978, 3.0049, 101.3978 ] } },
{ "type": "Feature", "properties": { "Name_CH": "雪隆詹氏公会", "Name_ML": "Persatuan Keturunan Cham Selangor Dan Wilayah Persekutuan (1997)", "Name_EN": null, "Location": "No. 33(Tingkat Satu) Lorong Temenggung 15A, Off Jalan Jati, 41200 Klang, Selangor.", "Longitude": 101.4835, "Latitude": 3.00534, "Region": "Selangor", "Category": "血缘", "PageNumber": "196" }, "geometry": { "type": "Point", "coordinates": [ 101.4835, 3.0053, 101.4835 ] } },
{ "type": "Feature", "properties": { "Name_CH": "雪隆庄严同宗会", "Name_ML": "Persatuan Chuang & Yam Selangor & Wilayah Persekutuan", "Name_EN": null, "Location": "5-2A, Jalan Temoh, Klang, 41400 Selangor.", "Longitude": 101.444125, "Latitude": 3.051218, "Region": "Selangor", "Category": "血缘", "PageNumber": "196" }, "geometry": { "type": "Point", "coordinates": [ 101.4441, 3.0512, 101.4441 ] } },
{ "type": "Feature", "properties": { "Name_CH": "八打灵再也小贩商业公会", "Name_ML": "Persatuan Penjaja-Penjaja & Peniaga-Peniaga Kecil Petaling Jaya (1972)", "Name_EN": null, "Location": "27, Jalan 1\/10, Petaling Jaya, 46000 Selangor.", "Longitude": 101.6500422, "Latitude": 3.0854716, "Region": "Selangor", "Category": "业缘", "PageNumber": "196" }, "geometry": { "type": "Point", "coordinates": [ 101.65, 3.0855, 101.65 ] } },
{ "type": "Feature", "properties": { "Name_CH": "雪兰莪及联邦直辖区彭氏联宗会", "Name_ML": "Persatuan Puak Peng Selangor Dan Wilayah Persekutuan", "Name_EN": "Selangor And Fedaral Territory Peng Clan Association", "Location": "158-2-9, Compleks Malurl Jalan Jejaka, Taman Maluri, 55100 Kuala Lumpur", "Longitude": 101.73228, "Latitude": 3.127491, "Region": "Selangor", "Category": "血缘", "PageNumber": "196" }, "geometry": { "type": "Point", "coordinates": [ 101.7323, 3.1275, 101.7323 ] } },
{ "type": "Feature", "properties": { "Name_CH": "雪隆杨氏公会", "Name_ML": "Persatuan Yang Selangor & Wilayah Persekutuan", "Name_EN": null, "Location": "70-B, Jalan Pasat Baharu, 55100 Kuala Lumpur.", "Longitude": 101.7164603, "Latitude": 3.1345681, "Region": "Selangor", "Category": "血缘", "PageNumber": "196" }, "geometry": { "type": "Point", "coordinates": [ 101.7165, 3.1346, 101.7165 ] } },
{ "type": "Feature", "properties": { "Name_CH": "中马六桂堂", "Name_ML": null, "Name_EN": "Central Malaysia Liu Kwee Tang Clansmen", "Location": "124- C, Jalan Imbi 55100 Kuala Lumpur.", "Longitude": 101.7147373, "Latitude": 3.1455731, "Region": "Selangor", "Category": "血缘", "PageNumber": "196" }, "geometry": { "type": "Point", "coordinates": [ 101.7147, 3.1456, 101.7147 ] } },
{ "type": "Feature", "properties": { "Name_CH": "雪隆叶氏宗祠", "Name_ML": "Persatuan Yap Selangor Dan Wilayah Persekutuan", "Name_EN": "Selangor And Federal Territory Yap Si Choong Chi", "Location": "102-104 Jalan Tun H.S. Lee, 50000 Kuala Lumpur", "Longitude": 101.6967778, "Latitude": 3.1466125, "Region": "Selangor", "Category": "血缘", "PageNumber": "196" }, "geometry": { "type": "Point", "coordinates": [ 101.6968, 3.1466, 101.6968 ] } },
{ "type": "Feature", "properties": { "Name_CH": "荣阳堂联宗会", "Name_ML": "Persatuan Eng Yong Tong", "Name_EN": null, "Location": "11, Jalan Union 4, 51100 Kuala Lumpur.", "Longitude": 101.6910855, "Latitude": 3.1776445, "Region": "Selangor", "Category": "血缘", "PageNumber": "196" }, "geometry": { "type": "Point", "coordinates": [ 101.6911, 3.1776, 101.6911 ] } },
{ "type": "Feature", "properties": { "Name_CH": "雪州陆氏联宗会", "Name_ML": "Persatuan Keturunan Loke Selangor 1988", "Name_EN": null, "Location": "1166, Jalan Temple, Jinjang Utara 52000 Kuala Lumpur", "Longitude": 101.6577725, "Latitude": 3.2099021, "Region": "Selangor", "Category": "血缘", "PageNumber": "196" }, "geometry": { "type": "Point", "coordinates": [ 101.6578, 3.2099, 101.6578 ] } },
{ "type": "Feature", "properties": { "Name_CH": "雪隆郑氏公会", "Name_ML": "Persatuan Keturunan Kaum Keluarga Tee Selangor & Wilayah Persekutuan", "Name_EN": null, "Location": "8400 Lot 4868, Jalan E1\/1 Light Industrial Area, Taman Ehsan Kepong, 52100 Selangor.", "Longitude": 101.6197764, "Latitude": 3.2188811, "Region": "Selangor", "Category": "血缘", "PageNumber": "196" }, "geometry": { "type": "Point", "coordinates": [ 101.6198, 3.2189, 101.6198 ] } },
{ "type": "Feature", "properties": { "Name_CH": "雪隆郑氏公会", "Name_ML": "Persatuan Keturunan Kaum Keluarga Tee Selangor & Wilayah Persekutuan", "Name_EN": null, "Location": "8400 Lot 4868, Jalan E1\/1 Light Industrial Area, Taman Ehsan Kepong, 52100 Selangor.", "Longitude": 101.6197764, "Latitude": 3.2188811, "Region": "Selangor", "Category": "血缘", "PageNumber": "196" }, "geometry": { "type": "Point", "coordinates": [ 101.6198, 3.2189, 101.6198 ] } },
{ "type": "Feature", "properties": { "Name_CH": "罗吉胆海产公会", "Name_ML": "Persatuan Hai San Pulau Ketam", "Name_EN": null, "Location": "P 5, Jalan Polis Stesyen, Pulau Ketam, 42940 Selangor.", "Longitude": 101.4141242, "Latitude": 3.0099168, "Region": "Selangor", "Category": "业缘", "PageNumber": "197" }, "geometry": { "type": "Point", "coordinates": [ 101.4141, 3.0099, 101.4141 ] } },
{ "type": "Feature", "properties": { "Name_CH": "巴生华侨什货商会", "Name_ML": null, "Name_EN": "The Klang Chinese Grocery Guild ", "Location": "10, Jalan Yeo Guan Hup, Klang, 41000 Selangor.", "Longitude": 101.4461152, "Latitude": 3.0409155, "Region": "Selangor", "Category": "业缘", "PageNumber": "197" }, "geometry": { "type": "Point", "coordinates": [ 101.4461, 3.0409, 101.4461 ] } },
{ "type": "Feature", "properties": { "Name_CH": "巴生树胶公会", "Name_ML": null, "Name_EN": "The Klang Rubber Growers' & Trade Association", "Location": "21, Jalan Dato Hamzah, Klang, 41000 Selangor.", "Longitude": 101.4479132, "Latitude": 3.0414697, "Region": "Selangor", "Category": "业缘", "PageNumber": "197" }, "geometry": { "type": "Point", "coordinates": [ 101.4479, 3.0415, 101.4479 ] } },
{ "type": "Feature", "properties": { "Name_CH": "巴生中华总商会", "Name_ML": "Dewan Perniagaan & Perindustrian Cina Klang ", "Name_EN": "Klang Chinese Chamber of Commerce and Industry", "Location": "42A, Lebuh Enggang, 41050 Klang, Selangor.", "Longitude": 101.455044, "Latitude": 3.0563823, "Region": "Selangor", "Category": "业缘", "PageNumber": "197" }, "geometry": { "type": "Point", "coordinates": [ 101.455, 3.0564, 101.455 ] } },
{ "type": "Feature", "properties": { "Name_CH": "吉隆坡德士工友协会", "Name_ML": "Persatuan Pekerja-Pekerja Teksi Kuala Lumpur", "Name_EN": null, "Location": "3H, Jalan Jubilee, Jubilee Court 55200 Kuala Lumpur.", "Longitude": 101.7107623, "Latitude": 3.129012, "Region": "Selangor", "Category": "业缘", "PageNumber": "197" }, "geometry": { "type": "Point", "coordinates": [ 101.7108, 3.129, 101.7108 ] } },
{ "type": "Feature", "properties": { "Name_CH": "吉隆坡半山吧小贩小商公会", "Name_ML": "Persatuan Penjaja-Penjaja & Peniaga-Peniaga Kecil Pudu", "Name_EN": null, "Location": "86A, Jalan PasarBaru, Pudu, 55100 Kuala Lumpur.", "Longitude": 101.7167299, "Latitude": 3.1353986, "Region": "Selangor", "Category": "业缘", "PageNumber": "197" }, "geometry": { "type": "Point", "coordinates": [ 101.7167, 3.1354, 101.7167 ] } },
{ "type": "Feature", "properties": { "Name_CH": "吉隆坡布业联谊会", "Name_ML": "The Kuala Lumpur Textile Merchants Friendly Association", "Name_EN": null, "Location": "No, 15A Lorong Meranti 1, Off Jalan Kenanga 55200 Kuala Lumpur.", "Longitude": 101.70662, "Latitude": 3.1386834, "Region": "Selangor", "Category": "业缘", "PageNumber": "197" }, "geometry": { "type": "Point", "coordinates": [ 101.7066, 3.1387, 101.7066 ] } },
{ "type": "Feature", "properties": { "Name_CH": "吉隆坡、雪、森、彭金钻珠宝商公会", "Name_ML": "Persatuan Perniagaan Emas & Permata Wilayah Persekutuan Selangor, Negeri Sembilan & Pahang", "Name_EN": null, "Location": "89, Tingkat 4, Jalan Sultan, 50000 Kuala Lumpur.", "Longitude": 101.6969643, "Latitude": 3.142758, "Region": "Selangor", "Category": "业缘", "PageNumber": "197" }, "geometry": { "type": "Point", "coordinates": [ 101.697, 3.1428, 101.697 ] } },
{ "type": "Feature", "properties": { "Name_CH": "吉隆坡金河广场商业公会", "Name_ML": null, "Name_EN": "Sungei Wang Plaza Merchants Association Kuala Lumpur", "Location": "T136, Tingkat 3, Sungei Wang Plaza, Jalan Sultan Ismail, 50250 Kuala Lumpur.", "Longitude": 101.7109508, "Latitude": 3.1448006, "Region": "Selangor", "Category": "业缘", "PageNumber": "197" }, "geometry": { "type": "Point", "coordinates": [ 101.711, 3.1448, 101.711 ] } },
{ "type": "Feature", "properties": { "Name_CH": "吉隆坡暨雪兰莪中华工商总会", "Name_ML": "Dewan Perniagaan Dan Perindustrian China Kuala Lumpur", "Name_EN": "The Chinese Chamber of Commerce And Industry Of Kuala Lumpur And Selangor (KLSCCCI)", "Location": "7th Floor, Wisma Chinese Chamber, 258, Jalan Ampang, 50450 Kuala Lumpur.", "Longitude": 101.7326528, "Latitude": 3.1611004, "Region": "Selangor", "Category": "业缘", "PageNumber": "197" }, "geometry": { "type": "Point", "coordinates": [ 101.7327, 3.1611, 101.7327 ] } },
{ "type": "Feature", "properties": { "Name_CH": "吉隆坡海商公会", "Name_ML": "Persatuan Hoi Seong Kuala Lumpur", "Name_EN": null, "Location": "22-2, 2nd Floor, Jalan 2\/3A, Pusat Banddar Utama, KM12, Jalan Ipoh, 68100 Batu Caves, Kuala Lumpur", "Longitude": 101.6700535, "Latitude": 3.2368368, "Region": "Selangor", "Category": "业缘", "PageNumber": "197" }, "geometry": { "type": "Point", "coordinates": [ 101.6701, 3.2368, 101.6701 ] } },
{ "type": "Feature", "properties": { "Name_CH": "瓜雪暨沙白县中华商会", "Name_ML": null, "Name_EN": "Chiense Chamber Of Commerce Kuala Selangor & Sabak Bernam District", "Location": "52-B, Jalan Melati 3 \/1, Bandar Melawati, 45000 Kuala Selangor, Selangor.", "Longitude": 101.2572715, "Latitude": 3.3298637, "Region": "Selangor", "Category": "业缘", "PageNumber": "197" }, "geometry": { "type": "Point", "coordinates": [ 101.2573, 3.3299, 101.2573 ] } },
{ "type": "Feature", "properties": { "Name_CH": "隆雪家具同业公会", "Name_ML": "Persatuan Perindustrian Perabot Kuala Lumpur & Selangor", "Name_EN": null, "Location": "75-2, Jalan Mega Mendung, Kompleks Bandar, Batu 5, Jalan Klang Lama, 58200 Kuala Lumpur.", "Longitude": 101.671197, "Latitude": 3.08318, "Region": "Selangor", "Category": "业缘", "PageNumber": "198" }, "geometry": { "type": "Point", "coordinates": [ 101.6712, 3.0832, 101.6712 ] } },
{ "type": "Feature", "properties": { "Name_CH": "隆雪汽车暨银业公会", "Name_ML": "Persatuan Peniaga Kereta Dan Syarikat Kredit Kuala Lumpur Dan Selangor", "Name_EN": "Kuala Lumpur And Selangor Car Dealers And Credit Companies Association (KLSCDCCA)", "Location": "85A, Jalan Jejaka 2, Taman Malurl Cheras, 55100 Kuala Lumpur.", "Longitude": 101.7317277, "Latitude": 3.1277685, "Region": "Selangor", "Category": "业缘", "PageNumber": "198" }, "geometry": { "type": "Point", "coordinates": [ 101.7317, 3.1278, 101.7317 ] } },
{ "type": "Feature", "properties": { "Name_CH": "吉隆坡直辖区陈秀莲路新街场路商业协会", "Name_ML": null, "Name_EN": "Jalan Chan Sow Un & Jalan Sg. Besi Businessmen' s Association Kuala Lumpur", "Location": "18-2, Jalan Tepian Loke Yew, Off Jalan Loke Yew, 55200 Kuala Lumpur.", "Longitude": 101.710508, "Latitude": 3.128429, "Region": "Selangor", "Category": "业缘", "PageNumber": "198" }, "geometry": { "type": "Point", "coordinates": [ 101.7105, 3.1284, 101.7105 ] } },
{ "type": "Feature", "properties": { "Name_CH": "吉隆坡中马洋货布疋服装入口商公会", "Name_ML": "Persatuan Pengimport-Pengimport Tekstil & Barangan Am Wilayah Persekutuan & Selangor", "Name_EN": null, "Location": "36A, Lorong Merbau, Off Jalan Kenanga, 55200 Kuala Lumpur.", "Longitude": 101.7059273, "Latitude": 3.1384539, "Region": "Selangor", "Category": "业缘", "PageNumber": "198" }, "geometry": { "type": "Point", "coordinates": [ 101.7059, 3.1385, 101.7059 ] } },
{ "type": "Feature", "properties": { "Name_CH": "吉隆坡小贩商业公会", "Name_ML": "Persatuan Penjaja & Peniaga Kecil Kuala Lumpur", "Name_EN": null, "Location": "36A, Tingkat 1 Jalan Sultan, 50000 Kuala Lumpur.", "Longitude": 101.6970128, "Latitude": 3.1425805, "Region": "Selangor", "Category": "业缘", "PageNumber": "198" }, "geometry": { "type": "Point", "coordinates": [ 101.697, 3.1426, 101.697 ] } },
{ "type": "Feature", "properties": { "Name_CH": "吉隆坡雪森彭金钻珠宝商公会", "Name_ML": "Persatuan Perniagaan Emas Dan Permata Wilayah Persekutuan, Selangor, Negeri Sembilan Dan Pahang.", "Name_EN": null, "Location": "89, 4th Floor, Jalan Sultan, 50000 Kuala Lumpur.", "Longitude": 101.6986899, "Latitude": 3.1445129, "Region": "Selangor", "Category": "业缘", "PageNumber": "198" }, "geometry": { "type": "Point", "coordinates": [ 101.6987, 3.1445, 101.6987 ] } },
{ "type": "Feature", "properties": { "Name_CH": "金河广场商业公会", "Name_ML": "Persatuan Peniaga-Perniaga Sungei Wang Plaza Kuala Lumpur", "Name_EN": "Sungei Wang Plaza Merchants Association Kuala Lumpur", "Location": "T136, 3rd Floor, Sungei Wang Plaza, Jalan Sultan Ismail, 50250 Kuala Lumpur.", "Longitude": 101.7109508, "Latitude": 3.1448006, "Region": "Selangor", "Category": "业缘", "PageNumber": "198" }, "geometry": { "type": "Point", "coordinates": [ 101.711, 3.1448, 101.711 ] } },
{ "type": "Feature", "properties": { "Name_CH": "吉隆坡中医师公会", "Name_ML": "Persatuan Tabib Perubatan Tradisional Cina Wilayah Persekutuan Kuala Lumpur", "Name_EN": null, "Location": "780A, Jalan Sentul 51000 Kuala Lumpur.", "Longitude": 101.6923429, "Latitude": 3.1786867, "Region": "Selangor", "Category": "业缘", "PageNumber": "198" }, "geometry": { "type": "Point", "coordinates": [ 101.6923, 3.1787, 101.6923 ] } },
{ "type": "Feature", "properties": { "Name_CH": "甲洞区商业联合会", "Name_ML": "Persatuan Firma-Firma Perdagangan Kawasan Kepong", "Name_EN": null, "Location": "6-0 -L Jalan 9\/32, Taman Jinjang Baru, 52000 Kuala Lumpur.", "Longitude": 101.6580338, "Latitude": 3.2074761, "Region": "Selangor", "Category": "业缘", "PageNumber": "198" }, "geometry": { "type": "Point", "coordinates": [ 101.658, 3.2075, 101.658 ] } },
{ "type": "Feature", "properties": { "Name_CH": "甲洞区小型工业联合会", "Name_ML": "Persatuan Industri Ringan Kawasan Kepong", "Name_EN": null, "Location": "34-3, Jalan 13\/34A, Kepong Enterprenuers Park, 52100 Kuala Lumpur.", "Longitude": 101.6469904, "Latitude": 3.2134688, "Region": "Selangor", "Category": "业缘", "PageNumber": "198" }, "geometry": { "type": "Point", "coordinates": [ 101.647, 3.2135, 101.647 ] } },
{ "type": "Feature", "properties": { "Name_CH": "甲洞区商业协会", "Name_ML": null, "Name_EN": "Kepong Businessmen Association", "Location": "JKR1032, Cross Street Kepong, 52100 Kuala Lumpur.", "Longitude": 101.6355931, "Latitude": 3.213966, "Region": "Selangor", "Category": "业缘", "PageNumber": "198" }, "geometry": { "type": "Point", "coordinates": [ 101.6356, 3.214, 101.6356 ] } },
{ "type": "Feature", "properties": { "Name_CH": "吉隆坡蔬菜批发商公会", "Name_ML": "Persatuan Pemborong Sayur-Sayuran Kuala Lumpur.", "Name_EN": "Kuala Lumpur Vegetable Wholesales Association.", "Location": "26—2, Jalan 2\/3A, Pusat Bandar Utara, KM 12, Jalan Ipoh, 68100 Batu Caves, Kuala Lumpur.", "Longitude": 101.670417, "Latitude": 3.236133, "Region": "Selangor", "Category": "业缘", "PageNumber": "198" }, "geometry": { "type": "Point", "coordinates": [ 101.6704, 3.2361, 101.6704 ] } },
{ "type": "Feature", "properties": { "Name_CH": "吉隆坡雪森彭金钻珠宝商公会", "Name_ML": "Persatuan Perniagaan Emas Dan Permata Wilayah Persekutuan, Selangor, Negeri Sembilan Dan Pahang.", "Name_EN": null, "Location": "89, 4th Floor, Jalan Sultan, 50000 Kuala Lumpur.", "Longitude": 101.6986899, "Latitude": 3.1445129, "Region": "Selangor", "Category": "业缘", "PageNumber": "198" }, "geometry": { "type": "Point", "coordinates": [ 101.6987, 3.1445, 101.6987 ] } },
{ "type": "Feature", "properties": { "Name_CH": "金河广场商业公会", "Name_ML": "Persatuan Peniaga-Perniaga Sungei Wang Plaza Kuala Lumpur", "Name_EN": "Sungei Wang Plaza Merchants Association Kuala Lumpur", "Location": "T136, 3rd Floor, Sungei Wang Plaza, Jalan Sultan Ismail, 50250 Kuala Lumpur.", "Longitude": 101.7109508, "Latitude": 3.1448006, "Region": "Selangor", "Category": "业缘", "PageNumber": "198" }, "geometry": { "type": "Point", "coordinates": [ 101.711, 3.1448, 101.711 ] } },
{ "type": "Feature", "properties": { "Name_CH": "马来西亚华人旅游业公会", "Name_ML": "Persatuan Pelancongan Cina Malaysia", "Name_EN": null, "Location": "2-3A, Jalan Panduan 2\/1, Taman Pandan Jaya, 55100 Kuala Lumpur.", "Longitude": 101.739758, "Latitude": 3.1351269, "Region": "Selangor", "Category": "业缘", "PageNumber": "199" }, "geometry": { "type": "Point", "coordinates": [ 101.7398, 3.1351, 101.7398 ] } },
{ "type": "Feature", "properties": { "Name_CH": "马来西亚超级讲师协会", "Name_ML": "Persatuan Pemidato Malaysia", "Name_EN": null, "Location": "15, Jalan Kancil, Off Jalan Pudu, 55100 Kuala Lumpur.", "Longitude": 101.7126502, "Latitude": 3.1363647, "Region": "Selangor", "Category": "业缘", "PageNumber": "199" }, "geometry": { "type": "Point", "coordinates": [ 101.7127, 3.1364, 101.7127 ] } },
{ "type": "Feature", "properties": { "Name_CH": "马来西亚华人行业社团总会", "Name_ML": "Gabungan Ikatan Persatuan Cina Malaysia", "Name_EN": "The Federation of Malaysia Chnese Guilds Association", "Location": "34- 1, Jalan Baba, Off Changkat Thambi Dillah, 55100 Pudu, Kuala Lumpur.", "Longitude": 101.7105191, "Latitude": 3.1393035, "Region": "Selangor", "Category": "业缘", "PageNumber": "199" }, "geometry": { "type": "Point", "coordinates": [ 101.7105, 3.1393, 101.7105 ] } },
{ "type": "Feature", "properties": { "Name_CH": "隆雪申华百货商会", "Name_ML": "Per Peniaga Kain & Barang-Barangan Cina Selangor & Wilayah Persekutuan (Tagma)", "Name_EN": null, "Location": "59B, Jalan Sultan, 50000 Kuala Lumpur.", "Longitude": 101.6988496, "Latitude": 3.1430654, "Region": "Selangor", "Category": "业缘", "PageNumber": "199" }, "geometry": { "type": "Point", "coordinates": [ 101.6988, 3.1431, 101.6988 ] } },
{ "type": "Feature", "properties": { "Name_CH": "马来西亚布疋百货制衣总会", "Name_ML": "Gabungan Persatuan-Persatuan Peniaga Kain Dan Pakaian Malaysia", "Name_EN": "Federation of Textiles General Goods & Garment Merchants Associations Malaysia", "Location": "59B, Jalan Sultan,50000 Kuala Lumpur.", "Longitude": 101.6988496, "Latitude": 3.1430654, "Region": "Selangor", "Category": "业缘", "PageNumber": "199" }, "geometry": { "type": "Point", "coordinates": [ 101.6988, 3.1431, 101.6988 ] } },
{ "type": "Feature", "properties": { "Name_CH": "马来西亚(吉隆坡)申餐厨业好友会", "Name_ML": null, "Name_EN": "Chinese Chef Association Kuala Lumpur Malaysia", "Location": "63C, Jalan Sultan Ismail 50250 Kuala Lumpur.", "Longitude": 101.7109501, "Latitude": 3.14705, "Region": "Selangor", "Category": "业缘", "PageNumber": "199" }, "geometry": { "type": "Point", "coordinates": [ 101.711, 3.1471, 101.711 ] } },
{ "type": "Feature", "properties": { "Name_CH": "马来西亚半岛玻璃镜业公会", "Name_ML": "Persatuan Peniaga-Peniaga Kaca & Cermin Semenanjung Malaysia", "Name_EN": null, "Location": "28- 2, Jalan Sulaiman Satu, Taman Ampang Hilir, Ampang, 68000 Selangor.", "Longitude": 101.7493268, "Latitude": 3.1510864, "Region": "Selangor", "Category": "业缘", "PageNumber": "199" }, "geometry": { "type": "Point", "coordinates": [ 101.7493, 3.1511, 101.7493 ] } },
{ "type": "Feature", "properties": { "Name_CH": "隆雪中华工商总会", "Name_ML": "Dewan Perniagaan & Perindustrian China Kuala Lumpur & Selangor", "Name_EN": null, "Location": "7th Floor, Wisma Chinese Chamber, 258, Jalan Ampang, 50450 Kuala Lumpur.", "Longitude": 101.7326528, "Latitude": 3.1611004, "Region": "Selangor", "Category": "业缘", "PageNumber": "199" }, "geometry": { "type": "Point", "coordinates": [ 101.7327, 3.1611, 101.7327 ] } },
{ "type": "Feature", "properties": { "Name_CH": "马来西亚吊车同业公会", "Name_ML": "Persatuan Pemilik Mesin Derek Bergerak Malaysia (1987)", "Name_EN": "Malaysia Mobile Crane Owners Association (1987)", "Location": "57-3, Jalan 12\/34A, Kepong Enterprenuers Park,Batu 7, Jalan Kepong, 52100 Kuala Lumpur.", "Longitude": 101.6469904, "Latitude": 3.2134688, "Region": "Selangor", "Category": "业缘", "PageNumber": "199" }, "geometry": { "type": "Point", "coordinates": [ 101.647, 3.2135, 101.647 ] } },
{ "type": "Feature", "properties": { "Name_CH": "马来西亚华人医药总会", "Name_ML": "Persekutuan Persatuan Tabib & Pedagang Ubat Tionghua, Malaysia", "Name_EN": "Federation of Chinese Physicians & Medicine Dealers Association Of Malaysia", "Location": "106-2 & 107- 2, Jalan 1, Pusat Niaga Batu Caves, 68100 Batu Caves, Selangor ", "Longitude": 101.6957453, "Latitude": 3.23632, "Region": "Selangor", "Category": "业缘", "PageNumber": "199" }, "geometry": { "type": "Point", "coordinates": [ 101.6957, 3.2363, 101.6957 ] } },
{ "type": "Feature", "properties": { "Name_CH": "马来西亚华人药业出品厂商公会", "Name_ML": "Persatuan Pengeluar Ubat Cina Malaysia", "Name_EN": null, "Location": "4, Jalan Bidara 2\/4, Fasa 7C, Kawasan Perusahaan Taman Bidara, Batu Caves, 68100 Selangor.", "Longitude": 101.642623, "Latitude": 3.2416858, "Region": "Selangor", "Category": "业缘", "PageNumber": "199" }, "geometry": { "type": "Point", "coordinates": [ 101.6426, 3.2417, 101.6426 ] } },
{ "type": "Feature", "properties": { "Name_CH": "马来西亚米粉厂商总会", "Name_ML": null, "Name_EN": "Bee Hoon Manufacturers Assn Of Malaysia", "Location": "D\/A Lot 888, Bt29, Kg. Ijok, Batang Berjuntai, 45620 Selangor.", "Longitude": 101.4010171, "Latitude": 3.3129065, "Region": "Selangor", "Category": "业缘", "PageNumber": "199" }, "geometry": { "type": "Point", "coordinates": [ 101.401, 3.3129, 101.401 ] } },
{ "type": "Feature", "properties": { "Name_CH": "隆雪申华百货商会", "Name_ML": "Per Peniaga Kain & Barang-Barangan Cina Selangor & Wilayah Persekutuan (Tagma)", "Name_EN": null, "Location": "59B, Jalan Sultan, 50000 Kuala Lumpur.", "Longitude": 101.6988496, "Latitude": 3.1430654, "Region": "Selangor", "Category": "业缘", "PageNumber": "199" }, "geometry": { "type": "Point", "coordinates": [ 101.6988, 3.1431, 101.6988 ] } },
{ "type": "Feature", "properties": { "Name_CH": "隆雪中华工商总会", "Name_ML": "Dewan Perniagaan & Perindustrian China Kuala Lumpur & Selangor", "Name_EN": null, "Location": "7th Floor, Wisma Chinese Chamber, 258, Jalan Ampang, 50450 Kuala Lumpur.", "Longitude": 101.7326528, "Latitude": 3.1611004, "Region": "Selangor", "Category": "业缘", "PageNumber": "199" }, "geometry": { "type": "Point", "coordinates": [ 101.7327, 3.1611, 101.7327 ] } },
{ "type": "Feature", "properties": { "Name_CH": "马来西亚禽畜业联合总会", "Name_ML": "Persekutuan Persatuan-Persatuan Penternak Malaysia", "Name_EN": "Federation of Livestock Farmer' Associations of Malaysia", "Location": "93-A, Jalan SSI5\/5A, 47500 Subang jaya, Salangor.", "Longitude": 101.5917167, "Latitude": 3.08163, "Region": "Selangor", "Category": "业缘", "PageNumber": "200" }, "geometry": { "type": "Point", "coordinates": [ 101.5917, 3.0816, 101.5917 ] } },
{ "type": "Feature", "properties": { "Name_CH": "马来西亚针织厂商公会", "Name_ML": null, "Name_EN": "Malaysian Knitting Manufacturers Association", "Location": "32-B, Jalan Mutiara Raya, Taman Mutiara, Cheras, 56000 Kuala Lumpur.", "Longitude": 101.7398019, "Latitude": 3.0913049, "Region": "Selangor", "Category": "业缘", "PageNumber": "200" }, "geometry": { "type": "Point", "coordinates": [ 101.7398, 3.0913, 101.7398 ] } },
{ "type": "Feature", "properties": { "Name_CH": "马来西亚社团秘书公会", "Name_ML": null, "Name_EN": "Societies Executive Secretaties Association Malaysia", "Location": "9-4A,Bangunan Tai Seng,Jalan Kalong,off Jalan Sungai Best 55200 Kuala Lumpur.", "Longitude": 101.71145, "Latitude": 3.132906, "Region": "Selangor", "Category": "业缘", "PageNumber": "200" }, "geometry": { "type": "Point", "coordinates": [ 101.7114, 3.1329, 101.7114 ] } },
{ "type": "Feature", "properties": { "Name_CH": "马来西亚食品暨玩具商公会", "Name_ML": "Perstuan Saudagar Barang Makanan Dan Permainan Malaysia", "Name_EN": "Malaysia Foodstuffs And Toys Merchants' Association", "Location": "No.223B, Jalan Pudu, 55100 Kuala Lumpur.", "Longitude": 101.7100746, "Latitude": 3.1375723, "Region": "Selangor", "Category": "业缘", "PageNumber": "200" }, "geometry": { "type": "Point", "coordinates": [ 101.7101, 3.1376, 101.7101 ] } },