{
"type": "FeatureCollection",
"name": "Category_0",
"crs": { "type": "name", "properties": { "name": "urn:ogc:def:crs:OGC:1.3:CRS84" } },
"features": [
{ "type": "Feature", "properties": { "Name_CH": "安顺树胶公会", "Name_ML": null, "Name_EN": "The Chinese Rubber Association Teluk Intan Lower Perak", "Location": "69 King Street Teluk Intan, Perak.", "Longitude": 101.0206249, "Latitude": 4.022424, "Region": "Perak", "Category": "业缘", "PageNumber": "153" }, "geometry": { "type": "Point", "coordinates": [ 101.0206, 4.0224, 101.0206 ] } },
{ "type": "Feature", "properties": { "Name_CH": "安顺建筑职工联合会", "Name_ML": null, "Name_EN": "Teluk Anson Building Labourers' Union", "Location": "12, Jalan Ah Cheong, 36000 Teluk lntan, Perak.", "Longitude": 101.0191835, "Latitude": 4.0262393, "Region": "Perak", "Category": "业缘", "PageNumber": "153" }, "geometry": { "type": "Point", "coordinates": [ 101.0192, 4.0262, 101.0192 ] } },
{ "type": "Feature", "properties": { "Name_CH": "安顺打金行", "Name_ML": "Persatuan Tukang Emas Tar Kim Hong", "Name_EN": "Tar Kim Hong Goldsmiths Guild", "Location": "51, Jalan Pasar, 36000 Teluk Intan, Perak.", "Longitude": 101.0153094, "Latitude": 4.0273312, "Region": "Perak", "Category": "业缘", "PageNumber": "153" }, "geometry": { "type": "Point", "coordinates": [ 101.0153, 4.0273, 101.0153 ] } },
{ "type": "Feature", "properties": { "Name_CH": "安顺小贩各业公会", "Name_ML": null, "Name_EN": "Teluk Anson Hawker's Association", "Location": "63. Jalan Raja, 36000 Teluk Intan, Perak.", "Longitude": 101.0183858, "Latitude": 4.0276249, "Region": "Perak", "Category": "业缘", "PageNumber": "153" }, "geometry": { "type": "Point", "coordinates": [ 101.0184, 4.0276, 101.0184 ] } },
{ "type": "Feature", "properties": { "Name_CH": "安顺建造行", "Name_ML": "Persatuan Pembinaan Malaysia Kin Cho Hong", "Name_EN": null, "Location": "1, Jalan Pasir Bedamar, 36000 Teluk Intan, Perak.", "Longitude": 101.0157835, "Latitude": 4.0280579, "Region": "Perak", "Category": "业缘", "PageNumber": "153" }, "geometry": { "type": "Point", "coordinates": [ 101.0158, 4.0281, 101.0158 ] } },
{ "type": "Feature", "properties": { "Name_CH": "金马仑菜农公会", "Name_ML": "Pertubuhan Pekebun-Pekebun Sayur-Sayuran Cameron Highlands", "Name_EN": null, "Location": "MDCH-31, Tingkat 3, Bandar Baru Brinchang, 39100 Cameron Highlands, Perak.", "Longitude": 101.3879874, "Latitude": 4.4914508, "Region": "Perak", "Category": "业缘", "PageNumber": "154" }, "geometry": { "type": "Point", "coordinates": [ 101.388, 4.4915, 101.388 ] } },
{ "type": "Feature", "properties": { "Name_CH": "江沙建造行", "Name_ML": "Persatuan Pembinaan Kuala Kangsar Kin Cho Hong Kuala Kangsar", "Name_EN": null, "Location": "7A, Taman Suria, Jalan Taiping 33000 Kuala Lumpur", "Longitude": 101.078572, "Latitude": 4.582467, "Region": "Perak", "Category": "业缘", "PageNumber": "154" }, "geometry": { "type": "Point", "coordinates": [ 101.0786, 4.5825, 101.0786 ] } },
{ "type": "Feature", "properties": { "Name_CH": "近打菜业公会", "Name_ML": "Persatuan Peniaga Sayur-sayuran Kinta", "Name_EN": "Kinta Vegetable Dealers' Association", "Location": "6(B) Jalan Theatre 30300 Ipoh, Perak.", "Longitude": 101.0828673, "Latitude": 4.5947954, "Region": "Perak", "Category": "业缘", "PageNumber": "154" }, "geometry": { "type": "Point", "coordinates": [ 101.0829, 4.5948, 101.0829 ] } },
{ "type": "Feature", "properties": { "Name_CH": "近打的士雇主司机公会", "Name_ML": "Persatuan Pemilik & Dreber Teksi Kinta", "Name_EN": "Kinta Taxi Owners & Drivers Association", "Location": "11-B (2nd Floor) Jalan Raja Musa Aziz 30300 Ipoh, Perak.", "Longitude": 101.0838029, "Latitude": 4.596284, "Region": "Perak", "Category": "业缘", "PageNumber": "154" }, "geometry": { "type": "Point", "coordinates": [ 101.0838, 4.5963, 101.0838 ] } },
{ "type": "Feature", "properties": { "Name_CH": "打扪抽子及本地水果种植公会", "Name_ML": "Persatuan Pekebun-pekebun Buah Limau Tambun Dan Buah-buahan Tempahan Tambun Perak", "Name_EN": null, "Location": "34, Jalan Besar, Tambun 31400. Perak", "Longitude": 101.1373, "Latitude": 4.6093, "Region": "Perak", "Category": "业缘", "PageNumber": "154" }, "geometry": { "type": "Point", "coordinates": [ 101.1373, 4.6093, 101.1373 ] } },
{ "type": "Feature", "properties": { "Name_CH": "江沙小贩商业公会", "Name_ML": "Persatuan Penjaja-Penjaja Kuala Kangsar", "Name_EN": "Kuala Kangsar Hawker's Guild", "Location": "30 Jalan Kangsar, 33000 Kuala Kangsar, Perak.", "Longitude": 100.9416539, "Latitude": 4.7709922, "Region": "Perak", "Category": "业缘", "PageNumber": "154" }, "geometry": { "type": "Point", "coordinates": [ 100.9417, 4.771, 100.9417 ] } },
{ "type": "Feature", "properties": { "Name_CH": "江沙树胶公会", "Name_ML": "Persatuan Peniaga Getah Kuala Kangsar", "Name_EN": "Rubber Dealers Association Kuala Kangsar", "Location": "32, Jalan Daeng Selili, 33000 Kuala Kangsar, Perak.", "Longitude": 100.9421662, "Latitude": 4.774505, "Region": "Perak", "Category": "业缘", "PageNumber": "154" }, "geometry": { "type": "Point", "coordinates": [ 100.9422, 4.7745, 100.9422 ] } },
{ "type": "Feature", "properties": { "Name_CH": "江沙上中霹雳咖啡商业公会", "Name_ML": "Persatuan Peniagaan-Peniaga Kopi Perak Tengah Dan Hulu Perak", "Name_EN": "Central PK & Upper PK Coffee Dealers' Association", "Location": "33 (Tingkat 2) Jalan Raja Chulan, 33000 Kuala Kangsar, Perak.", "Longitude": 100.9417249, "Latitude": 4.7784812, "Region": "Perak", "Category": "业缘", "PageNumber": "154" }, "geometry": { "type": "Point", "coordinates": [ 100.9417, 4.7785, 100.9417 ] } },
{ "type": "Feature", "properties": { "Name_CH": "北霹雳金商公会", "Name_ML": null, "Name_EN": "North Perak Goldsmith Merchants Association", "Location": "62 Market Road. 34000 Taiping, Perak", "Longitude": 100.708101, "Latitude": 4.832926, "Region": "Perak", "Category": "业缘", "PageNumber": "154" }, "geometry": { "type": "Point", "coordinates": [ 100.7081, 4.8329, 100.7081 ] } },
{ "type": "Feature", "properties": { "Name_CH": "北霹雳咖啡茶商公会", "Name_ML": "Persatuan Pekedai Kopi Perak Utara", "Name_EN": null, "Location": "8, Jalan Stephen, Taman Marisa 34000 Taiping, Perak", "Longitude": 100.708101, "Latitude": 4.832926, "Region": "Perak", "Category": "业缘", "PageNumber": "154" }, "geometry": { "type": "Point", "coordinates": [ 100.7081, 4.8329, 100.7081 ] } },
{ "type": "Feature", "properties": { "Name_CH": "北霹雳中华工商总会", "Name_ML": null, "Name_EN": "North Perak Chinese Chamber of Commerce and Industry", "Location": "17, Jalan Pekeliling, 34000 Taiping, Perak", "Longitude": 100.708101, "Latitude": 4.832926, "Region": "Perak", "Category": "业缘", "PageNumber": "154" }, "geometry": { "type": "Point", "coordinates": [ 100.7081, 4.8329, 100.7081 ] } },
{ "type": "Feature", "properties": { "Name_CH": "北霹雳太平中医中药公会", "Name_ML": "Persatuan Physician & Druggist China Perak (U) Taiping", "Name_EN": "North Perak Chinese Physicians And Druggists Association", "Location": "11 (Tkt)1, Jalan Wayang Gambar, 34000 Taiping, Perak", "Longitude": 100.742829, "Latitude": 4.85023, "Region": "Perak", "Category": "业缘", "PageNumber": "154" }, "geometry": { "type": "Point", "coordinates": [ 100.7428, 4.8502, 100.7428 ] } },
{ "type": "Feature", "properties": { "Name_CH": "冷甲区小贩商业公会", "Name_ML": "Persatuan Peniaga Peniaga Kecil.Kawasan Langkap Hilir Perak", "Name_EN": null, "Location": "Lot 5000, Jalan Chui Chak, 36700 Langkap, Perak.", "Longitude": 101.1704731, "Latitude": 4.04758, "Region": "Perak", "Category": "业缘", "PageNumber": "155" }, "geometry": { "type": "Point", "coordinates": [ 101.1705, 4.0476, 101.1705 ] } },
{ "type": "Feature", "properties": { "Name_CH": "美罗小商公会", "Name_ML": "Pertubuhan Peniaga-Peniaga Kecil Bidor", "Name_EN": null, "Location": "21, Jalan Persatuan, 35500 Bidor, Perak.", "Longitude": 101.287787, "Latitude": 4.114192, "Region": "Perak", "Category": "业缘", "PageNumber": "155" }, "geometry": { "type": "Point", "coordinates": [ 101.2878, 4.1142, 101.2878 ] } },
{ "type": "Feature", "properties": { "Name_CH": "霹雳电器公会", "Name_ML": null, "Name_EN": "The Perak Electrical Association", "Location": "12A, Jalan Datuk Mahmud 31600 Ipoh, Perak.", "Longitude": 101.1277659, "Latitude": 4.4264184, "Region": "Perak", "Category": "业缘", "PageNumber": "155" }, "geometry": { "type": "Point", "coordinates": [ 101.1278, 4.4264, 101.1278 ] } },
{ "type": "Feature", "properties": { "Name_CH": "近打小贩商业公会", "Name_ML": "The Kinta Hawker's Guild", "Name_EN": null, "Location": "93, (Tingkat 1) Jalan Pasar, 30000 Ipoh, Perak.", "Longitude": 101.1147352, "Latitude": 4.5743233, "Region": "Perak", "Category": "业缘", "PageNumber": "155" }, "geometry": { "type": "Point", "coordinates": [ 101.1147, 4.5743, 101.1147 ] } },
{ "type": "Feature", "properties": { "Name_CH": "霹雳电业商会", "Name_ML": "Persatuan Penjual-Penjual Alat-Alat Letrik Dan Radio Negeri Perak", "Name_EN": "Perak Electrical & Radio Dealers Association", "Location": "110-A Jalan C.M.Yusuff,30250 lpohz Perak.", "Longitude": 101.0835397, "Latitude": 4.5888927, "Region": "Perak", "Category": "业缘", "PageNumber": "155" }, "geometry": { "type": "Point", "coordinates": [ 101.0835, 4.5889, 101.0835 ] } },
{ "type": "Feature", "properties": { "Name_CH": "近打屠业公会", "Name_ML": "Persatuan Tho Yip Koong Wooi", "Name_EN": "Tho Yip Koong Wooi Kinta (Butchers' Guild)", "Location": "56, Yau Tet Shin Street, 30300 Ipoh, Perak.", "Longitude": 101.0843223, "Latitude": 4.5937453, "Region": "Perak", "Category": "业缘", "PageNumber": "155" }, "geometry": { "type": "Point", "coordinates": [ 101.0843, 4.5937, 101.0843 ] } },
{ "type": "Feature", "properties": { "Name_CH": "霹雳海商公所", "Name_ML": "HAI SEONG KONG SOR PERAK", "Name_EN": null, "Location": "52A, Jalan Yau Tet Shin, 30300 Ipoh, Perak.", "Longitude": 101.0842351, "Latitude": 4.5938152, "Region": "Perak", "Category": "业缘", "PageNumber": "155" }, "geometry": { "type": "Point", "coordinates": [ 101.0842, 4.5938, 101.0842 ] } },
{ "type": "Feature", "properties": { "Name_CH": "近打鱼业公会", "Name_ML": "Persatuan Penjual-Penjual Ikan Kinta", "Name_EN": "Kinta Fish-Mongers' Asociation", "Location": "5 (1st Floor), Theatre Street, 30300 Ipoh, Perak.", "Longitude": 101.0856574, "Latitude": 4.5940963, "Region": "Perak", "Category": "业缘", "PageNumber": "155" }, "geometry": { "type": "Point", "coordinates": [ 101.0857, 4.5941, 101.0857 ] } },
{ "type": "Feature", "properties": { "Name_CH": "马来西亚华人矿务总会", "Name_ML": "Persatuan Perlombongan Cina Sa-Tanah Melayu", "Name_EN": "All-Malaya Chinese Mining Association", "Location": "73, Jalan Tun Sambanthan 30000 Ipoh, Perak.", "Longitude": 101.078974, "Latitude": 4.5972459, "Region": "Perak", "Category": "业缘", "PageNumber": "155" }, "geometry": { "type": "Point", "coordinates": [ 101.079, 4.5972, 101.079 ] } },
{ "type": "Feature", "properties": { "Name_CH": "霹雳车商公会", "Name_ML": "Peral Cycle And Motor Dealers Association", "Name_EN": null, "Location": "57-59 Jalan Raja Ekram, 30450 Ipoh, Perak.", "Longitude": 101.0859845, "Latitude": 4.5973481, "Region": "Perak", "Category": "业缘", "PageNumber": "155" }, "geometry": { "type": "Point", "coordinates": [ 101.086, 4.5973, 101.086 ] } },
{ "type": "Feature", "properties": { "Name_CH": "霹雳当商公会", "Name_ML": null, "Name_EN": "Perak Pawn Brokers Association", "Location": "19\/21 Jalan Horley, 30300 Ipoh, Perak.", "Longitude": 101.082881, "Latitude": 4.598267, "Region": "Perak", "Category": "业缘", "PageNumber": "155" }, "geometry": { "type": "Point", "coordinates": [ 101.0829, 4.5983, 101.0829 ] } },
{ "type": "Feature", "properties": { "Name_CH": "理发行", "Name_ML": "Lee Fatt Hong", "Name_EN": null, "Location": "9 Aylesbury Street 30330 Ipoh, Perak.", "Longitude": null, "Latitude": null, "Region": "Perak", "Category": "业缘", "PageNumber": "155" }, "geometry": null },
{ "type": "Feature", "properties": { "Name_CH": "霹雳建造行", "Name_ML": "Persatuan Pembina Perak", "Name_EN": "Perak Builders Guild", "Location": "24A Jalan Temenggong, 31650 Ipoh, Perak.", "Longitude": 101.0788447, "Latitude": 4.5813362, "Region": "Perak", "Category": "业缘", "PageNumber": "156" }, "geometry": { "type": "Point", "coordinates": [ 101.0788, 4.5813, 101.0788 ] } },
{ "type": "Feature", "properties": { "Name_CH": "霹雳华人五金公会", "Name_ML": "Persatuan Peniaga Barang-Barang Logam Cina Perak", "Name_EN": "Perak Chinese Hardware Dealers' Association", "Location": "23, Jalan Chung Thye Phin, 30250 Ipoh, Perak", "Longitude": 101.0868925, "Latitude": 4.5908397, "Region": "Perak", "Category": "业缘", "PageNumber": "156" }, "geometry": { "type": "Point", "coordinates": [ 101.0869, 4.5908, 101.0869 ] } },
{ "type": "Feature", "properties": { "Name_CH": "霹雳咖啡茶商公会", "Name_ML": null, "Name_EN": "Perak Coffee Shopkeepers' Association", "Location": "2 & 4, Jalan Masjid,30000 Ipoh, Perak", "Longitude": 101.0808258, "Latitude": 4.5937407, "Region": "Perak", "Category": "业缘", "PageNumber": "156" }, "geometry": { "type": "Point", "coordinates": [ 101.0808, 4.5937, 101.0808 ] } },
{ "type": "Feature", "properties": { "Name_CH": "霹雳建筑职工会", "Name_ML": "Persatuan Sekerja Pekerja Binaan Perak", "Name_EN": "Perak Building Workers Union", "Location": "81 Theatre Street, 30300 Ipoh, Perak.", "Longitude": 101.0856574, "Latitude": 4.5940963, "Region": "Perak", "Category": "业缘", "PageNumber": "156" }, "geometry": { "type": "Point", "coordinates": [ 101.0857, 4.5941, 101.0857 ] } },
{ "type": "Feature", "properties": { "Name_CH": "霹雳鸡鸭商公会", "Name_ML": "Persatuan Peniaga Ayam - Itik Perak", "Name_EN": "Perak Poultry Dealers' Association", "Location": "1-3, Jalan Theatre 30300 Ipoh, Perak.", "Longitude": 101.082853, "Latitude": 4.595017, "Region": "Perak", "Category": "业缘", "PageNumber": "156" }, "geometry": { "type": "Point", "coordinates": [ 101.0829, 4.595, 101.0829 ] } },
{ "type": "Feature", "properties": { "Name_CH": "霹雳建筑商公会", "Name_ML": "Persatuan Kontraktor-Kontraktor Pembinaan Perak", "Name_EN": "Perak Contractor's Association", "Location": "72, Tingkat 1, Jalan Theatre, 30300 Ipoh, Perak", "Longitude": 101.082853, "Latitude": 4.595017, "Region": "Perak", "Category": "业缘", "PageNumber": "156" }, "geometry": { "type": "Point", "coordinates": [ 101.0829, 4.595, 101.0829 ] } },
{ "type": "Feature", "properties": { "Name_CH": "霹雳华人矿务公会", "Name_ML": "Persatuan Perlombongan Cina Perak", "Name_EN": "Perak Chinese Minang Association", "Location": "73, Jalan Tun Sambanthan, 30000 Ipoh, Perak.", "Longitude": 101.078974, "Latitude": 4.5972459, "Region": "Perak", "Category": "业缘", "PageNumber": "156" }, "geometry": { "type": "Point", "coordinates": [ 101.079, 4.5972, 101.079 ] } },
{ "type": "Feature", "properties": { "Name_CH": "霹雳酒商公会", "Name_ML": null, "Name_EN": "The Perak Liquor Merchants Association", "Location": "7-9 Leong Sin Nam Street, 30000 Ipoh, Perak.", "Longitude": 101.0845125, "Latitude": 4.5972755, "Region": "Perak", "Category": "业缘", "PageNumber": "156" }, "geometry": { "type": "Point", "coordinates": [ 101.0845, 4.5973, 101.0845 ] } },
{ "type": "Feature", "properties": { "Name_CH": "霹雳华人机器公会", "Name_ML": "Persatuan Kejuruteraan China Perak", "Name_EN": "Perak Chinese Engineering Association", "Location": "4, Jalan Raja Ekram (Cowan Street) 30450 Ipoh, Perak.", "Longitude": 101.085825, "Latitude": 4.5975997, "Region": "Perak", "Category": "业缘", "PageNumber": "156" }, "geometry": { "type": "Point", "coordinates": [ 101.0858, 4.5976, 101.0858 ] } },
{ "type": "Feature", "properties": { "Name_CH": "霹雳华人厨业公会", "Name_ML": null, "Name_EN": "Perak Chinese Cooks* Association", "Location": "12 Jalan Hume, 30300 Ipoh, Perak", "Longitude": 101.0839057, "Latitude": 4.6006091, "Region": "Perak", "Category": "业缘", "PageNumber": "156" }, "geometry": { "type": "Point", "coordinates": [ 101.0839, 4.6006, 101.0839 ] } },
{ "type": "Feature", "properties": { "Name_CH": "霹雳金商公会", "Name_ML": "Persatuan Peniaga Barangan Emas Perak", "Name_EN": "Perak Goldsmith Merchants Association", "Location": "157, 2nd Floor Jalan Musa Aziz, 30300 Ipoh, Perak.", "Longitude": 101.0859542, "Latitude": 4.6006697, "Region": "Perak", "Category": "业缘", "PageNumber": "156" }, "geometry": { "type": "Point", "coordinates": [ 101.086, 4.6007, 101.086 ] } },
{ "type": "Feature", "properties": { "Name_CH": "霹雳吉辇米较公会", "Name_ML": null, "Name_EN": "Rice Millers Association Krian Perak", "Location": "9, Jalan Taiping 34200 Parit Buntar, Perak", "Longitude": 100.488977, "Latitude": 5.1257581, "Region": "Perak", "Category": "业缘", "PageNumber": "156" }, "geometry": { "type": "Point", "coordinates": [ 100.489, 5.1258, 100.489 ] } },
{ "type": "Feature", "properties": { "Name_CH": "霹雳推销员公会", "Name_ML": null, "Name_EN": "The Perak Salesmens Association Ipoh", "Location": "695 A 1st Floor, Jalan Pasir Puteh, 31650 Ipoh, Perak", "Longitude": 101.0764046, "Latitude": 4.5613306, "Region": "Perak", "Category": "业缘", "PageNumber": "157" }, "geometry": { "type": "Point", "coordinates": [ 101.0764, 4.5613, 101.0764 ] } },
{ "type": "Feature", "properties": { "Name_CH": "霹雳鞋业公会", "Name_ML": "Persatuan Industri Kasut Perak", "Name_EN": "The Perak Footwear Industry Association", "Location": "635, Jalan Pasir Puteh, 31650 Ipoh, Perak.", "Longitude": 101.0800235, "Latitude": 4.5695972, "Region": "Perak", "Category": "业缘", "PageNumber": "157" }, "geometry": { "type": "Point", "coordinates": [ 101.08, 4.5696, 101.08 ] } },
{ "type": "Feature", "properties": { "Name_CH": "霹雳锡商公会", "Name_ML": null, "Name_EN": "Perak Tinsmith Association", "Location": "58A, Jalan Temenggong, 31650 Ipoh, Perak", "Longitude": 101.0806907, "Latitude": 4.5818228, "Region": "Perak", "Category": "业缘", "PageNumber": "157" }, "geometry": { "type": "Point", "coordinates": [ 101.0807, 4.5818, 101.0807 ] } },
{ "type": "Feature", "properties": { "Name_CH": "霹雳罗厘同业公会", "Name_ML": null, "Name_EN": "Perak Lorry Owners Association", "Location": "162-A, Jalan Bendahara, 31650 Ipoh, Perak", "Longitude": 101.0780037, "Latitude": 4.5826169, "Region": "Perak", "Category": "业缘", "PageNumber": "157" }, "geometry": { "type": "Point", "coordinates": [ 101.078, 4.5826, 101.078 ] } },
{ "type": "Feature", "properties": { "Name_CH": "霹雳印务商公会", "Name_ML": "Pertubuhan Pencetakan Perak", "Name_EN": "The Perak Printing Press Association", "Location": "29A Persiaran Tokong, 31650 Ipoh, Perak.", "Longitude": 101.0861602, "Latitude": 4.582782, "Region": "Perak", "Category": "业缘", "PageNumber": "157" }, "geometry": { "type": "Point", "coordinates": [ 101.0862, 4.5828, 101.0862 ] } },
{ "type": "Feature", "properties": { "Name_CH": "霹雳树胶商总会", "Name_ML": null, "Name_EN": "Rubber Trade Association of Perak", "Location": "1-3, Jalan Chua Cheng Bok (Tingkat 2), 30250 Ipoh, Perak.", "Longitude": 101.0862898, "Latitude": 4.5908118, "Region": "Perak", "Category": "业缘", "PageNumber": "157" }, "geometry": { "type": "Point", "coordinates": [ 101.0863, 4.5908, 101.0863 ] } },
{ "type": "Feature", "properties": { "Name_CH": "霹雳食品玩具商公会", "Name_ML": "Persatuan Peniaga-Peniaga Makanan & Mainan Perak", "Name_EN": "Perak Foodstuffs And Toys Merchants Association", "Location": "35-C Jalan Bandar Timah, 30000 Ipoh, Perak", "Longitude": 101.0771243, "Latitude": 4.5938143, "Region": "Perak", "Category": "业缘", "PageNumber": "157" }, "geometry": { "type": "Point", "coordinates": [ 101.0771, 4.5938, 101.0771 ] } },
{ "type": "Feature", "properties": { "Name_CH": "霹雳摄影公会", "Name_ML": null, "Name_EN": "Perak Photographic Association", "Location": "97 Jalan Theatre, 30300 Ipoh, Perak.", "Longitude": 101.0865689, "Latitude": 4.5940245, "Region": "Perak", "Category": "业缘", "PageNumber": "157" }, "geometry": { "type": "Point", "coordinates": [ 101.0866, 4.594, 101.0866 ] } },
{ "type": "Feature", "properties": { "Name_CH": "霹雳唐洋货绸布商公会", "Name_ML": "Persatuan Peniaga Kain dan Barangan Biasa Cina Perak", "Name_EN": "Perak Chinese Piece Goods & General Merchants Association", "Location": "62A, Jalan Theatre, 30300 Ipoh, Perak.", "Longitude": 101.084674, "Latitude": 4.594322, "Region": "Perak", "Category": "业缘", "PageNumber": "157" }, "geometry": { "type": "Point", "coordinates": [ 101.0847, 4.5943, 101.0847 ] } },
{ "type": "Feature", "properties": { "Name_CH": "霹雳派报公会", "Name_ML": "Persatuan Pengedar Surat Khabar Perak", "Name_EN": "Perak Newspaper Distributors Association", "Location": "89A(lst Floor) Clare Street (Jalan Mustapha Al-Bakri) 30300 Ipoh, Perak.", "Longitude": 101.0843973, "Latitude": 4.5951013, "Region": "Perak", "Category": "业缘", "PageNumber": "157" }, "geometry": { "type": "Point", "coordinates": [ 101.0844, 4.5951, 101.0844 ] } },
{ "type": "Feature", "properties": { "Name_CH": "霹雳神料商公会", "Name_ML": "Persatuan Peniaga-Peniaga Baarang-Barang Sembahyang Perak", "Name_EN": "Perak Incense Dealers' Association", "Location": "33A, Persiaran Perak, Fair Partk, 31400 Ipoh, Perak.", "Longitude": 101.1142872, "Latitude": 4.6051464, "Region": "Perak", "Category": "业缘", "PageNumber": "157" }, "geometry": { "type": "Point", "coordinates": [ 101.1143, 4.6051, 101.1143 ] } },
{ "type": "Feature", "properties": { "Name_CH": "霹雳拉律峇登贩商联合会", "Name_ML": "Persatuan Peniaga-Peniaga Larut Making, Perak.", "Name_EN": null, "Location": "10, Perseiaran 3th Floor, 34000 Taiping.", "Longitude": 100.7436084, "Latitude": 4.8387967, "Region": "Perak", "Category": "业缘", "PageNumber": "157" }, "geometry": { "type": "Point", "coordinates": [ 100.7436, 4.8388, 100.7436 ] } },
{ "type": "Feature", "properties": { "Name_CH": "下霹雳金商公会", "Name_ML": null, "Name_EN": "Lower Perak Goldsmith Merchants Association", "Location": "116, Tingkat 2, Jalan Pasar, 36000 Teluk Intan, Perak", "Longitude": 101.020459, "Latitude": 4.0242889, "Region": "Perak", "Category": "业缘", "PageNumber": "158" }, "geometry": { "type": "Point", "coordinates": [ 101.0205, 4.0243, 101.0205 ] } },
{ "type": "Feature", "properties": { "Name_CH": "下霹雳车商公会", "Name_ML": null, "Name_EN": "Lower Perak Cycle & Motor Dealer' s Association", "Location": "46 & 48, Jalan Ah Cheong, Teluk Intan, Perak.", "Longitude": 101.0192053, "Latitude": 4.0262264, "Region": "Perak", "Category": "业缘", "PageNumber": "158" }, "geometry": { "type": "Point", "coordinates": [ 101.0192, 4.0262, 101.0192 ] } },
{ "type": "Feature", "properties": { "Name_CH": "天定咖啡酒餐商公会", "Name_ML": "Dindings Coffee Shop And Restaurant Dindings", "Name_EN": "Dindings Coffee Shop And Restaurant Keepers Association", "Location": "1, (1st Floor) Taman Lekir Baru, Jalan Raja Omar, 32000 Sitiawam, Manjung, Perak.", "Longitude": 100.696882, "Latitude": 4.211669, "Region": "Perak", "Category": "业缘", "PageNumber": "158" }, "geometry": { "type": "Point", "coordinates": [ 100.6969, 4.2117, 100.6969 ] } },
{ "type": "Feature", "properties": { "Name_CH": "天定树胶公会", "Name_ML": null, "Name_EN": "The Diddings Rubber Association", "Location": "5 Jalan Lumut 32000 Sitiawan, Perak", "Longitude": 100.7002622, "Latitude": 4.2179167, "Region": "Perak", "Category": "业缘", "PageNumber": "158" }, "geometry": { "type": "Point", "coordinates": [ 100.7003, 4.2179, 100.7003 ] } },
{ "type": "Feature", "properties": { "Name_CH": "霹雳制衣厂商公会", "Name_ML": null, "Name_EN": "Perak Garment Manufacturers' Association", "Location": "225 (2nd Floor) Jin Pasir Puteh, 31650 Ipoh, Perak", "Longitude": 101.0819606, "Latitude": 4.5823106, "Region": "Perak", "Category": "业缘", "PageNumber": "158" }, "geometry": { "type": "Point", "coordinates": [ 101.082, 4.5823, 101.082 ] } },
{ "type": "Feature", "properties": { "Name_CH": "霹雳针灸学会", "Name_ML": "Persatuan Rawatan Chuchok Dan Selar Negeri Perak", "Name_EN": "Perak Acupuncture & cautery Association", "Location": "46, Jalan Che Wan, 30250 Ipoh, Perak.", "Longitude": 101.0858267, "Latitude": 4.5907857, "Region": "Perak", "Category": "业缘", "PageNumber": "158" }, "geometry": { "type": "Point", "coordinates": [ 101.0858, 4.5908, 101.0858 ] } },
{ "type": "Feature", "properties": { "Name_CH": "霹雳杂货行", "Name_ML": "Persatuan Kedai Barang-Barang Runcit Perak", "Name_EN": "Perak Sundry Shops' Guild", "Location": "40, (1st Floor), Jalan Yang Kalsom, 30250 Ipoh, Perak.", "Longitude": 101.084269, "Latitude": 4.591238, "Region": "Perak", "Category": "业缘", "PageNumber": "158" }, "geometry": { "type": "Point", "coordinates": [ 101.0843, 4.5912, 101.0843 ] } },
{ "type": "Feature", "properties": { "Name_CH": "霹雳中医中药联合会", "Name_ML": "Persatuan Sengse Dan Perniagaan Ubat China Perak", "Name_EN": "Perak Chinese Physicians & Druggists Association", "Location": "17-19 (1st Floor) Jalan Ali Pitchay 30250 Ipoh, Perak.", "Longitude": 101.0853528, "Latitude": 4.5913607, "Region": "Perak", "Category": "业缘", "PageNumber": "158" }, "geometry": { "type": "Point", "coordinates": [ 101.0854, 4.5914, 101.0854 ] } },
{ "type": "Feature", "properties": { "Name_CH": "霹雳中华工商总会", "Name_ML": "Dewan Perniagaan Dan Perindustrian Cina Perak", "Name_EN": "Perak Chinese Chamber of Commerce And Industry", "Location": "35-37, 3rd Floor, Jalan Tun Sambanthan, 30000 Ipoh, Perak P.O. Box 220, 30720 Ipoh, Perak", "Longitude": 101.0773142, "Latitude": 4.5976897, "Region": "Perak", "Category": "业缘", "PageNumber": "158" }, "geometry": { "type": "Point", "coordinates": [ 101.0773, 4.5977, 101.0773 ] } },
{ "type": "Feature", "properties": { "Name_CH": "太平华人机器公会", "Name_ML": null, "Name_EN": "Taiping Chinese Engineering Association", "Location": "250, Jalan Tembikai, Kampung Jambu, 34000 Taiping, Perak.", "Longitude": 100.7405539, "Latitude": 4.8468747, "Region": "Perak", "Category": "业缘", "PageNumber": "158" }, "geometry": { "type": "Point", "coordinates": [ 100.7406, 4.8469, 100.7406 ] } },
{ "type": "Feature", "properties": { "Name_CH": "太平小贩商业公会", "Name_ML": "Persatuan Penjaja-Penjaja & Peniaga-Peniaga Taiping", "Name_EN": "The Taiping Hawkers Association", "Location": "247, Jalan Tembikai Kampung Jambu, 34000 Taiping, Perak.", "Longitude": 100.7411914, "Latitude": 4.8472742, "Region": "Perak", "Category": "业缘", "PageNumber": "158" }, "geometry": { "type": "Point", "coordinates": [ 100.7412, 4.8473, 100.7412 ] } },
{ "type": "Feature", "properties": { "Name_CH": "太平华人树胶公会", "Name_ML": "Persatuan Peniaga-Peniaga Getah Cina, Taiping", "Name_EN": "The Chinese Rubber Dealers Association", "Location": "87-91, Jalan Panggong Wayang 34000 Taiping, Perak,", "Longitude": 100.7398287, "Latitude": 4.8488307, "Region": "Perak", "Category": "业缘", "PageNumber": "158" }, "geometry": { "type": "Point", "coordinates": [ 100.7398, 4.8488, 100.7398 ] } },
{ "type": "Feature", "properties": { "Name_CH": "下霹雳中华工商总会", "Name_ML": "Dewan Perniagaan Dan Perindustrian China, Hilir Perak", "Name_EN": "Hilir Perak Chinese Chamber Of Commerce And Industry", "Location": "77-78, PT 16187-16188, Jalan Industri 1, Taman Perindustrian Anson, 36000 Teluk Intan, Perak", "Longitude": 101.0167538, "Latitude": 4.005012, "Region": "Perak", "Category": "业缘", "PageNumber": "159" }, "geometry": { "type": "Point", "coordinates": [ 101.0168, 4.005, 101.0168 ] } },
{ "type": "Feature", "properties": { "Name_CH": "下霹雳咖毗奈商公会", "Name_ML": null, "Name_EN": "The Coffee Shop Keepers Association", "Location": "122, Jingkat 2, Jalan Pasar, 36000 Teluk Intan, Perak", "Longitude": 101.020459, "Latitude": 4.0242889, "Region": "Perak", "Category": "业缘", "PageNumber": "159" }, "geometry": { "type": "Point", "coordinates": [ 101.0205, 4.0243, 101.0205 ] } },
{ "type": "Feature", "properties": { "Name_CH": "下霹雳森林公会", "Name_ML": null, "Name_EN": "Lower Perak Timber Trade Association", "Location": "29, Jalan Sithambaran Pillay, 36000 Teluk Intan, Perak.", "Longitude": 101.0162935, "Latitude": 4.0290926, "Region": "Perak", "Category": "业缘", "PageNumber": "159" }, "geometry": { "type": "Point", "coordinates": [ 101.0163, 4.0291, 101.0163 ] } },
{ "type": "Feature", "properties": { "Name_CH": "怡保的士协会", "Name_ML": "Persatuan Operator-Operator Teksi Bandaraya Ipoh", "Name_EN": null, "Location": "176B, Jalan Pasir Puteh, 31650 Ipoh Perak.", "Longitude": 101.0823937, "Latitude": 4.5866494, "Region": "Perak", "Category": "业缘", "PageNumber": "159" }, "geometry": { "type": "Point", "coordinates": [ 101.0824, 4.5866, 101.0824 ] } },
{ "type": "Feature", "properties": { "Name_CH": "怡保鱼商公会", "Name_ML": "Peratuan Pemborong Ikan Ipoh, Perak", "Name_EN": "Ipoh Fish Wholesale Merchants Association", "Location": "18-20A, Hala Datoh Satu, Jalan Datoh 30000 Ipoh, Perak.", "Longitude": 101.080138, "Latitude": 4.5885942, "Region": "Perak", "Category": "业缘", "PageNumber": "159" }, "geometry": { "type": "Point", "coordinates": [ 101.0801, 4.5886, 101.0801 ] } },
{ "type": "Feature", "properties": { "Name_CH": "霹雳中医师公会", "Name_ML": "Persatuan Sinseh Perak", "Name_EN": "Perak Chinese Physicians' Association", "Location": "46, Jalan Che Wan 30250 Ipoh, Perak", "Longitude": 101.0858267, "Latitude": 4.5907857, "Region": "Perak", "Category": "业缘", "PageNumber": "159" }, "geometry": { "type": "Point", "coordinates": [ 101.0858, 4.5908, 101.0858 ] } }
]
}
