{
"type": "FeatureCollection",
"name": "Category_1",
"crs": { "type": "name", "properties": { "name": "urn:ogc:def:crs:OGC:1.3:CRS84" } },
"features": [
{ "type": "Feature", "properties": { "Name_CH": "报德善堂麻坡分堂", "Name_ML": null, "Name_EN": "Poh Teck Sian T' ng Muar Chapter", "Location": "41-6, Jalan Bakri,84000 Muar, Johor.", "Region": "Johor", "Category": "慈善福利", "PageNumber": 315, "Country": "Malaysia", "latitude": 2.0485913, "longitude": 102.583751 }, "geometry": { "type": "Point", "coordinates": [ 102.583751, 2.0485913 ] } },
{ "type": "Feature", "properties": { "Name_CH": "彼咯福利社", "Name_ML": "Persatuan Kebajikan Fock Lee Shir Belok Segamat Johor", "Name_EN": null, "Location": "D 85, Jalan Ismail, Belok, 86500 Segamat Johor.", "Region": "Johor", "Category": "慈善福利", "PageNumber": 315, "Country": "Malaysia", "latitude": 2.5329218, "longitude": 102.8080275 }, "geometry": { "type": "Point", "coordinates": [ 102.8080275, 2.5329218 ] } },
{ "type": "Feature", "properties": { "Name_CH": "春秋慈善社", "Name_ML": "Pertubuhan Penganut Choon Chew Chee Sian Siah Kampung Abdullah Segamat", "Name_EN": null, "Location": "No.83, Jalan Mohd Noar, Kg. Abdullah, 85000 Segamat Johor.", "Region": "Johor", "Category": "慈善福利", "PageNumber": 315, "Country": "Malaysia", "latitude": 2.5016916, "longitude": 102.8260483 }, "geometry": { "type": "Point", "coordinates": [ 102.8260483, 2.5016916 ] } },
{ "type": "Feature", "properties": { "Name_CH": "巴力亚尼华人义山", "Name_ML": "Kubur Cina, Parit Yaani", "Name_EN": null, "Location": "70-B.Parit Yaani, 83710 Yong Peng, Johor.", "Region": "Johor", "Category": "慈善福利", "PageNumber": 315, "Country": "Malaysia", "latitude": 1.9494042, "longitude": 103.0249932 }, "geometry": { "type": "Point", "coordinates": [ 103.0249932, 1.9494042 ] } },
{ "type": "Feature", "properties": { "Name_CH": "巴罗中华义山", "Name_ML": "Jawatankuasa Pengurusan Perkuburan Cina Paloh Kluang", "Name_EN": null, "Location": "19, Jalan Abu Bakar, Palut 86600 Paloh, Johor.", "Region": "Johor", "Category": "慈善福利", "PageNumber": 315, "Country": "Malaysia", "latitude": 2.1882299, "longitude": 103.1943249 }, "geometry": { "type": "Point", "coordinates": [ 103.1943249, 2.1882299 ] } },
{ "type": "Feature", "properties": { "Name_CH": "笨珍广东义山亭", "Name_ML": "Persatuan Perkuburan Canton Pontian Johor", "Name_EN": null, "Location": "269 Jalan Alsagoff, Pontian, Johor.", "Region": "Johor", "Category": "慈善福利", "PageNumber": 315, "Country": "Malaysia", "latitude": 1.4842705, "longitude": 103.3900731 }, "geometry": { "type": "Point", "coordinates": [ 103.3900731, 1.4842705 ] } },
{ "type": "Feature", "properties": { "Name_CH": "彼咯中华义山", "Name_ML": null, "Name_EN": "Bekok Tionghua Cemetery", "Location": "67, Jalan Gunong, 86500 Bekok, Johor.", "Region": "Johor", "Category": "慈善福利", "PageNumber": 315, "Country": "Malaysia", "latitude": 2.2964368, "longitude": 103.1308427 }, "geometry": { "type": "Point", "coordinates": [ 103.1308427, 2.2964368 ] } },
{ "type": "Feature", "properties": { "Name_CH": "吧哂高谷华人义山", "Name_ML": "Perkuburan Cina Pasir Gogok Penggrang", "Name_EN": null, "Location": "Pasir Gogok Pingerang Johor.", "Region": "Johor", "Category": "慈善福利", "PageNumber": 315, "Country": "Malaysia", "latitude": 1.445712, "longitude": 104.112401 }, "geometry": { "type": "Point", "coordinates": [ 104.112401, 1.445712 ] } },
{ "type": "Feature", "properties": { "Name_CH": "东甲华人义山管理委员会", "Name_ML": "Jawatankuasa Perkuburan Cina Tangkak", "Name_EN": null, "Location": "40, Tingkat L Jalan Sialang, 84900 Tangkak, Johor.", "Region": "Johor", "Category": "慈善福利", "PageNumber": 316, "Country": "Malaysia", "latitude": 2.280538, "longitude": 102.519859 }, "geometry": { "type": "Point", "coordinates": [ 102.519859, 2.280538 ] } },
{ "type": "Feature", "properties": { "Name_CH": "金马士答鲁华人义山理事会", "Name_ML": "Persatuan Pengurusan Perkuburan Cina Gemas Baru Segamat Johor", "Name_EN": null, "Location": "40 Jalan Heng Wong, Gemas Baru, 73400 Segamat Johor.", "Region": "Johor", "Category": "慈善福利", "PageNumber": 316, "Country": "Malaysia", "latitude": 2.5853515, "longitude": 102.6254672 }, "geometry": { "type": "Point", "coordinates": [ 102.6254672, 2.5853515 ] } },
{ "type": "Feature", "properties": { "Name_CH": "丁能华人义山理事会", "Name_ML": "Pertubuhan Perkuburan Tionghua Tenang Segamat Johor", "Name_EN": null, "Location": "No.52, Tenang Station, 85030 Segamat, Johor.", "Region": "Johor", "Category": "慈善福利", "PageNumber": 316, "Country": "Malaysia", "latitude": 2.4653959, "longitude": 102.9570446 }, "geometry": { "type": "Point", "coordinates": [ 102.9570446, 2.4653959 ] } },
{ "type": "Feature", "properties": { "Name_CH": "居銮安溪义山", "Name_ML": null, "Name_EN": "Johor Anxi Association Cemetery Kluang", "Location": "16,17 & 18 (1st Floor) Jalan Tengku Mahkota Ismail 86000 Kluang, Johor.", "Region": "Johor", "Category": "慈善福利", "PageNumber": 316, "Country": "Malaysia", "latitude": 2.030068, "longitude": 103.3184639 }, "geometry": { "type": "Point", "coordinates": [ 103.3184639, 2.030068 ] } },
{ "type": "Feature", "properties": { "Name_CH": "福山亭理事会", "Name_ML": "Persatuan Perkuburan Cina Hock San Pontian Johor", "Name_EN": null, "Location": "82 Kampung Jawa, Pulai Sebatang, 82100 Pontian, Johor.", "Region": "Johor", "Category": "慈善福利", "PageNumber": 316, "Country": "Malaysia", "latitude": 1.566495, "longitude": 103.3527049 }, "geometry": { "type": "Point", "coordinates": [ 103.3527049, 1.566495 ] } },
{ "type": "Feature", "properties": { "Name_CH": "北干那那德化义山", "Name_ML": "Bukit Kubur Teck Hua Pekan Nenas", "Name_EN": null, "Location": "No.119,1st Floor, Jalan Utama 4, Taman Utama, 81500 Pekan Nenas.", "Region": "Johor", "Category": "慈善福利", "PageNumber": 316, "Country": "Malaysia", "latitude": 1.5051446, "longitude": 103.5186228 }, "geometry": { "type": "Point", "coordinates": [ 103.5186228, 1.5051446 ] } },
{ "type": "Feature", "properties": { "Name_CH": "加亨中华义山", "Name_ML": "Kahang Tionghua Cemetery Kluang", "Name_EN": null, "Location": "P-122, Kahang N\/Y, 86700 Kahang, Kluang, Johor.", "Region": "Johor", "Category": "慈善福利", "PageNumber": 316, "Country": "Malaysia", "latitude": 2.2445004, "longitude": 103.58182 }, "geometry": { "type": "Point", "coordinates": [ 103.58182, 2.2445004 ] } },
{ "type": "Feature", "properties": { "Name_CH": "古来华人义山管理委员会", "Name_ML": "Pertubuhan Jawatankuasa Pengurusan Perkuburan Orang Orang Cina Kulai", "Name_EN": null, "Location": "1A Jalan Makmur 1, Taman Makmur, 81000 Kulai, Johor.", "Region": "Johor", "Category": "慈善福利", "PageNumber": 316, "Country": "Malaysia", "latitude": 1.6611435, "longitude": 103.6095487 }, "geometry": { "type": "Point", "coordinates": [ 103.6095487, 1.6611435 ] } },
{ "type": "Feature", "properties": { "Name_CH": "哥打丁宜华人义山", "Name_ML": "Kota Tinggi Chinese Cemetery", "Name_EN": null, "Location": "No.2, 2nd Floor, Jalan Ah Siang, 81900 Kota Tinggi, Johor.", "Region": "Johor", "Category": "慈善福利", "PageNumber": 316, "Country": "Malaysia", "latitude": 1.4635843, "longitude": 103.7698008 }, "geometry": { "type": "Point", "coordinates": [ 103.7698008, 1.4635843 ] } },
{ "type": "Feature", "properties": { "Name_CH": "地南华人义山委员会", "Name_ML": null, "Name_EN": "The Management Committee Of The Chinese Cemetery Ulu Tiram", "Location": "No.6, Jalan Baiduri 1 Taman Intan, 81800 Ulu Tiram, Johor.", "Region": "Johor", "Category": "慈善福利", "PageNumber": 316, "Country": "Malaysia", "latitude": 1.6035515, "longitude": 103.8213704 }, "geometry": { "type": "Point", "coordinates": [ 103.8213704, 1.6035515 ] } },
{ "type": "Feature", "properties": { "Name_CH": "丰盛港扶轮社基金会", "Name_ML": "Yayasan Kelab Rotary Mersing", "Name_EN": "The Rotary Club of Mersing Foundation", "Location": "90, Jalan Merdeka, Mersing Kecil 86800 Mersing, Johor.", "Region": "Johor", "Category": "慈善福利", "PageNumber": 316, "Country": "Malaysia", "latitude": 2.4229951, "longitude": 103.8376863 }, "geometry": { "type": "Point", "coordinates": [ 103.8376863, 2.4229951 ] } },
{ "type": "Feature", "properties": { "Name_CH": "大湾永安义山", "Name_ML": "Sungai Kapal Pengerang Yong Ann Cemetery Kota Tinggi", "Name_EN": null, "Location": "Lot 1723, Sungai Kapal ,81610 Pengerang, Johor.", "Region": "Johor", "Category": "慈善福利", "PageNumber": 316, "Country": "Malaysia", "latitude": 1.352142, "longitude": 104.1815261 }, "geometry": { "type": "Point", "coordinates": [ 104.1815261, 1.352142 ] } },
{ "type": "Feature", "properties": { "Name_CH": "峇口雷州义山", "Name_ML": "Kubur Liu Chew Bakri Muar", "Name_EN": null, "Location": "46, Tingkat 1 & 2, Jalan Sisi, 84800 Muar, Johor.", "Region": "Johor", "Category": "慈善福利", "PageNumber": 317, "Country": "Malaysia", "latitude": 2.046639, "longitude": 102.5657846 }, "geometry": { "type": "Point", "coordinates": [ 102.5657846, 2.046639 ] } },
{ "type": "Feature", "properties": { "Name_CH": "峇株安南中华义山理事会", "Name_ML": "Persatuan PerkuburanTiong Hua, Batu Anam Segamat", "Name_EN": null, "Location": "No.184, Kampung Bahru, Batu Anam, Segamat Johor.", "Region": "Johor", "Category": "慈善福利", "PageNumber": 317, "Country": "Malaysia", "latitude": 2.577145, "longitude": 102.7074128 }, "geometry": { "type": "Point", "coordinates": [ 102.7074128, 2.577145 ] } },
{ "type": "Feature", "properties": { "Name_CH": "峇株巴辖华山亭", "Name_ML": null, "Name_EN": "Tionghua Memorial Court Jalan Tanjong Laboh Batu Pahat", "Location": "7A, Jalan Rugayah Barat 83000 Batu Pahat.", "Region": "Johor", "Category": "慈善福利", "PageNumber": 317, "Country": "Malaysia", "latitude": 1.8506269, "longitude": 102.9258782 }, "geometry": { "type": "Point", "coordinates": [ 102.9258782, 1.8506269 ] } },
{ "type": "Feature", "properties": { "Name_CH": "峇株巴辖广西同乡会义山", "Name_ML": "Perkuburan Persatuan Kwangsi Tung Hsing Hui Batu Pahat", "Name_EN": null, "Location": "16-1 A, Jalan Mohd. Salleh, 83000 Batu Pahat, Johor", "Region": "Johor", "Category": "慈善福利", "PageNumber": 317, "Country": "Malaysia", "latitude": 1.8483078, "longitude": 102.9294551 }, "geometry": { "type": "Point", "coordinates": [ 102.9294551, 1.8483078 ] } },
{ "type": "Feature", "properties": { "Name_CH": "峇株巴辖广东义山(第一义山、第二义山、第三义山)", "Name_ML": null, "Name_EN": "Kwang Tung Hway Kuan Cemeteries (Tanah Perkuburan 1, 2, & 3) Batu Pahat", "Location": "No. 78B, Jalan Mohd. Akil, 83000 Batu Pahat, Johor.", "Region": "Johor", "Category": "慈善福利", "PageNumber": 317, "Country": "Malaysia", "latitude": 1.8551888, "longitude": 102.9294688 }, "geometry": { "type": "Point", "coordinates": [ 102.9294688, 1.8551888 ] } },
{ "type": "Feature", "properties": { "Name_CH": "峇株巴辖椿寿", "Name_ML": "Persatuan Eng Choong Batu Pahat Cemetery Batu Pahat", "Name_EN": null, "Location": "37A & 37-IA, Jalan Rahmat, 83000 Batu Pahat Johor", "Region": "Johor", "Category": "慈善福利", "PageNumber": 317, "Country": "Malaysia", "latitude": 1.8488089, "longitude": 102.9312178 }, "geometry": { "type": "Point", "coordinates": [ 102.9312178, 1.8488089 ] } },
{ "type": "Feature", "properties": { "Name_CH": "峇株巴辖德化会馆德寿山", "Name_ML": "Persatuan Teck Hua Negeri Johor Cemetery Batu Pahat", "Name_EN": null, "Location": "No.21A, Jalan Temiang, Taman Makmur, 83000 Batu Pahat, Johor.", "Region": "Johor", "Category": "慈善福利", "PageNumber": 317, "Country": "Malaysia", "latitude": 1.8595291, "longitude": 102.931669 }, "geometry": { "type": "Point", "coordinates": [ 102.931669, 1.8595291 ] } },
{ "type": "Feature", "properties": { "Name_CH": "峇株巴辖福寿山", "Name_ML": null, "Name_EN": "Hock Siew San Cemetery-Batu Pahat", "Location": "35B, Jalan Rahmat 83000 Batu Pahat Johor.", "Region": "Johor", "Category": "慈善福利", "PageNumber": 317, "Country": "Malaysia", "latitude": 1.848559, "longitude": 102.9318686 }, "geometry": { "type": "Point", "coordinates": [ 102.9318686, 1.848559 ] } },
{ "type": "Feature", "properties": { "Name_CH": "居銮惠州会馆义山", "Name_ML": "Persatuan Fui Chew Negeri Johor Cemetery", "Name_EN": null, "Location": "25, Jalan Dato Teoh Siew Khor, 86000 Kluang, Johor.", "Region": "Johor", "Category": "慈善福利", "PageNumber": 317, "Country": "Malaysia", "latitude": 2.031291, "longitude": 103.3197866 }, "geometry": { "type": "Point", "coordinates": [ 103.3197866, 2.031291 ] } },
{ "type": "Feature", "properties": { "Name_CH": "居銮中华义山", "Name_ML": null, "Name_EN": "Kluang Chinese Association Cemetery", "Location": "1, Jalan Wayang, 86000 Kluang, Johor.", "Region": "Johor", "Category": "慈善福利", "PageNumber": 317, "Country": "Malaysia", "latitude": 2.0279895, "longitude": 103.3201362 }, "geometry": { "type": "Point", "coordinates": [ 103.3201362, 2.0279895 ] } },
{ "type": "Feature", "properties": { "Name_CH": "居銮嘉应义山", "Name_ML": null, "Name_EN": "Johor Kar Ying Association Cemetery Kluang", "Location": "36, Tingkat 1, Jalan Dato Captain Ahmad, 86000 Kluangjohor.", "Region": "Johor", "Category": "慈善福利", "PageNumber": 317, "Country": "Malaysia", "latitude": 2.048435, "longitude": 103.4049445 }, "geometry": { "type": "Point", "coordinates": [ 103.4049445, 2.048435 ] } },
{ "type": "Feature", "properties": { "Name_CH": "峇吉里韩江公冢", "Name_ML": null, "Name_EN": "Muar Bakri Hang Kang Cemetery", "Location": null, "Region": "Johor", "Category": "慈善福利", "PageNumber": 317, "Country": "Malaysia", "latitude": 0.0, "longitude": 0.0 }, "geometry": { "type": "Point", "coordinates": [ 0.0, 0.0 ] } },
{ "type": "Feature", "properties": { "Name_CH": "坤兰勿汝广福堂义山管理委员会", "Name_ML": "Jawatankuasa Pengurusan Perkuburan Kong Hock Tan Muar", "Name_EN": null, "Location": "No.181, Kun Dong Ulu, 84710 Muar, Johor.", "Region": "Johor", "Category": "慈善福利", "PageNumber": 318, "Country": "Malaysia", "latitude": 2.0630519, "longitude": 102.5848717 }, "geometry": { "type": "Point", "coordinates": [ 102.5848717, 2.0630519 ] } },
{ "type": "Feature", "properties": { "Name_CH": "麻坡广肇义山亭", "Name_ML": null, "Name_EN": "Muar Kwang Chow Association Cemetery", "Location": "55, Jalan Ali 84000 Muar, Johor.", "Region": "Johor", "Category": "慈善福利", "PageNumber": 318, "Country": "Malaysia", "latitude": 2.0454025, "longitude": 102.5675229 }, "geometry": { "type": "Point", "coordinates": [ 102.5675229, 2.0454025 ] } },
{ "type": "Feature", "properties": { "Name_CH": "乐光广东义山天安墓园（新山）", "Name_ML": null, "Name_EN": null, "Location": "88, Jalan Serom, 84400 Sg. Mati, Muar, Johor.", "Region": "Johor", "Category": "慈善福利", "PageNumber": 318, "Country": "Malaysia", "latitude": 2.1637661, "longitude": 102.5709198 }, "geometry": { "type": "Point", "coordinates": [ 102.5709198, 2.1637661 ] } },
{ "type": "Feature", "properties": { "Name_CH": "利丰港利华慈善社", "Name_ML": "Persatuan Kebajikan Lee Hwa Sg. Mali Muar Johor", "Name_EN": null, "Location": "12 Sg. Mati, 84400 Muar, Johor.", "Region": "Johor", "Category": "慈善福利", "PageNumber": 318, "Country": "Malaysia", "latitude": 2.1414741, "longitude": 102.5871807 }, "geometry": { "type": "Point", "coordinates": [ 102.5871807, 2.1414741 ] } },
{ "type": "Feature", "properties": { "Name_CH": "林宫联谊慈善社", "Name_ML": "Persatuan How Um Kiong Lian Ngee Siah Charity Association", "Name_EN": null, "Location": "218-219 Bukit Gambir, New Village, Muar, Johor", "Region": "Johor", "Category": "慈善福利", "PageNumber": 318, "Country": "Malaysia", "latitude": 2.295049, "longitude": 102.6833468 }, "geometry": { "type": "Point", "coordinates": [ 102.6833468, 2.295049 ] } },
{ "type": "Feature", "properties": { "Name_CH": "利民达新港中华义山", "Name_ML": null, "Name_EN": "Kokkien Association Cemetery Jementah Segamat", "Location": "No.63, Tingkat 2, Jalan Muar, 85200 Jementah, Segamat Johor", "Region": "Johor", "Category": "慈善福利", "PageNumber": 318, "Country": "Malaysia", "latitude": 2.4387998, "longitude": 102.6846273 }, "geometry": { "type": "Point", "coordinates": [ 102.6846273, 2.4387998 ] } },
{ "type": "Feature", "properties": { "Name_CH": "利民达中华义山", "Name_ML": "Kubur Cina Persatuan Chung Hwa Jementah Segamat", "Name_EN": null, "Location": "No.26, Jalan Muar, Jementah, 85200 Segamat Johor", "Region": "Johor", "Category": "慈善福利", "PageNumber": 318, "Country": "Malaysia", "latitude": 2.4920254, "longitude": 102.7981958 }, "geometry": { "type": "Point", "coordinates": [ 102.7981958, 2.4920254 ] } },
{ "type": "Feature", "properties": { "Name_CH": "峇株巴辖济世慈善中心", "Name_ML": "Persatuan Kebajikan Ji Gong Batu Pahat Johor", "Name_EN": null, "Location": "99A Jalan Chengal Taman Makmur, 83000 Batu Pahat Johor", "Region": "Johor", "Category": "慈善福利", "PageNumber": 318, "Country": "Malaysia", "latitude": 1.8593535, "longitude": 102.9303855 }, "geometry": { "type": "Point", "coordinates": [ 102.9303855, 1.8593535 ] } },
{ "type": "Feature", "properties": { "Name_CH": "拉美士中华义山", "Name_ML": "Kubur Cina Labis Johor", "Name_EN": null, "Location": "147-B, Tingkat 2, Jalan Segamat, Taman Labis, 85300 Labis, Johor.", "Region": "Johor", "Category": "慈善福利", "PageNumber": 318, "Country": "Malaysia", "latitude": 2.3966757, "longitude": 103.0190988 }, "geometry": { "type": "Point", "coordinates": [ 103.0190988, 2.3966757 ] } },
{ "type": "Feature", "properties": { "Name_CH": "梁站中华义山", "Name_ML": "Persatuan Tiong Hwa Kg Niyer Kluang", "Name_EN": null, "Location": "No.19, Jalan Station, Kampung Niyer, 86000 Kluang, Joho", "Region": "Johor", "Category": "慈善福利", "PageNumber": 318, "Country": "Malaysia", "latitude": 2.0321742, "longitude": 103.3179851 }, "geometry": { "type": "Point", "coordinates": [ 103.3179851, 2.0321742 ] } },
{ "type": "Feature", "properties": { "Name_CH": "金大伯公庙暨华人义山理事会", "Name_ML": "Persatuan PerkuburanCina & Rumah Berhala Tai Pek Kong, Rengam Johor", "Name_EN": null, "Location": "Jalan Kubur Cina, 86300 Rengam, Johor.", "Region": "Johor", "Category": "慈善福利", "PageNumber": 318, "Country": "Malaysia", "latitude": 1.8807597, "longitude": 103.4024303 }, "geometry": { "type": "Point", "coordinates": [ 103.4024303, 1.8807597 ] } },
{ "type": "Feature", "properties": { "Name_CH": "拉央华人义山委员会", "Name_ML": "Jawatankuasa Pengurusan Tanah Perkuburan Cina Layang-Layang Johor", "Name_EN": null, "Location": "56-A, Jalan Sekolah Cina, 81850 Layang-Layang Johor.", "Region": "Johor", "Category": "慈善福利", "PageNumber": 318, "Country": "Malaysia", "latitude": 1.8181526, "longitude": 103.477343 }, "geometry": { "type": "Point", "coordinates": [ 103.477343, 1.8181526 ] } },
{ "type": "Feature", "properties": { "Name_CH": "麻坡中华公冢义山", "Name_ML": null, "Name_EN": "Muar Chinese Community Burial Ground", "Location": "No.16, Tingkat Satu, Jalan Parit Haji Baki, 84000 Muar, Johor", "Region": "Johor", "Category": "慈善福利", "PageNumber": 319, "Country": "Malaysia", "latitude": 2.0297062, "longitude": 102.5644041 }, "geometry": { "type": "Point", "coordinates": [ 102.5644041, 2.0297062 ] } },
{ "type": "Feature", "properties": { "Name_CH": "柔佛麻属实廊济世之家", "Name_ML": "Persatuan Kebajikan Ji Shi Zhi Jia Serom, Muar", "Name_EN": null, "Location": "LC 20, Serom 3, 84000 Muar, Johor.", "Region": "Johor", "Category": "慈善福利", "PageNumber": 319, "Country": "Malaysia", "latitude": 2.163943, "longitude": 102.585073 }, "geometry": { "type": "Point", "coordinates": [ 102.585073, 2.163943 ] } },
{ "type": "Feature", "properties": { "Name_CH": "麻属巴冬中华义山理事会", "Name_ML": null, "Name_EN": "The Parit Jawa Chinese Cemetery Committee", "Location": "No.174, Jalan Jabbar, 84150 Parit Jawa,Muar, Johor.", "Region": "Johor", "Category": "慈善福利", "PageNumber": 319, "Country": "Malaysia", "latitude": 1.957534, "longitude": 102.6424529 }, "geometry": { "type": "Point", "coordinates": [ 102.6424529, 1.957534 ] } },
{ "type": "Feature", "properties": { "Name_CH": "南山亭义山", "Name_ML": null, "Name_EN": "Nam San Teng Cemetery Belemang Village Serom Muar Johor.", "Location": "Batu 17, Jalan Sengkang, Bukit Gambir, Muar, Mukim Grisek, Johor", "Region": "Johor", "Category": "慈善福利", "PageNumber": 319, "Country": "Malaysia", "latitude": 2.2462489, "longitude": 102.6690262 }, "geometry": { "type": "Point", "coordinates": [ 102.6690262, 2.2462489 ] } },
{ "type": "Feature", "properties": { "Name_CH": "柔佛州残疾人士联谊会", "Name_ML": "Pertubuhan Orang-Orang Kurang Upaya Negeri Johor", "Name_EN": null, "Location": "1, Jalan Ab. Hamid, Bukit Siput, 85020 Segamat Johor.", "Region": "Johor", "Category": "慈善福利", "PageNumber": 319, "Country": "Malaysia", "latitude": 2.48501, "longitude": 102.84612 }, "geometry": { "type": "Point", "coordinates": [ 102.84612, 2.48501 ] } },
{ "type": "Feature", "properties": { "Name_CH": "柔佛三合港中华义山理事会", "Name_ML": "Jawatankuasa Perkuburan Orang Cina Chaah Johor", "Name_EN": null, "Location": "No.30A, Jalan Tun Dr. Ismail 85400 Chaah, Johor.", "Region": "Johor", "Category": "慈善福利", "PageNumber": 319, "Country": "Malaysia", "latitude": 2.2487289, "longitude": 103.0417695 }, "geometry": { "type": "Point", "coordinates": [ 103.0417695, 2.2487289 ] } },
{ "type": "Feature", "properties": { "Name_CH": "内丁能中华义山", "Name_ML": "Persatuan Khairat Tionghua Air Panas Labis Johor", "Name_EN": null, "Location": "Pekan Air Panas Labis, Johor.", "Region": "Johor", "Category": "慈善福利", "PageNumber": 319, "Country": "Malaysia", "latitude": 2.4740188, "longitude": 103.0527112 }, "geometry": { "type": "Point", "coordinates": [ 103.0527112, 2.4740188 ] } },
{ "type": "Feature", "properties": { "Name_CH": "柔佛同奉善堂", "Name_ML": "Persatuan Thong Hong Siang T' ng Johor", "Name_EN": null, "Location": "10, Jalan Ros Merah 1\/2, Taman Johor Jaya, 81100 Johor Bahru, Johor", "Region": "Johor", "Category": "慈善福利", "PageNumber": 319, "Country": "Malaysia", "latitude": 1.5365187, "longitude": 103.7897607 }, "geometry": { "type": "Point", "coordinates": [ 103.7897607, 1.5365187 ] } },
{ "type": "Feature", "properties": { "Name_CH": "任罗宏华侨互助社", "Name_ML": "Persatuan Oversea Chinese Mutual Aid Association", "Name_EN": null, "Location": "3H Jalan Mersing, 86810 Jemaluang, Johor.", "Region": "Johor", "Category": "慈善福利", "PageNumber": 319, "Country": "Malaysia", "latitude": 2.2684954, "longitude": 103.8521947 }, "geometry": { "type": "Point", "coordinates": [ 103.8521947, 2.2684954 ] } },
{ "type": "Feature", "properties": { "Name_CH": "马西中华义山", "Name_ML": null, "Name_EN": "Jawatankuasa Pengurusan Tanah Perkuburan Tionghwa Masai Johor", "Location": "26, Jalan Suria 69, Bandar Sri Alam, 81750 Masai, Johor", "Region": "Johor", "Category": "慈善福利", "PageNumber": 319, "Country": "Malaysia", "latitude": 1.4954499, "longitude": 103.8813514 }, "geometry": { "type": "Point", "coordinates": [ 103.8813514, 1.4954499 ] } },
{ "type": "Feature", "properties": { "Name_CH": "南亚华人义山", "Name_ML": "Persatuan PerkuburanCina, Kg. Baru Telok Sengat Kota Tinggi", "Name_EN": null, "Location": "30, Jalan Siakap, Kampung Baru Telok Sengat 81940 Kota Tinggi Johor", "Region": "Johor", "Category": "慈善福利", "PageNumber": 319, "Country": "Malaysia", "latitude": 1.5562057, "longitude": 104.0327428 }, "geometry": { "type": "Point", "coordinates": [ 104.0327428, 1.5562057 ] } },
{ "type": "Feature", "properties": { "Name_CH": "麻坡海南义山", "Name_ML": null, "Name_EN": "Muar Hainan Association Cemetery", "Location": null, "Region": "Johor", "Category": "慈善福利", "PageNumber": 319, "Country": "Malaysia", "latitude": 0.0, "longitude": 0.0 }, "geometry": { "type": "Point", "coordinates": [ 0.0, 0.0 ] } },
{ "type": "Feature", "properties": { "Name_CH": "武吉巴西永德公冢", "Name_ML": "Pertubuhan Perkuburan Eng Teck Bukit Pasir Muar Johor", "Name_EN": null, "Location": "5, Taman Bukit Pasir, 84300 Muar, Johor.", "Region": "Johor", "Category": "慈善福利", "PageNumber": 320, "Country": "Malaysia", "latitude": 2.0742381, "longitude": 102.6021513 }, "geometry": { "type": "Point", "coordinates": [ 102.6021513, 2.0742381 ] } },
{ "type": "Feature", "properties": { "Name_CH": "武吉巴西永德公冢", "Name_ML": null, "Name_EN": "Eng Teck Bukit Pasir, Muar", "Location": "5, Taman Bukit Pasir, 84300 Muar, Johor.", "Region": "Johor", "Category": "慈善福利", "PageNumber": 320, "Country": "Malaysia", "latitude": 2.0742381, "longitude": 102.6021513 }, "geometry": { "type": "Point", "coordinates": [ 102.6021513, 2.0742381 ] } },
{ "type": "Feature", "properties": { "Name_CH": "武吉甘蜜烛光之家", "Name_ML": "Persatuan Kebajikan Bukit Gambir", "Name_EN": null, "Location": "D\/A No.22, Jalan Poh Ai, 84800 Bukit Gambir, Muar, Johor", "Region": "Johor", "Category": "慈善福利", "PageNumber": 320, "Country": "Malaysia", "latitude": 2.2109959, "longitude": 102.6557161 }, "geometry": { "type": "Point", "coordinates": [ 102.6557161, 2.2109959 ] } },
{ "type": "Feature", "properties": { "Name_CH": "巫罗加什聚美亭华人义山", "Name_ML": "Persatuan Tanah Perkuburan Orang-Orang Cina Inn Teng Buloh Kasap Segamat", "Name_EN": null, "Location": "No.20, Jalan Ibrahim Buloh Kasap, 85010 Segamat Johor.", "Region": "Johor", "Category": "慈善福利", "PageNumber": 320, "Country": "Malaysia", "latitude": 2.5541231, "longitude": 102.7650689 }, "geometry": { "type": "Point", "coordinates": [ 102.7650689, 2.5541231 ] } },
{ "type": "Feature", "properties": { "Name_CH": "武吉巴株广福义山", "Name_ML": "Persatuan Tionghua Senggarang Cemetery Batu Pahat", "Name_EN": null, "Location": "No.159, Jalan Ismail, 83200 Senggarang, Johor.", "Region": "Johor", "Category": "慈善福利", "PageNumber": 320, "Country": "Malaysia", "latitude": 1.8508939, "longitude": 102.9280248 }, "geometry": { "type": "Point", "coordinates": [ 102.9280248, 1.8508939 ] } },
{ "type": "Feature", "properties": { "Name_CH": "双溪加昉中华义山", "Name_ML": "Jawatankuasa Pengurusan Perkuburan Cina, Sg. Karas Segamat", "Name_EN": null, "Location": "21, Jalan Teo Ing. Sungai Karas, 85300 Labis, Johor.", "Region": "Johor", "Category": "慈善福利", "PageNumber": 320, "Country": "Malaysia", "latitude": 2.356199, "longitude": 103.037427 }, "geometry": { "type": "Point", "coordinates": [ 103.037427, 2.356199 ] } },
{ "type": "Feature", "properties": { "Name_CH": "三合港中华义山理事会", "Name_ML": "Jawatankuasa Perkuburan Orang Cina Cha' Ah Johor", "Name_EN": null, "Location": "4 (Tingkat 1) Jalan Tun Dr. Ismail 85400, Chaah Johor.", "Region": "Johor", "Category": "慈善福利", "PageNumber": 320, "Country": "Malaysia", "latitude": 2.2501535, "longitude": 103.041891 }, "geometry": { "type": "Point", "coordinates": [ 103.041891, 2.2501535 ] } },
{ "type": "Feature", "properties": { "Name_CH": "士姑来乐山亭华人义山", "Name_ML": "Jawatankuasa Pengurusan Perkuburan Cina Lock San Thin, Skudai", "Name_EN": null, "Location": "C\/0 56E, Jalan Lampan, Kg. Baru Skudai, 81300 Skudai, Johor.", "Region": "Johor", "Category": "慈善福利", "PageNumber": 320, "Country": "Malaysia", "latitude": 1.5358408, "longitude": 103.6619152 }, "geometry": { "type": "Point", "coordinates": [ 103.6619152, 1.5358408 ] } },
{ "type": "Feature", "properties": { "Name_CH": "头湾广东义山", "Name_ML": "Perkuburan Kwang Tung Kg Jawa Pengerang Johor", "Name_EN": null, "Location": "91, Kampung Jawa, 81600 Pengerang, Johor.", "Region": "Johor", "Category": "慈善福利", "PageNumber": 320, "Country": "Malaysia", "latitude": 1.350014, "longitude": 104.135711 }, "geometry": { "type": "Point", "coordinates": [ 104.135711, 1.350014 ] } },
{ "type": "Feature", "properties": { "Name_CH": "四湾华人义山理事会", "Name_ML": "Lembaga Pengurus Kubur Awam Tionghua Sungai Rengit Pengerang Johor", "Name_EN": null, "Location": "No.8- B, Jalan Siakap, Sungai Rengit, 81600 Pengerang, Johor.", "Region": "Johor", "Category": "慈善福利", "PageNumber": 320, "Country": "Malaysia", "latitude": 1.3511795, "longitude": 104.2250648 }, "geometry": { "type": "Point", "coordinates": [ 104.2250648, 1.3511795 ] } },
{ "type": "Feature", "properties": { "Name_CH": "泗湾志愿消访队", "Name_ML": "Persatuan Bomba Sukarela KRT Sungai Rengit", "Name_EN": null, "Location": "Balai Bomba Sukarela K.R.T. Sungai Rengit 81620, Pengerang, Johor.", "Region": "Johor", "Category": "慈善福利", "PageNumber": 320, "Country": "Malaysia", "latitude": 1.3570169, "longitude": 104.1295302 }, "geometry": { "type": "Point", "coordinates": [ 104.1295302, 1.3570169 ] } },
{ "type": "Feature", "properties": { "Name_CH": "新港十九支华人义山", "Name_ML": null, "Name_EN": "SengKang Bt 19 Chinese CemeteryMuar", "Location": "Batu 19, Sengkang, Bukit Gambir, 84800 Muar, Johor", "Region": "Johor", "Category": "慈善福利", "PageNumber": 321, "Country": "Malaysia", "latitude": 2.263343, "longitude": 102.68224 }, "geometry": { "type": "Point", "coordinates": [ 102.68224, 2.263343 ] } },
{ "type": "Feature", "properties": { "Name_CH": "昔加末巫罗加什聚英亭福利组", "Name_ML": "Persatuan Tanah Perkuburan Orang Orang Cina Ci Inn Teng Buloh Kasap Segamat", "Name_EN": null, "Location": "14 Jalan Abdullah, Buloh Kasap, 85010 Segamat Johor.", "Region": "Johor", "Category": "慈善福利", "PageNumber": 321, "Country": "Malaysia", "latitude": 2.5090717, "longitude": 102.8139214 }, "geometry": { "type": "Point", "coordinates": [ 102.8139214, 2.5090717 ] } },
{ "type": "Feature", "properties": { "Name_CH": "昔加末华人福利会", "Name_ML": "Persatuan Kebajikan Orang-Orang Cina Cemetery Segamat", "Name_EN": null, "Location": "No.4, 2nd Floor, Jalan Ros, Segamat 85000, Johor.", "Region": "Johor", "Category": "慈善福利", "PageNumber": 321, "Country": "Malaysia", "latitude": 2.503087, "longitude": 102.8218323 }, "geometry": { "type": "Point", "coordinates": [ 102.8218323, 2.503087 ] } },
{ "type": "Feature", "properties": { "Name_CH": "昔加末中华亲善洗肾中心", "Name_ML": "Pertubuhan Hemodialisis Muhibbah Segamat Johor", "Name_EN": null, "Location": "14 & 16, Jalan Nagasari 17,Segamat Baru, 85000 Segamat Johor.", "Region": "Johor", "Category": "慈善福利", "PageNumber": 321, "Country": "Malaysia", "latitude": 2.4928991, "longitude": 102.8512299 }, "geometry": { "type": "Point", "coordinates": [ 102.8512299, 2.4928991 ] } },
{ "type": "Feature", "properties": { "Name_CH": "新加兰武吉巴株广福义山", "Name_ML": "Perkuburan Cina Senggarang", "Name_EN": null, "Location": "159, Jalan Ismail, 3200 Senggarang, Batu Pahat Johor.", "Region": "Johor", "Category": "慈善福利", "PageNumber": 321, "Country": "Malaysia", "latitude": 1.8508939, "longitude": 102.9280248 }, "geometry": { "type": "Point", "coordinates": [ 102.9280248, 1.8508939 ] } },
{ "type": "Feature", "properties": { "Name_CH": "新港中华义山管委会", "Name_ML": "Persatuan Perkuburan Kaum Tiong Hua Kangkar Baru Yong Peng Johor", "Name_EN": null, "Location": "Tokong Hock Long, Jalan Tokong, Kangkar Baru, 83700 Yong Peng, Johor.", "Region": "Johor", "Category": "慈善福利", "PageNumber": 321, "Country": "Malaysia", "latitude": 2.015901, "longitude": 103.066052 }, "geometry": { "type": "Point", "coordinates": [ 103.066052, 2.015901 ] } },
{ "type": "Feature", "properties": { "Name_CH": "新邦令金华人义山理事会", "Name_ML": "Jawatankuasa Kubor Cina Kawasan Simpang Renggam Johor", "Name_EN": null, "Location": "B S22, Jalan Panggong Simpang, 86200 Rengam, Johor.", "Region": "Johor", "Category": "慈善福利", "PageNumber": 321, "Country": "Malaysia", "latitude": 1.8394506, "longitude": 103.3356272 }, "geometry": { "type": "Point", "coordinates": [ 103.3356272, 1.8394506 ] } },
{ "type": "Feature", "properties": { "Name_CH": "新山济贤善社", "Name_ML": "Che Hian Sian Siah", "Name_EN": null, "Location": "Lot 318, Jalan Banjaran Tujuk, Kempas Baru, 81200 Johor Bahru, Johor.", "Region": "Johor", "Category": "慈善福利", "PageNumber": 321, "Country": "Malaysia", "latitude": 1.529832, "longitude": 103.7163089 }, "geometry": { "type": "Point", "coordinates": [ 103.7163089, 1.529832 ] } },
{ "type": "Feature", "properties": { "Name_CH": "新山中华公会绵裕亭义山管委会", "Name_ML": null, "Name_EN": "Cemetery Of Persekutuan Tiong-Hua Johor Bahru.", "Location": "8, Jalan Keris, Jalan Sri Tebrau, 80050, Johor Bahru.", "Region": "Johor", "Category": "慈善福利", "PageNumber": 321, "Country": "Malaysia", "latitude": 1.4869238, "longitude": 103.7697248 }, "geometry": { "type": "Point", "coordinates": [ 103.7697248, 1.4869238 ] } },
{ "type": "Feature", "properties": { "Name_CH": "新山中华公会振林山义山", "Name_ML": null, "Name_EN": "Cemetery Of Persekutuan Tiong Hua JB (Gunung Patah)", "Location": "No.8, Jalan Keris, Taman Sri Tebrau,80050 Johor Bahru, Johor.", "Region": "Johor", "Category": "慈善福利", "PageNumber": 321, "Country": "Malaysia", "latitude": 1.4869238, "longitude": 103.7697248 }, "geometry": { "type": "Point", "coordinates": [ 103.7697248, 1.4869238 ] } },
{ "type": "Feature", "properties": { "Name_CH": "新山醒华慈善剧社", "Name_ML": null, "Name_EN": "Johor Bahru Sing Wah Amateur Dramatic Association", "Location": "79A, Jalan Kuningjaman Pelangi, 80400 Johor Bahru, Johor.", "Region": "Johor", "Category": "慈善福利", "PageNumber": 321, "Country": "Malaysia", "latitude": 1.4836767, "longitude": 103.7757987 }, "geometry": { "type": "Point", "coordinates": [ 103.7757987, 1.4836767 ] } },
{ "type": "Feature", "properties": { "Name_CH": "新山慈心一族", "Name_ML": "Persatuan Kebajikan Ci Xin Johor Bahru Johor", "Name_EN": null, "Location": "29 Jalan Danau 30, Taman Desa Jaya, 81100 Johor Bahru, Johor.", "Region": "Johor", "Category": "慈善福利", "PageNumber": 321, "Country": "Malaysia", "latitude": 1.5537466, "longitude": 103.8071439 }, "geometry": { "type": "Point", "coordinates": [ 103.8071439, 1.5537466 ] } },
{ "type": "Feature", "properties": { "Name_CH": "修德善堂麻坡分堂", "Name_ML": null, "Name_EN": "Seu Teck Sean Tong Muar Chapter", "Location": "40, Jalan Sultan Ibrahim,Muar, Johor.", "Region": "Johor", "Category": "慈善福利", "PageNumber": 322, "Country": "Malaysia", "latitude": 2.0373602, "longitude": 102.571965 }, "geometry": { "type": "Point", "coordinates": [ 102.571965, 2.0373602 ] } },
{ "type": "Feature", "properties": { "Name_CH": "至德慈善社", "Name_ML": "Persatuan Chee Teck Cher Siang Siah", "Name_EN": null, "Location": "88 & 89, Jalan Sg. Bilah, Bukit Gambir, 84800 Muar, Johor.", "Region": "Johor", "Category": "慈善福利", "PageNumber": 322, "Country": "Malaysia", "latitude": 2.2082783, "longitude": 102.6589864 }, "geometry": { "type": "Point", "coordinates": [ 102.6589864, 2.2082783 ] } },
{ "type": "Feature", "properties": { "Name_CH": "巴莪烛光之家", "Name_ML": "Persatuan Kebajikan Dan Sosial Pagoh", "Name_EN": null, "Location": "No.68, Pekan Pagoh, 84600 Muar, Johor.", "Region": "Johor", "Category": "慈善福利", "PageNumber": 322, "Country": "Malaysia", "latitude": 2.1547967, "longitude": 102.7767967 }, "geometry": { "type": "Point", "coordinates": [ 102.7767967, 2.1547967 ] } },
{ "type": "Feature", "properties": { "Name_CH": "亚奄须汝华人义山管理委员会", "Name_ML": "Jawatankuasa Pengurusan Perkuburan Cina Ayam Suloh Batu Pahat", "Name_EN": null, "Location": "12, Sungai Suloh, Mk9, 83040 Batu Pahat Johor.", "Region": "Johor", "Category": "慈善福利", "PageNumber": 322, "Country": "Malaysia", "latitude": 1.7874596, "longitude": 102.9122173 }, "geometry": { "type": "Point", "coordinates": [ 102.9122173, 1.7874596 ] } },
{ "type": "Feature", "properties": { "Name_CH": "中华义山委员会", "Name_ML": null, "Name_EN": "Chung Hwa Gee San Committee", "Location": "No.53, Jalan Besar Sri Medan, 83400 Batu Pahat, Johor.", "Region": "Johor", "Category": "慈善福利", "PageNumber": 322, "Country": "Malaysia", "latitude": 1.9842268, "longitude": 102.9549154 }, "geometry": { "type": "Point", "coordinates": [ 102.9549154, 1.9842268 ] } },
{ "type": "Feature", "properties": { "Name_CH": "永平友爱慈善社", "Name_ML": "Pertubuhan Yew Ai Charity Society", "Name_EN": null, "Location": "4, Yew Ai Road, 83700 Yong Peng, Johor.", "Region": "Johor", "Category": "慈善福利", "PageNumber": 322, "Country": "Malaysia", "latitude": 2.013816, "longitude": 103.0631153 }, "geometry": { "type": "Point", "coordinates": [ 103.0631153, 2.013816 ] } },
{ "type": "Feature", "properties": { "Name_CH": "永平中华义山美化管理委员会", "Name_ML": "Jawatankuasa Pengurusan Perkuburan Tiong Hua Yong Peng", "Name_EN": null, "Location": "24, First Floor, Jalan Kota, Taman Kota Yong Peng, Johor.", "Region": "Johor", "Category": "慈善福利", "PageNumber": 322, "Country": "Malaysia", "latitude": 2.012849, "longitude": 103.0704552 }, "geometry": { "type": "Point", "coordinates": [ 103.0704552, 2.012849 ] } },
{ "type": "Feature", "properties": { "Name_CH": "占美中华义山", "Name_ML": null, "Name_EN": "Chinese Cemetery Chamek Kluang", "Location": "d\/a 162A, Kampung Chamek, 86000 Kluang, Johor.", "Region": "Johor", "Category": "慈善福利", "PageNumber": 322, "Country": "Malaysia", "latitude": 2.028788, "longitude": 103.3153801 }, "geometry": { "type": "Point", "coordinates": [ 103.3153801, 2.028788 ] } },
{ "type": "Feature", "properties": { "Name_CH": "振林山义山亭", "Name_ML": "Persatuan PerkuburanCina (Nyee San Teng) Gelang Patah, Johor", "Name_EN": null, "Location": "18, Jalan Kacang Panjang, 81550 Gelang Patah, Johor.", "Region": "Johor", "Category": "慈善福利", "PageNumber": 322, "Country": "Malaysia", "latitude": 1.4479775, "longitude": 103.5846569 }, "geometry": { "type": "Point", "coordinates": [ 103.5846569, 1.4479775 ] } },
{ "type": "Feature", "properties": { "Name_CH": "兴楼华人义山亭理事会", "Name_ML": "Persatuan Perkuburan Cina Endau Johor", "Name_EN": null, "Location": "Rumah Berhala Tian Hou Kong, Jalan Haji Arrifin, 86900 Endau, Johor.", "Region": "Johor", "Category": "慈善福利", "PageNumber": 322, "Country": "Malaysia", "latitude": 2.650078, "longitude": 103.626588 }, "geometry": { "type": "Point", "coordinates": [ 103.626588, 2.650078 ] } },
{ "type": "Feature", "properties": { "Name_CH": "兴楼自愿消防队", "Name_ML": "Persatuan Bomba Sukarela Kawasan Endau Mersing Johor", "Name_EN": null, "Location": "No. 1716, Jalan Jemaluang, Taman Seri Mersing, 86800 Mersing, Johor", "Region": "Johor", "Category": "慈善福利", "PageNumber": 322, "Country": "Malaysia", "latitude": 2.411473, "longitude": 103.849983 }, "geometry": { "type": "Point", "coordinates": [ 103.849983, 2.411473 ] } }
]
}
