{
"type": "FeatureCollection",
"name": "Category_8",
"crs": { "type": "name", "properties": { "name": "urn:ogc:def:crs:OGC:1.3:CRS84" } },
"features": [
{ "type": "Feature", "properties": { "Name_CH": "笨珍南华派武术馆", "Name_ML": "Pertubuhan Seni Mempertahankan Diri Nam Wah Pai", "Name_EN": "Daerah Pontian Pontian Chinese School Teacher Association", "Location": "730, Medan Ko-Op, Jalan Bakak,82000 Pontian, Johor.", "Longitude": 103.3928346, "Latitude": 1.480432, "Region": "Johor", "Category": "体育联谊", "PageNumber": "309" }, "geometry": { "type": "Point", "coordinates": [ 103.3928, 1.4804, 103.3928 ] } },
{ "type": "Feature", "properties": { "Name_CH": "笨珍仁爱俱乐部", "Name_ML": null, "Name_EN": "Pontian Jin Ai Club", "Location": "250 Jalan Alsagoff, Pontian, Johor.", "Longitude": 103.3898544, "Latitude": 1.4845144, "Region": "Johor", "Category": "体育联谊", "PageNumber": "309" }, "geometry": { "type": "Point", "coordinates": [ 103.3899, 1.4845, 103.3899 ] } },
{ "type": "Feature", "properties": { "Name_CH": "笨珍象棋公会", "Name_ML": "Persatuan Catur Cina Pontian", "Name_EN": null, "Location": "Top Floor No 250 Jalan Alsagoff, 82000 Pontian, Johor", "Longitude": 103.382444, "Latitude": 1.5045168, "Region": "Johor", "Category": "体育联谊", "PageNumber": "309" }, "geometry": { "type": "Point", "coordinates": [ 103.3824, 1.5045, 103.3824 ] } },
{ "type": "Feature", "properties": { "Name_CH": "东甲友谊俱乐部", "Name_ML": "Kelab Yu Yi Muar Utara Johor", "Name_EN": null, "Location": "LC 357, Tingkat L Jalan Muar, Tangkak, 84900 Muar, Johor.", "Longitude": 102.553121, "Latitude": 2.105058, "Region": "Johor", "Category": "体育联谊", "PageNumber": "309" }, "geometry": { "type": "Point", "coordinates": [ 102.5531, 2.1051, 102.5531 ] } },
{ "type": "Feature", "properties": { "Name_CH": "东甲景韩俱乐部", "Name_ML": "Kelab Keng Han Tangkak Johor", "Name_EN": null, "Location": "137 (Tingkat Atas), Jalan Muar, 84900 Tangkak, Johor", "Longitude": 102.536006, "Latitude": 2.261147, "Region": "Johor", "Category": "体育联谊", "PageNumber": "309" }, "geometry": { "type": "Point", "coordinates": [ 102.536, 2.2611, 102.536 ] } },
{ "type": "Feature", "properties": { "Name_CH": "东甲南展俱乐部", "Name_ML": null, "Name_EN": "Nam Chin Club Tangkak", "Location": "161, Jalan Muar, 2nd Floor, 84900 Tangkak. Johor", "Longitude": 102.5374156, "Latitude": 2.2629062, "Region": "Johor", "Category": "体育联谊", "PageNumber": "309" }, "geometry": { "type": "Point", "coordinates": [ 102.5374, 2.2629, 102.5374 ] } },
{ "type": "Feature", "properties": { "Name_CH": "东馀俱乐部", "Name_ML": null, "Name_EN": "Tang Eur Social Club", "Location": "61 Jalan Payamas, Tangkak, Johor.", "Longitude": 102.5408028, "Latitude": 2.2688545, "Region": "Johor", "Category": "体育联谊", "PageNumber": "309" }, "geometry": { "type": "Point", "coordinates": [ 102.5408, 2.2689, 102.5408 ] } },
{ "type": "Feature", "properties": { "Name_CH": "东甲东成俱乐部", "Name_ML": "Persatuan Tong Sing Social Club Tangkak", "Name_EN": null, "Location": "LC 137, 1st Floor, Jalan Panggong Wayang Lama, Tangkak, Johor.", "Longitude": 102.5419882, "Latitude": 2.271093, "Region": "Johor", "Category": "体育联谊", "PageNumber": "309" }, "geometry": { "type": "Point", "coordinates": [ 102.542, 2.2711, 102.542 ] } },
{ "type": "Feature", "properties": { "Name_CH": "东甲陶源俱乐部", "Name_ML": null, "Name_EN": "Toh Guan Club Tangkak", "Location": "LC199 Jalan Paya Mas, 84900 Tangkak, Johor.", "Longitude": 102.54459, "Latitude": 2.274223, "Region": "Johor", "Category": "体育联谊", "PageNumber": "309" }, "geometry": { "type": "Point", "coordinates": [ 102.5446, 2.2742, 102.5446 ] } },
{ "type": "Feature", "properties": { "Name_CH": "彼咯篮球协会", "Name_ML": "Persatuan Bola Keranjang Bekok Johor", "Name_EN": null, "Location": "72, Tingkat 1, Jalan Gunung, 86500 Bekok, Johor.", "Longitude": 103.1308642, "Latitude": 2.2965386, "Region": "Johor", "Category": "体育联谊", "PageNumber": "309" }, "geometry": { "type": "Point", "coordinates": [ 103.1309, 2.2965, 103.1309 ] } },
{ "type": "Feature", "properties": { "Name_CH": "哥打丁宜华忠武术体育会", "Name_ML": "Persatuan Seni Mempertahankan Diri Hua Tiong Kota Tinggi", "Name_EN": null, "Location": "6, Jalan Wayang, 81900 Kota Tinggi, Johor.", "Longitude": 103.8998267, "Latitude": 1.7245539, "Region": "Johor", "Category": "体育联谊", "PageNumber": "310" }, "geometry": { "type": "Point", "coordinates": [ 103.8998, 1.7246, 103.8998 ] } },
{ "type": "Feature", "properties": { "Name_CH": "哥打丁宜象棋公会", "Name_ML": "Persatuan Catur Cina Daerah Kota Tinggi", "Name_EN": null, "Location": "23, Jalan Ibrahim, Kota Tinggi, Johor.", "Longitude": 103.8983237, "Latitude": 1.7280212, "Region": "Johor", "Category": "体育联谊", "PageNumber": "310" }, "geometry": { "type": "Point", "coordinates": [ 103.8983, 1.728, 103.8983 ] } },
{ "type": "Feature", "properties": { "Name_CH": "峇株巴辖群友公会", "Name_ML": "Persatuan Koon Yew Association", "Name_EN": null, "Location": "1, Jalan Fatimah, Batu Pahat, Johor.", "Longitude": 102.9277436, "Latitude": 1.8493067, "Region": "Johor", "Category": "体育联谊", "PageNumber": "310" }, "geometry": { "type": "Point", "coordinates": [ 102.9277, 1.8493, 102.9277 ] } },
{ "type": "Feature", "properties": { "Name_CH": "峇株巴辖三环俱乐部", "Name_ML": null, "Name_EN": "Three Rings Club", "Location": "40-A, 1st Floor, Jalan Sultanah, 83000 Batu Pahat Johor.", "Longitude": 102.9296481, "Latitude": 1.8508782, "Region": "Johor", "Category": "体育联谊", "PageNumber": "310" }, "geometry": { "type": "Point", "coordinates": [ 102.9296, 1.8509, 102.9296 ] } },
{ "type": "Feature", "properties": { "Name_CH": "华校退休教师俱乐部", "Name_ML": "Kelab Guru-Guru Bersara Sekolah China Kluang", "Name_EN": null, "Location": "99 Jalan Lambak, Tingkat 1, 86000 Kluang, Johor.", "Longitude": 103.319177, "Latitude": 2.0275742, "Region": "Johor", "Category": "体育联谊", "PageNumber": "310" }, "geometry": { "type": "Point", "coordinates": [ 103.3192, 2.0276, 103.3192 ] } },
{ "type": "Feature", "properties": { "Name_CH": "居銮桃源俱乐部", "Name_ML": "Kelab Toh Guan Kluang", "Name_EN": "Toh Guan Club Kluang", "Location": "35 & 36, Tingkat Atasjalan Ismail 86000 Kluang, Johor.", "Longitude": 103.3184679, "Latitude": 2.0277478, "Region": "Johor", "Category": "体育联谊", "PageNumber": "310" }, "geometry": { "type": "Point", "coordinates": [ 103.3185, 2.0277, 103.3185 ] } },
{ "type": "Feature", "properties": { "Name_CH": "居銮商业俱乐部", "Name_ML": null, "Name_EN": "Siong Giap Club Kluang", "Location": "1, Jalan Wayang, 86000 Kluang, Johor", "Longitude": 103.3206129, "Latitude": 2.0280619, "Region": "Johor", "Category": "体育联谊", "PageNumber": "310" }, "geometry": { "type": "Point", "coordinates": [ 103.3206, 2.0281, 103.3206 ] } },
{ "type": "Feature", "properties": { "Name_CH": "居銮盆栽协会", "Name_ML": "Persatuan Peminat Bonzai Kluang Johor", "Name_EN": null, "Location": "24, 1st Floor, Jalan Cantik, 86000 Kluang, Johor.", "Longitude": 103.3218268, "Latitude": 2.0282533, "Region": "Johor", "Category": "体育联谊", "PageNumber": "310" }, "geometry": { "type": "Point", "coordinates": [ 103.3218, 2.0283, 103.3218 ] } },
{ "type": "Feature", "properties": { "Name_CH": "居銮梁站公所", "Name_ML": "Persatuan Tiong Hua Kg. Baru Niyor Kluang Johor", "Name_EN": null, "Location": "19 Jalan Station, Kampung Niyor, 86000 Kluang, Johor.", "Longitude": 103.3179826, "Latitude": 2.032191, "Region": "Johor", "Category": "体育联谊", "PageNumber": "310" }, "geometry": { "type": "Point", "coordinates": [ 103.318, 2.0322, 103.318 ] } },
{ "type": "Feature", "properties": { "Name_CH": "居銮清梁俱乐部", "Name_ML": null, "Name_EN": "Cheng Kay Club", "Location": "No. 16, 17 (1st Floor), Jalan Tungku Mahkota Ismail 86000 Kluang, Johor.", "Longitude": 103.4049445, "Latitude": 2.048435, "Region": "Johor", "Category": "体育联谊", "PageNumber": "310" }, "geometry": { "type": "Point", "coordinates": [ 103.4049, 2.0484, 103.4049 ] } },
{ "type": "Feature", "properties": { "Name_CH": "国术体育会", "Name_ML": "Muar Hung Tong Kok Sook Tee York Siah", "Name_EN": null, "Location": "9, Jalan Lama, 84000 Muar, Johor.", "Longitude": 102.5730495, "Latitude": 2.0500361, "Region": "Johor", "Category": "体育联谊", "PageNumber": "310" }, "geometry": { "type": "Point", "coordinates": [ 102.573, 2.05, 102.573 ] } },
{ "type": "Feature", "properties": { "Name_CH": "丰盛港文星俱乐部", "Name_ML": "Kelab The Mun Seng Club", "Name_EN": null, "Location": "26-L Jalan Ismail, 86800 Mersing, Johor.", "Longitude": 103.84051, "Latitude": 2.4300132, "Region": "Johor", "Category": "体育联谊", "PageNumber": "310" }, "geometry": { "type": "Point", "coordinates": [ 103.8405, 2.43, 103.8405 ] } },
{ "type": "Feature", "properties": { "Name_CH": "龙引联友俱乐部", "Name_ML": null, "Name_EN": "Lian Yew Club Rengit", "Location": "100, Tingkat Satu, Jalan Besar, Rengit 83100 Rengit Johor.", "Longitude": 103.1486801, "Latitude": 1.6801584, "Region": "Johor", "Category": "体育联谊", "PageNumber": "311" }, "geometry": { "type": "Point", "coordinates": [ 103.1487, 1.6802, 103.1487 ] } },
{ "type": "Feature", "properties": { "Name_CH": "峇株巴辖桃源俱乐部", "Name_ML": "Kelab Toh Guan Batu Pahat Johor", "Name_EN": null, "Location": "37B, Jalan Rahmat Batu Pahat, Johor.", "Longitude": 102.932771, "Latitude": 1.8482857, "Region": "Johor", "Category": "体育联谊", "PageNumber": "311" }, "geometry": { "type": "Point", "coordinates": [ 102.9328, 1.8483, 102.9328 ] } },
{ "type": "Feature", "properties": { "Name_CH": "峇株巴辖中华体育会", "Name_ML": null, "Name_EN": "Chinese Recreation Club", "Location": "53, Jalan Sultanah, 83000 Batu Pahat Johor.", "Longitude": 102.9274955, "Latitude": 1.8513824, "Region": "Johor", "Category": "体育联谊", "PageNumber": "311" }, "geometry": { "type": "Point", "coordinates": [ 102.9275, 1.8514, 102.9275 ] } },
{ "type": "Feature", "properties": { "Name_CH": "峇株巴辖益群书报社", "Name_ML": null, "Name_EN": "Aik Koon Chee Poh Siah Association", "Location": "11, Jalan Rugayah, 83000 Batu Pahat, Johor.", "Longitude": 102.9259457, "Latitude": 1.8513997, "Region": "Johor", "Category": "体育联谊", "PageNumber": "311" }, "geometry": { "type": "Point", "coordinates": [ 102.9259, 1.8514, 102.9259 ] } },
{ "type": "Feature", "properties": { "Name_CH": "麻坡华人体育会", "Name_ML": "Kelab Rekreasi Cina Muar", "Name_EN": null, "Location": "62, Jalan Ali, 84000 Muar, Johor.", "Longitude": 102.5672275, "Latitude": 2.0453257, "Region": "Johor", "Category": "体育联谊", "PageNumber": "311" }, "geometry": { "type": "Point", "coordinates": [ 102.5672, 2.0453, 102.5672 ] } },
{ "type": "Feature", "properties": { "Name_CH": "螺阳俱乐部", "Name_ML": null, "Name_EN": "Lai Yong Club Muar", "Location": "38-8, Jalan Arab, 84000 Muar, Johor.", "Longitude": 102.5693325, "Latitude": 2.0456556, "Region": "Johor", "Category": "体育联谊", "PageNumber": "311" }, "geometry": { "type": "Point", "coordinates": [ 102.5693, 2.0457, 102.5693 ] } },
{ "type": "Feature", "properties": { "Name_CH": "麻坡霞阳俱乐部", "Name_ML": null, "Name_EN": "The Har Yong Club Muar", "Location": "33, 3rd Floor, Jalan Ali 84000 Muar, Johor", "Longitude": 102.5680366, "Latitude": 2.0461004, "Region": "Johor", "Category": "体育联谊", "PageNumber": "311" }, "geometry": { "type": "Point", "coordinates": [ 102.568, 2.0461, 102.568 ] } },
{ "type": "Feature", "properties": { "Name_CH": "麻坡友谊俱乐部", "Name_ML": "Kelab Persahabatan Cina Muar Johor", "Name_EN": null, "Location": "56, Tingkat 1, Jalan Ali, 84000 Muar, Johor", "Longitude": 102.570132, "Latitude": 2.0471181, "Region": "Johor", "Category": "体育联谊", "PageNumber": "311" }, "geometry": { "type": "Point", "coordinates": [ 102.5701, 2.0471, 102.5701 ] } },
{ "type": "Feature", "properties": { "Name_CH": "麻坡合金联谊会", "Name_ML": "Kelab Persahabatan Hak Kim Muar Johor", "Name_EN": null, "Location": "52 Jalan Hashim, 84000 Muar, Johor.", "Longitude": 102.5743291, "Latitude": 2.050956, "Region": "Johor", "Category": "体育联谊", "PageNumber": "311" }, "geometry": { "type": "Point", "coordinates": [ 102.5743, 2.051, 102.5743 ] } },
{ "type": "Feature", "properties": { "Name_CH": "麻坡武吉甘密群声俱乐部", "Name_ML": null, "Name_EN": "Kuen Seng Recreation Club bukit Gambir", "Location": "5, Tingkat L Taman Mulia, Bukit Gambir, Muar, Johor", "Longitude": 102.6579669, "Latitude": 2.2154791, "Region": "Johor", "Category": "体育联谊", "PageNumber": "311" }, "geometry": { "type": "Point", "coordinates": [ 102.658, 2.2155, 102.658 ] } },
{ "type": "Feature", "properties": { "Name_CH": "乐华足球公会", "Name_ML": "Persatuan Bola Sepak Loke Wah Muar", "Name_EN": null, "Location": "32, Jalan Muar, 84900 Tangkak, Johor.", "Longitude": 102.536853, "Latitude": 2.2622025, "Region": "Johor", "Category": "体育联谊", "PageNumber": "311" }, "geometry": { "type": "Point", "coordinates": [ 102.5369, 2.2622, 102.5369 ] } },
{ "type": "Feature", "properties": { "Name_CH": "礼让区象棋公会", "Name_ML": "Persatuan Catur Xiang Qi Ledang Muar Johor", "Name_EN": null, "Location": "17, New Village, Bkt Gambir, 84800 Muar, Johor.", "Longitude": 102.7020218, "Latitude": 2.2942599, "Region": "Johor", "Category": "体育联谊", "PageNumber": "311" }, "geometry": { "type": "Point", "coordinates": [ 102.702, 2.2943, 102.702 ] } },
{ "type": "Feature", "properties": { "Name_CH": "柔佛象棋总会", "Name_ML": "Persekutuan Catur Cina Johor", "Name_EN": null, "Location": "141-A, Jin Tun Abdul Razak,80000 Johor Bahru", "Longitude": 103.7578369, "Latitude": 1.4703282, "Region": "Johor", "Category": "体育联谊", "PageNumber": "312" }, "geometry": { "type": "Point", "coordinates": [ 103.7578, 1.4703, 103.7578 ] } },
{ "type": "Feature", "properties": { "Name_CH": "柔佛新山醒华慈善剧社", "Name_ML": null, "Name_EN": "Johor Bahru Shing Wah Amateur Dramatic Association", "Location": "188 A&B, Jalan Sri PelangL Taman Pelangi, 80400 Johor Bahru, Johor.", "Longitude": 103.7553125, "Latitude": 1.4724776, "Region": "Johor", "Category": "体育联谊", "PageNumber": "312" }, "geometry": { "type": "Point", "coordinates": [ 103.7553, 1.4725, 103.7553 ] } },
{ "type": "Feature", "properties": { "Name_CH": "柔佛新山白鹤体育会 ", "Name_ML": null, "Name_EN": "Pak Hock Physical Training Association Johor Bahru", "Location": "63, Jalan Kasa Tujuh, Taman Sentosa, 80150 Johor Bahru, Johor.", "Longitude": 103.7778867, "Latitude": 1.4916061, "Region": "Johor", "Category": "体育联谊", "PageNumber": "312" }, "geometry": { "type": "Point", "coordinates": [ 103.7779, 1.4916, 103.7779 ] } },
{ "type": "Feature", "properties": { "Name_CH": "柔佛沙令村民协会", "Name_ML": "Persatuan Penduduk-Penduduk Kampung Saleng, Johor", "Name_EN": null, "Location": "No. 11 & 12, Kampung Baru Saleng, 81400 Senai, Johor.", "Longitude": 103.6341009, "Latitude": 1.629455, "Region": "Johor", "Category": "体育联谊", "PageNumber": "312" }, "geometry": { "type": "Point", "coordinates": [ 103.6341, 1.6295, 103.6341 ] } },
{ "type": "Feature", "properties": { "Name_CH": "柔佛太极健身总会（新加星分会）", "Name_ML": "Persatuan Tai Chi Chuan", "Name_EN": null, "Location": "140, Jalan Malaysia, 83200 Senggarang, Johor.", "Longitude": 103.0506405, "Latitude": 1.7497264, "Region": "Johor", "Category": "体育联谊", "PageNumber": "312" }, "geometry": { "type": "Point", "coordinates": [ 103.0506, 1.7497, 103.0506 ] } },
{ "type": "Feature", "properties": { "Name_CH": "侨商阁", "Name_ML": null, "Name_EN": "The Kiow Siong Kok Club", "Location": "55 & 56, Jalan Jenang,83000 Batu Pahat, Johor.", "Longitude": 102.9273396, "Latitude": 1.8508614, "Region": "Johor", "Category": "体育联谊", "PageNumber": "312" }, "geometry": { "type": "Point", "coordinates": [ 102.9273, 1.8509, 102.9273 ] } },
{ "type": "Feature", "properties": { "Name_CH": "清溪俱乐部", "Name_ML": null, "Name_EN": "The Cheng Kay Club", "Location": "16, Top Floor, Jalan Tengku Mahkota Ismail,86000 Kluang, Johor.", "Longitude": 103.3184639, "Latitude": 2.030068, "Region": "Johor", "Category": "体育联谊", "PageNumber": "312" }, "geometry": { "type": "Point", "coordinates": [ 103.3185, 2.0301, 103.3185 ] } },
{ "type": "Feature", "properties": { "Name_CH": "柔佛州乒乓总会居銮分会", "Name_ML": "Persatuan Ping Pong Negeri Johor Cawangan Kluang", "Name_EN": "Johor State Table Tennis Association Kluang Branch", "Location": "No.45A, Jalan Cantik, 86000 Kluang, Johor.", "Longitude": 103.3220612, "Latitude": 2.0304969, "Region": "Johor", "Category": "体育联谊", "PageNumber": "312" }, "geometry": { "type": "Point", "coordinates": [ 103.3221, 2.0305, 103.3221 ] } },
{ "type": "Feature", "properties": { "Name_CH": "柔佛州篮球总会居銮分会", "Name_ML": "Persatuan Bola Keranjang Negeri Johor", "Name_EN": null, "Location": "No.25, Jalan Manggie, 86000 Kluang, Johor.", "Longitude": 103.3202691, "Latitude": 2.0367174, "Region": "Johor", "Category": "体育联谊", "PageNumber": "312" }, "geometry": { "type": "Point", "coordinates": [ 103.3203, 2.0367, 103.3203 ] } },
{ "type": "Feature", "properties": { "Name_CH": "琼侨俱乐部", "Name_ML": null, "Name_EN": "The Kheng Kiow Club", "Location": "121, Jalan Sisi, Muar, Johor.", "Longitude": 102.5671729, "Latitude": 2.04467, "Region": "Johor", "Category": "体育联谊", "PageNumber": "312" }, "geometry": { "type": "Point", "coordinates": [ 102.5672, 2.0447, 102.5672 ] } },
{ "type": "Feature", "properties": { "Name_CH": "启智书报社", "Name_ML": null, "Name_EN": "Chee Tze Soo Pau Tze Muar", "Location": "23, Jalan Arab, 84000 Muar, Johor.", "Longitude": 102.5688173, "Latitude": 2.0457565, "Region": "Johor", "Category": "体育联谊", "PageNumber": "312" }, "geometry": { "type": "Point", "coordinates": [ 102.5688, 2.0458, 102.5688 ] } },
{ "type": "Feature", "properties": { "Name_CH": "清华俱乐部", "Name_ML": null, "Name_EN": "Cheng Hwa Club Muar", "Location": "65, Jalan Haji Abu, 84000 Muar, Johor.", "Longitude": 102.5691101, "Latitude": 2.0460549, "Region": "Johor", "Category": "体育联谊", "PageNumber": "312" }, "geometry": { "type": "Point", "coordinates": [ 102.5691, 2.0461, 102.5691 ] } },
{ "type": "Feature", "properties": { "Name_CH": "柔南华文报从业员俱乐部", "Name_ML": "Kelab Akhbar Cina Johor Selatan", "Name_EN": null, "Location": "11, Jalan Cemat 1, Taman Maju Jaya, 80400 Johor Bahru, Johor.", "Longitude": 103.7670179, "Latitude": 1.48105, "Region": "Johor", "Category": "体育联谊", "PageNumber": "313" }, "geometry": { "type": "Point", "coordinates": [ 103.767, 1.481, 103.767 ] } },
{ "type": "Feature", "properties": { "Name_CH": "士古来象棋公会", "Name_ML": "Persatuan Catur Cina Skudai Johor", "Name_EN": null, "Location": "2A, Jalan Perkasa 5, Taman Ungku Tun Aminah, 81300 Skudai Johor.", "Longitude": 103.6493506, "Latitude": 1.5105883, "Region": "Johor", "Category": "体育联谊", "PageNumber": "313" }, "geometry": { "type": "Point", "coordinates": [ 103.6494, 1.5106, 103.6494 ] } },
{ "type": "Feature", "properties": { "Name_CH": "柔佛州尚午体育会", "Name_ML": "Persatuan Jasmani Shang Wu Negeri Johor", "Name_EN": null, "Location": "21, Jalan Molek 1\/21, Taman Molek, 81100 Johor Bahru, Johor.", "Longitude": 103.7871749, "Latitude": 1.5300212, "Region": "Johor", "Category": "体育联谊", "PageNumber": "313" }, "geometry": { "type": "Point", "coordinates": [ 103.7872, 1.53, 103.7872 ] } },
{ "type": "Feature", "properties": { "Name_CH": "桃源俱乐部", "Name_ML": "Kelab Toh Guan Klang Johor", "Name_EN": null, "Location": "1, Jalan Ismail 86000 Kluang, Johor.", "Longitude": 103.3184679, "Latitude": 2.0277478, "Region": "Johor", "Category": "体育联谊", "PageNumber": "313" }, "geometry": { "type": "Point", "coordinates": [ 103.3185, 2.0277, 103.3185 ] } },
{ "type": "Feature", "properties": { "Name_CH": "商业俱乐部", "Name_ML": null, "Name_EN": "Siong Giap Club Kluang", "Location": "1,Jalan Wayang, 86000 Kluang, Johor.", "Longitude": 103.3206129, "Latitude": 2.0280619, "Region": "Johor", "Category": "体育联谊", "PageNumber": "313" }, "geometry": { "type": "Point", "coordinates": [ 103.3206, 2.0281, 103.3206 ] } },
{ "type": "Feature", "properties": { "Name_CH": "柔佛州乒乓总会麻坡分会", "Name_ML": "Persatuan Ping Pong Negeri Johor, Cawangan Muar.", "Name_EN": null, "Location": "17, Jalan Satu, Taman Tanjung, 84000 Muar, Johor.", "Longitude": 102.5766209, "Latitude": 2.0446043, "Region": "Johor", "Category": "体育联谊", "PageNumber": "313" }, "geometry": { "type": "Point", "coordinates": [ 102.5766, 2.0446, 102.5766 ] } },
{ "type": "Feature", "properties": { "Name_CH": "桃源俱乐部", "Name_ML": null, "Name_EN": "Toh Guan Clum Muar", "Location": "54 Jalan Meriam, Muar, Johor.", "Longitude": 102.5693758, "Latitude": 2.0477525, "Region": "Johor", "Category": "体育联谊", "PageNumber": "313" }, "geometry": { "type": "Point", "coordinates": [ 102.5694, 2.0478, 102.5694 ] } },
{ "type": "Feature", "properties": { "Name_CH": "同源俱乐部", "Name_ML": "Persatuan Thoong Nyen Club Muar", "Name_EN": null, "Location": "142, Jalan Abdullah, 84000 Muar, Johor.", "Longitude": 102.5685583, "Latitude": 2.0484373, "Region": "Johor", "Category": "体育联谊", "PageNumber": "313" }, "geometry": { "type": "Point", "coordinates": [ 102.5686, 2.0484, 102.5686 ] } },
{ "type": "Feature", "properties": { "Name_CH": "武吉甘密华人文化体育会", "Name_ML": "Persatuan Sukan & Kebudayaan Cina Bkt Gambir Muar", "Name_EN": null, "Location": "163, Main Road, Bukit Gambir, Muar, Johor", "Longitude": 102.6591586, "Latitude": 2.215757, "Region": "Johor", "Category": "体育联谊", "PageNumber": "313" }, "geometry": { "type": "Point", "coordinates": [ 102.6592, 2.2158, 102.6592 ] } },
{ "type": "Feature", "properties": { "Name_CH": "三合港象棋公会", "Name_ML": "Kelab Catur Cina Chaah Segamat Johor", "Name_EN": null, "Location": "25, Jalan Tun Razak, 85400 Chaah, Johor.", "Longitude": 103.0423816, "Latitude": 2.2491991, "Region": "Johor", "Category": "体育联谊", "PageNumber": "313" }, "geometry": { "type": "Point", "coordinates": [ 103.0424, 2.2492, 103.0424 ] } },
{ "type": "Feature", "properties": { "Name_CH": "昔加末侨南俱乐部", "Name_ML": null, "Name_EN": "Segamat Nam Kiew Club", "Location": "2nd Floor, No 15 Jalan Leong Yong, Segamat, Johor.", "Longitude": 102.8158952, "Latitude": 2.5084237, "Region": "Johor", "Category": "体育联谊", "PageNumber": "313" }, "geometry": { "type": "Point", "coordinates": [ 102.8159, 2.5084, 102.8159 ] } },
{ "type": "Feature", "properties": { "Name_CH": "昔加末桃源俱乐部", "Name_ML": null, "Name_EN": "Toh Guan Club Segamat", "Location": "22, Jalan Abdullah, 85000 Segamat Johor.", "Longitude": 102.8139209, "Latitude": 2.5090984, "Region": "Johor", "Category": "体育联谊", "PageNumber": "313" }, "geometry": { "type": "Point", "coordinates": [ 102.8139, 2.5091, 102.8139 ] } },
{ "type": "Feature", "properties": { "Name_CH": "永华兴俱乐部", "Name_ML": null, "Name_EN": "Yong Wah Heng Club ft", "Location": "84-C, Jalan Ah Fook, 80000 Johor Bahru, Johor.", "Longitude": 103.7646454, "Latitude": 1.459666, "Region": "Johor", "Category": "体育联谊", "PageNumber": "314" }, "geometry": { "type": "Point", "coordinates": [ 103.7646, 1.4597, 103.7646 ] } },
{ "type": "Feature", "properties": { "Name_CH": "新山中华足球公会", "Name_ML": "Persatuan Bola Sepak Tiong Hua Johor Bahru Johor", "Name_EN": null, "Location": "172-A, Jalan Seri Pelangl Taman Pelangi, 80400 Johor Bahru, Johor.", "Longitude": 103.774236, "Latitude": 1.4798117, "Region": "Johor", "Category": "体育联谊", "PageNumber": "314" }, "geometry": { "type": "Point", "coordinates": [ 103.7742, 1.4798, 103.7742 ] } },
{ "type": "Feature", "properties": { "Name_CH": "新山陶德书香楼", "Name_ML": "Kelab Thow Teck Johor Bahru Johor", "Name_EN": null, "Location": "39 - C, Jalan Maju, Taman Maju Jaya, 80400 Johor Bahru, Johor.", "Longitude": 103.7666946, "Latitude": 1.4808707, "Region": "Johor", "Category": "体育联谊", "PageNumber": "314" }, "geometry": { "type": "Point", "coordinates": [ 103.7667, 1.4809, 103.7667 ] } },
{ "type": "Feature", "properties": { "Name_CH": "新山永年太极拳协会", "Name_ML": "Persatuan Yongnian Taijiquan Johor Bahru", "Name_EN": null, "Location": "28A, Jalan Sulam, Taman Sentosa,", "Longitude": 103.767095, "Latitude": 1.4918546, "Region": "Johor", "Category": "体育联谊", "PageNumber": "314" }, "geometry": { "type": "Point", "coordinates": [ 103.7671, 1.4919, 103.7671 ] } },
{ "type": "Feature", "properties": { "Name_CH": "新山市华人足球公会", "Name_ML": "Persatuan Bolasepak Cina Bandaraya Johor Bahru", "Name_EN": "Johor Bahru Chinese Football Association", "Location": "3, Jalan Masyhur 3, Taman Perindustrian Cemerlang, 81800 Ulu Tiram, Johor.", "Longitude": 103.8200739, "Latitude": 1.5615745, "Region": "Johor", "Category": "体育联谊", "PageNumber": "314" }, "geometry": { "type": "Point", "coordinates": [ 103.8201, 1.5616, 103.8201 ] } },
{ "type": "Feature", "properties": { "Name_CH": "新山象棋公会", "Name_ML": "Persatuan Memancing Kulai Johor", "Name_EN": null, "Location": "49B, Lorong 2, Taman Pasar, 81000 Kulai, Johor.", "Longitude": 103.6461885, "Latitude": 1.6019387, "Region": "Johor", "Category": "体育联谊", "PageNumber": "314" }, "geometry": { "type": "Point", "coordinates": [ 103.6462, 1.6019, 103.6462 ] } },
{ "type": "Feature", "properties": { "Name_CH": "新邦任金象棋公会", "Name_ML": "Persatuan Catur Cina Simpang Rengam Johor", "Name_EN": null, "Location": "69, Jalan Pasar, 86200 Simpang Rengam, Johor.", "Longitude": 103.3085251, "Latitude": 1.8272935, "Region": "Johor", "Category": "体育联谊", "PageNumber": "314" }, "geometry": { "type": "Point", "coordinates": [ 103.3085, 1.8273, 103.3085 ] } },
{ "type": "Feature", "properties": { "Name_CH": "永平篮球协会", "Name_ML": "Persatuan Bola Keranjang Yong Peng Johor", "Name_EN": null, "Location": "17, Jalan Keranji, Taman Sri Aman, 83700 Yong Peng, Johor.", "Longitude": 103.0687731, "Latitude": 2.0234118, "Region": "Johor", "Category": "体育联谊", "PageNumber": "314" }, "geometry": { "type": "Point", "coordinates": [ 103.0688, 2.0234, 103.0688 ] } },
{ "type": "Feature", "properties": { "Name_CH": "昔加末五祖武术协会", "Name_ML": "Persatuan Seni Goh Chor Segamat Johor", "Name_EN": null, "Location": "Dewan Raya Bukit Siput Jalan Abdul Hamid, Bukit Siput,85020 Segamat Johor", "Longitude": 102.8471029, "Latitude": 2.4860732, "Region": "Johor", "Category": "体育联谊", "PageNumber": "314" }, "geometry": { "type": "Point", "coordinates": [ 102.8471, 2.4861, 102.8471 ] } },
{ "type": "Feature", "properties": { "Name_CH": "昔加末中华体育会", "Name_ML": null, "Name_EN": "Segamat Chinese Recreation Club", "Location": "123 Tapak Perindustrian, Jalan Genuang, 85000 Segamat Johor.", "Longitude": 102.834927, "Latitude": 2.495484, "Region": "Johor", "Category": "体育联谊", "PageNumber": "314" }, "geometry": { "type": "Point", "coordinates": [ 102.8349, 2.4955, 102.8349 ] } },
{ "type": "Feature", "properties": { "Name_CH": "昔加末象棋公会", "Name_ML": "Persatuan Catur Tionghua Segamat", "Name_EN": null, "Location": "29-C, Tingkat 2, Jalang Genuang, 85000 Segamat Johor.", "Longitude": 102.8301962, "Latitude": 2.4978677, "Region": "Johor", "Category": "体育联谊", "PageNumber": "314" }, "geometry": { "type": "Point", "coordinates": [ 102.8302, 2.4979, 102.8302 ] } },
{ "type": "Feature", "properties": { "Name_CH": "昔属登雅新村中华会堂", "Name_ML": null, "Name_EN": "The Tiong Hua Hoon San Tien Kampung Tengah Segamat Johor", "Location": "106 Kg. Tengah, New Village, 85000 Segamat Johor.", "Longitude": 102.8108999, "Latitude": 2.525568, "Region": "Johor", "Category": "体育联谊", "PageNumber": "314" }, "geometry": { "type": "Point", "coordinates": [ 102.8109, 2.5256, 102.8109 ] } },
{ "type": "Feature", "properties": { "Name_CH": "北甘那那民众舞狮团", "Name_ML": null, "Name_EN": "The Public Lion Dance Society", "Location": "D 428, Pekan Nanas, 81500 Pontian, Johor.", "Longitude": 103.512533, "Latitude": 1.507599, "Region": "Johor", "Category": "体育联谊", "PageNumber": "315" }, "geometry": { "type": "Point", "coordinates": [ 103.5125, 1.5076, 103.5125 ] } },
{ "type": "Feature", "properties": { "Name_CH": "中原俱乐部", "Name_ML": "Persatuan Chung Nyien Kluang", "Name_EN": "Chung Nyien Club Kluang", "Location": "36,1st Floor, Jin Dato Captain Ahmad, 86000 Kluang, Johor.", "Longitude": 103.320698, "Latitude": 2.035122, "Region": "Johor", "Category": "体育联谊", "PageNumber": "315" }, "geometry": { "type": "Point", "coordinates": [ 103.3207, 2.0351, 103.3207 ] } },
{ "type": "Feature", "properties": { "Name_CH": "中华国术协进社", "Name_ML": null, "Name_EN": "The Muar District Chinese Boxing Fellowship", "Location": "11-1 Jalan Daud, Muar, Johor", "Longitude": 102.5721769, "Latitude": 2.038638, "Region": "Johor", "Category": "体育联谊", "PageNumber": "315" }, "geometry": { "type": "Point", "coordinates": [ 102.5722, 2.0386, 102.5722 ] } }
]
}
