{
"type": "FeatureCollection",
"name": "Category_3",
"crs": { "type": "name", "properties": { "name": "urn:ogc:def:crs:OGC:1.3:CRS84" } },
"features": [
{ "type": "Feature", "properties": { "Name_CH": "话望生广东会馆", "Name_ML": "Persatuan Kwang Tung Gua Musang", "Name_EN": null, "Location": "143 Tepi Sungai Ketil Gua Musang, 18300 Kelantan. ", "Region": "Kelantan", "Category": "地缘", "PageNumber": 324, "Country": "Malaysia", "latitude": 4.821559, "longitude": 102.0118098 }, "geometry": { "type": "Point", "coordinates": [ 102.0118098, 4.821559 ] } },
{ "type": "Feature", "properties": { "Name_CH": "吉赖客家公会", "Name_ML": null, "Name_EN": "Hakka Community Association", "Location": "200-201 Jalan Ah Sang, 18000 Kuala Krai, Kelantan. ", "Region": "Kelantan", "Category": "地缘", "PageNumber": 324, "Country": "Malaysia", "latitude": 5.5308368, "longitude": 102.200148 }, "geometry": { "type": "Point", "coordinates": [ 102.200148, 5.5308368 ] } },
{ "type": "Feature", "properties": { "Name_CH": "吉兰丹华人钓鱼公会", "Name_ML": "Persatuan Peminat Memancing Cina (Hua Ren) Kelantan", "Name_EN": null, "Location": "Lot No.337, Kg. Bakat 18500 Machang, Kelantan.", "Region": "Kelantan", "Category": "地缘", "PageNumber": 324, "Country": "Malaysia", "latitude": 5.7646289, "longitude": 102.2186913 }, "geometry": { "type": "Point", "coordinates": [ 102.2186913, 5.7646289 ] } },
{ "type": "Feature", "properties": { "Name_CH": "吉兰丹广东会馆 ", "Name_ML": "Persatuan Kwang Tung Kelantan ", "Name_EN": "Kelantan Kwang lung Association", "Location": "A-2, Jalan Pasar Lama, 15000 Kota Bharu, Kelantan. ", "Region": "Kelantan", "Category": "地缘", "PageNumber": 324, "Country": "Malaysia", "latitude": 6.131393, "longitude": 102.234322 }, "geometry": { "type": "Point", "coordinates": [ 102.234322, 6.131393 ] } },
{ "type": "Feature", "properties": { "Name_CH": "吉兰丹海南会馆", "Name_ML": "Persatuan Hainan Kelantan", "Name_EN": null, "Location": "3930-3931 Jalan Sultanah Zainab, 15050 Kota Bharu, Kelantan.", "Region": "Kelantan", "Category": "地缘", "PageNumber": 324, "Country": "Malaysia", "latitude": 6.1299108, "longitude": 102.2363873 }, "geometry": { "type": "Point", "coordinates": [ 102.2363873, 6.1299108 ] } },
{ "type": "Feature", "properties": { "Name_CH": "吉兰丹福建会馆", "Name_ML": "Persatuan Hokkien Kelantan (Hokkien Hoay Kuan Kelantan )", "Name_EN": null, "Location": "5444 A & B， Tingkat 4, Jalan Sultanah Zainab, 15000 Kota Bharu, Kelantan. ", "Region": "Kelantan", "Category": "地缘", "PageNumber": 324, "Country": "Malaysia", "latitude": 6.1323255, "longitude": 102.2368348 }, "geometry": { "type": "Point", "coordinates": [ 102.2368348, 6.1323255 ] } },
{ "type": "Feature", "properties": { "Name_CH": "哥打峇鲁客家公会", "Name_ML": "Persatuan Hakka Kota Bharu Kelantan", "Name_EN": null, "Location": "3512-F, Tingkat 2, Jalan Sultanah Zainab, Kg. Sireh, 15050 Kota Bharu, Kelantan. ", "Region": "Kelantan", "Category": "地缘", "PageNumber": 324, "Country": "Malaysia", "latitude": 6.1323255, "longitude": 102.2368348 }, "geometry": { "type": "Point", "coordinates": [ 102.2368348, 6.1323255 ] } },
{ "type": "Feature", "properties": { "Name_CH": "吉兰丹潮州会馆", "Name_ML": "Persatuan Teo Chew Kelantan", "Name_EN": null, "Location": "6000-6002 Jalan Hamzah, 10150 Kota Bharu, Kelantan. ", "Region": "Kelantan", "Category": "地缘", "PageNumber": 324, "Country": "Malaysia", "latitude": 6.1163919, "longitude": 102.2383444 }, "geometry": { "type": "Point", "coordinates": [ 102.2383444, 6.1163919 ] } },
{ "type": "Feature", "properties": { "Name_CH": "吉兰丹土生华裔协会 ", "Name_ML": " Persatuan Peranakan Cina Kelantan Dewan Orang Ramai Wat Pracaciparam", "Name_EN": null, "Location": "Kg. Kulim, 16250 Wakaf Bharu, Kelantan.", "Region": "Kelantan", "Category": "地缘", "PageNumber": 325, "Country": "Malaysia", "latitude": 6.1122531, "longitude": 102.1939817 }, "geometry": { "type": "Point", "coordinates": [ 102.1939817, 6.1122531 ] } },
{ "type": "Feature", "properties": { "Name_CH": "吉兰丹吉赖客属公会", "Name_ML": "Persatuan Hakka Community Of Kuala Krai Kelantan", "Name_EN": "Hakka Community Of Kuala Krai", "Location": "200-201, Tingkat 1, Jalan Ah Sang, 18000 Kuala Krai, Kelantan.", "Region": "Kelantan", "Category": "地缘", "PageNumber": 325, "Country": "Malaysia", "latitude": 5.5306223, "longitude": 102.2007767 }, "geometry": { "type": "Point", "coordinates": [ 102.2007767, 5.5306223 ] } },
{ "type": "Feature", "properties": { "Name_CH": "吉兰丹南安会馆", "Name_ML": "Persatuan Lam Ann Kelantan", "Name_EN": null, "Location": "Section 9, Lot 699, Tingkat 3, Jalan Tok Hakim, 15000 Kota Bharu, Kelantan. ", "Region": "Kelantan", "Category": "地缘", "PageNumber": 325, "Country": "Malaysia", "latitude": 6.1291813, "longitude": 102.2368586 }, "geometry": { "type": "Point", "coordinates": [ 102.2368586, 6.1291813 ] } },
{ "type": "Feature", "properties": { "Name_CH": "吉兰丹兴安会馆 ", "Name_ML": "Persatuan Shing Ann Kelantan ", "Name_EN": "Kelantan Shing Ann Association", "Location": "2583 Jalan Suara Muda, 15000 Kota Bharu, Kelantan.", "Region": "Kelantan", "Category": "地缘", "PageNumber": 325, "Country": "Malaysia", "latitude": 6.127291, "longitude": 102.2395966 }, "geometry": { "type": "Point", "coordinates": [ 102.2395966, 6.127291 ] } },
{ "type": "Feature", "properties": { "Name_CH": "永春会馆 ", "Name_ML": "Persatuan Eng Choon Kelantan ", "Name_EN": "Kelantan Eng Choon Hoey Kuan", "Location": "Eng Choon Huey Kuan, 2818-G, Tingkat 3, Jalan Che Su, 15000 Kota Bharu, Kelantan. ", "Region": "Kelantan", "Category": "地缘", "PageNumber": 325, "Country": "Malaysia", "latitude": 6.1274065, "longitude": 102.2358093 }, "geometry": { "type": "Point", "coordinates": [ 102.2358093, 6.1274065 ] } },
{ "type": "Feature", "properties": { "Name_CH": "吉兰丹晋江会馆  ", "Name_ML": "Persatuan Chin Kang Kelantan", "Name_EN": null, "Location": "390 Tingkat 4 Jalan Pintu Pong, 15000 Kota Bharu, Kelantan. ", "Region": "Kelantan", "Category": "地缘", "PageNumber": 325, "Country": "Malaysia", "latitude": 6.1301263, "longitude": 102.2420325 }, "geometry": { "type": "Point", "coordinates": [ 102.2420325, 6.1301263 ] } }
]
}
