{
"type": "FeatureCollection",
"name": "Category_5",
"crs": { "type": "name", "properties": { "name": "urn:ogc:def:crs:OGC:1.3:CRS84" } },
"features": [
{ "type": "Feature", "properties": { "Name_CH": "吉兰丹巴西马中华商会 ", "Name_ML": "Dewan Perniagaan Tiong Hua Pasir Mas Kelantan", "Name_EN": null, "Location": "Bangunan MCA, Tingkat 1-E,  Jalan Masjid Lama, Pasir Mas, Kelantan. | ", "Region": "Kelantan", "Category": "业缘", "PageNumber": 325, "Country": "Malaysia", "latitude": 6.040204, "longitude": 102.1423991 }, "geometry": { "type": "Point", "coordinates": [ 102.1423991, 6.040204 ] } },
{ "type": "Feature", "properties": { "Name_CH": "话望生中华商会", "Name_ML": "Dewan Perniagaan China Gua Musang ", "Name_EN": "Chinese Chanber Of Commerce Gua Musang", "Location": "16, Jalan Besar, 18300 Gua Musang, Kelantan.", "Region": "Kelantan", "Category": "业缘", "PageNumber": 325, "Country": "Malaysia", "latitude": 4.8844481, "longitude": 101.9680381 }, "geometry": { "type": "Point", "coordinates": [ 101.9680381, 4.8844481 ] } },
{ "type": "Feature", "properties": { "Name_CH": "瓜拉吉赖中华商会 ", "Name_ML": "Dewan Perniagaan China Kuala Krai", "Name_EN": "Chinese Chamber Of Commerce Kuala Krai", "Location": "170 1st Floor, Jalan Ah Sang, 18000 Kuala Krai, Kelantan.", "Region": "Kelantan", "Category": "业缘", "PageNumber": 325, "Country": "Malaysia", "latitude": 5.5306223, "longitude": 102.2007767 }, "geometry": { "type": "Point", "coordinates": [ 102.2007767, 5.5306223 ] } },
{ "type": "Feature", "properties": { "Name_CH": "兰斗班让中华商会", "Name_ML": "Dewan Perniagaan China Rantau Panjang ", "Name_EN": "Chinese Chamber Of Commercer Rantau Panjang", "Location": "1510-1511, Taman Rantau Jaya, 17200 Rantau Panjang, Kelantan.", "Region": "Kelantan", "Category": "业缘", "PageNumber": 326, "Country": "Malaysia", "latitude": 6.0188036, "longitude": 101.9799441 }, "geometry": { "type": "Point", "coordinates": [ 101.9799441, 6.0188036 ] } },
{ "type": "Feature", "properties": { "Name_CH": "吉兰丹建造商 ", "Name_ML": "Persatuan Pekerja-Pekerja Pembinaan Kelantan ", "Name_EN": "Kin Cho Hong Builders Guild", "Location": "3653 1st FR Lee Rubber Building, Jalan Tok Hakim, 15000 Kota Bharu, Kelantan. ", "Region": "Kelantan", "Category": "业缘", "PageNumber": 326, "Country": "Malaysia", "latitude": 6.129579, "longitude": 102.2343777 }, "geometry": { "type": "Point", "coordinates": [ 102.2343777, 6.129579 ] } },
{ "type": "Feature", "properties": { "Name_CH": "吉兰丹华商咖啡公会", "Name_ML": "Persatuan Pekedai Kopi Cina Kelantan ", "Name_EN": "Kelantan Chinese Coffee Shop Keepers Association ", "Location": "3930-L Jalan Sultanah Zainab Tingkat 1, 15000 Kota Bharu, Kelantan. ", "Region": "Kelantan", "Category": "业缘", "PageNumber": 326, "Country": "Malaysia", "latitude": 6.1306859, "longitude": 102.2365535 }, "geometry": { "type": "Point", "coordinates": [ 102.2365535, 6.1306859 ] } },
{ "type": "Feature", "properties": { "Name_CH": "吉兰丹电器商公会 ", "Name_ML": "Persatuan Perniaga Peralatan Elektrik Kelantan\n", "Name_EN": null, "Location": "2531-A, Jalan Padang Garong, 15000 Kota Bharu, Kelantan. ", "Region": "Kelantan", "Category": "业缘", "PageNumber": 326, "Country": "Malaysia", "latitude": 6.1277843, "longitude": 102.2415388 }, "geometry": { "type": "Point", "coordinates": [ 102.2415388, 6.1277843 ] } },
{ "type": "Feature", "properties": { "Name_CH": "吉兰丹中华工商总会\n", "Name_ML": "Dewan Perniagaan & Penindustrian China Kelantan", "Name_EN": " Kelantan Chinese Chamber Of Commerce Of Industy", "Location": "5429, Jalan Kebun Sultan, 15350 Kota Bharu, Kelantan.\n", "Region": "Kelantan", "Category": "业缘", "PageNumber": 326, "Country": "Malaysia", "latitude": 6.1325182, "longitude": 102.2439299 }, "geometry": { "type": "Point", "coordinates": [ 102.2439299, 6.1325182 ] } },
{ "type": "Feature", "properties": { "Name_CH": "吉兰丹车商公会 ", "Name_ML": "Persatuan Perntagaan Kerera-Kerata Kelantan\n", "Name_EN": null, "Location": "2583, Jalan Suara Mudo, 15000 Kota Bahru, Kelantan.\n", "Region": "Kelantan", "Category": "业缘", "PageNumber": 326, "Country": "Malaysia", "latitude": 6.1289477, "longitude": 102.2341308 }, "geometry": { "type": "Point", "coordinates": [ 102.2341308, 6.1289477 ] } },
{ "type": "Feature", "properties": { "Name_CH": "吉兰丹机器厂商公会 ", "Name_ML": "Persatuan Industries Fondri Dan Kejuruteraan Kelantan ", "Name_EN": "Kelantan Foundry & Engineering Industries Association ", "Location": "4086-A, Tingkat 2, Jalan Sultan Yahya Petra, 15200 Kota Bharu, Kelantan. ", "Region": "Kelantan", "Category": "业缘", "PageNumber": 326, "Country": "Malaysia", "latitude": 6.1138695, "longitude": 102.2498319 }, "geometry": { "type": "Point", "coordinates": [ 102.2498319, 6.1138695 ] } },
{ "type": "Feature", "properties": { "Name_CH": "吉兰丹中华金商公会 ", "Name_ML": "Persatuan Perniaga Emas Cina Kelantan ", "Name_EN": "Kelantan Chinese Gold Merchantis Association\n", "Location": "1-2 Jalan Pasir Lama, 15000 Kota Bharu Kelantan.", "Region": "Kelantan", "Category": "业缘", "PageNumber": 326, "Country": "Malaysia", "latitude": 6.131393, "longitude": 102.234322 }, "geometry": { "type": "Point", "coordinates": [ 102.234322, 6.131393 ] } },
{ "type": "Feature", "properties": { "Name_CH": "吉兰丹酒商公会 ", "Name_ML": null, "Name_EN": "The Kelantan Liquor Dealers Association", "Location": "PT 692 Block A&B Kawasan Perindustian Pengkalan Chepo Phase 2,16100 Kota Bharu, Kelantan.", "Region": "Kelantan", "Category": "业缘", "PageNumber": 326, "Country": "Malaysia", "latitude": 6.1524814, "longitude": 102.3063052 }, "geometry": { "type": "Point", "coordinates": [ 102.3063052, 6.1524814 ] } }
]
}
