{
"type": "FeatureCollection",
"name": "Category_3",
"crs": { "type": "name", "properties": { "name": "urn:ogc:def:crs:OGC:1.3:CRS84" } },
"features": [
{ "type": "Feature", "properties": { "Name_CH": "波德申福建会馆", "Name_ML": "Persatuan Hokkien Port Dickson Negeri Sembilan", "Name_EN": null, "Location": "19,Pasar Baru,Port Dickson, 71000 Port Dickson, Negeri Sembilan.", "Region": "Negeri Sembilan", "Category": "地缘", "PageNumber": 225, "Country": "Malaysia", "latitude": 2.5263354, "longitude": 101.7975449 }, "geometry": { "type": "Point", "coordinates": [ 101.7975449, 2.5263354 ] } },
{ "type": "Feature", "properties": { "Name_CH": "波德申海南会馆", "Name_ML": "Persatuan Hainan Port Dickson", "Name_EN": null, "Location": "66C, Tingkat Atas, Jalan Baru, 71000 Port Dickson, Negeri Sembilan.", "Region": "Negeri Sembilan", "Category": "地缘", "PageNumber": 225, "Country": "Malaysia", "latitude": 2.5227224, "longitude": 101.7963249 }, "geometry": { "type": "Point", "coordinates": [ 101.7963249, 2.5227224 ] } },
{ "type": "Feature", "properties": { "Name_CH": "庇月劳客属公会", "Name_ML": "Persatuan Hakka Kuala Pilah", "Name_EN": null, "Location": "102Jalan Yam Tuan,72000 Kuala Pilah, Negeri Sembilan", "Region": "Negeri Sembilan", "Category": "地缘", "PageNumber": 225, "Country": "Malaysia", "latitude": 2.7245972, "longitude": 101.9407452 }, "geometry": { "type": "Point", "coordinates": [ 101.9407452, 2.7245972 ] } },
{ "type": "Feature", "properties": { "Name_CH": "淡边福建会馆", "Name_ML": null, "Name_EN": "The Tampin Hokkien Association", "Location": "80A,(1st Flr), Kg. Baru, 73000 Tampin, Negeri Sembilan.", "Region": "Negeri Sembilan", "Category": "地缘", "PageNumber": 225, "Country": "Malaysia", "latitude": 2.480013, "longitude": 102.2321311 }, "geometry": { "type": "Point", "coordinates": [ 102.2321311, 2.480013 ] } },
{ "type": "Feature", "properties": { "Name_CH": "庇月劳海南会馆", "Name_ML": "Persatuan Hainan Kuala Pilah", "Name_EN": null, "Location": "108, Jalan Yam Tuan 72000 Kuala Pilah, Negeri Sembilan.", "Region": "Negeri Sembilan", "Category": "地缘", "PageNumber": 225, "Country": "Malaysia", "latitude": 2.7249622, "longitude": 101.940404 }, "geometry": { "type": "Point", "coordinates": [ 101.940404, 2.7249622 ] } },
{ "type": "Feature", "properties": { "Name_CH": "金马士客属公会 ", "Name_ML": "Persatuan Hakka Gemas Negeri Sembilan ", "Name_EN": null, "Location": "Lot 961, Jalan Pasar, 73400 Gemas, Negeri Sembilan.", "Region": "Negeri Sembilan", "Category": "地缘", "PageNumber": 226, "Country": "Malaysia", "latitude": 2.581593, "longitude": 102.612488 }, "geometry": { "type": "Point", "coordinates": [ 102.612488, 2.581593 ] } },
{ "type": "Feature", "properties": { "Name_CH": "东安会馆", "Name_ML": "Persatuan Toong Onn Kwoon ", "Name_EN": null, "Location": "72, Jalan Murray, Seremban, Negeri Sembilan.", "Region": "Negeri Sembilan", "Category": "地缘", "PageNumber": 226, "Country": "Malaysia", "latitude": 2.725889, "longitude": 101.9378239 }, "geometry": { "type": "Point", "coordinates": [ 101.9378239, 2.725889 ] } },
{ "type": "Feature", "properties": { "Name_CH": "瓜拉庇月劳应和会馆   ", "Name_ML": "Persatuan Yin Foh", "Name_EN": "Yin Foh Association Kuala Pilah", "Location": "166, (Tingkat 2), Jalan Seremban Lama, 72000 Kuala Pilah, Negeri Sembilan.", "Region": "Negeri Sembilan", "Category": "地缘", "PageNumber": 226, "Country": "Malaysia", "latitude": 2.5758039, "longitude": 102.1206011 }, "geometry": { "type": "Point", "coordinates": [ 102.1206011, 2.5758039 ] } },
{ "type": "Feature", "properties": { "Name_CH": "淡边桂高波联谊会", "Name_ML": "Persatuan Kwai Kooh Song Tampin", "Name_EN": "Tampin Kwai Kooh Song Association ", "Location": " 202, Kampung Baru Tampin, 73000 Tampin, Negeri Sembilan.", "Region": "Negeri Sembilan", "Category": "地缘", "PageNumber": 226, "Country": "Malaysia", "latitude": 2.47671, "longitude": 102.2323984 }, "geometry": { "type": "Point", "coordinates": [ 102.2323984, 2.47671 ] } },
{ "type": "Feature", "properties": { "Name_CH": "淡边海南会馆 ", "Name_ML": "Persatuan Hainan Tampin", "Name_EN": null, "Location": " 282, Pulau Sebang, 73000 Tampin, Melaka.", "Region": "Negeri Sembilan", "Category": "地缘", "PageNumber": 226, "Country": "Malaysia", "latitude": 2.450665, "longitude": 102.2300168 }, "geometry": { "type": "Point", "coordinates": [ 102.2300168, 2.450665 ] } },
{ "type": "Feature", "properties": { "Name_CH": "淡边客家公会  ", "Name_ML": "Pertubuhan Hakka Tampin", "Name_EN": "Hakka Association Tampin", "Location": "P.S. 1044, Jalan Perhentian Bas, 73000 Pulau Sebang,Tampin.Pos., Negeri Sembilan.", "Region": "Negeri Sembilan", "Category": "地缘", "PageNumber": 226, "Country": "Malaysia", "latitude": 2.4667253, "longitude": 102.230598 }, "geometry": { "type": "Point", "coordinates": [ 102.230598, 2.4667253 ] } },
{ "type": "Feature", "properties": { "Name_CH": "淡边嘉应同乡会", "Name_ML": "Kah Yin Thong Heong Fui Tampin ", "Name_EN": null, "Location": "AG 3962(Tingkat 1) Jalan Pasar Pulau Sebang, 73000 Tampin, Negeri Sembilan.", "Region": "Negeri Sembilan", "Category": "地缘", "PageNumber": 226, "Country": "Malaysia", "latitude": 2.4653348, "longitude": 102.2316145 }, "geometry": { "type": "Point", "coordinates": [ 102.2316145, 2.4653348 ] } },
{ "type": "Feature", "properties": { "Name_CH": "瓜拉庇月劳福莆仙公会 ", "Name_ML": "Persatuan Hock Pou Sen Kuala Pilah Negeri Sembilan", "Name_EN": null, "Location": "200, Jalan Tung Yen, 72000 Kuala Pilah, Negeri Sembilan.", "Region": "Negeri Sembilan", "Category": "地缘", "PageNumber": 226, "Country": "Malaysia", "latitude": 2.7402947, "longitude": 102.2471545 }, "geometry": { "type": "Point", "coordinates": [ 102.2471545, 2.7402947 ] } },
{ "type": "Feature", "properties": { "Name_CH": "瓜拉庇月劳广东会馆", "Name_ML": "Persatuan Kwang Tung Kuala Pilah", "Name_EN": "Kuala Pilah District Kwang Tung Association", "Location": "68, Jalan Dato, Undang Johol 72000 Kuala Pilah, Negeri Sembilan.", "Region": "Negeri Sembilan", "Category": "地缘", "PageNumber": 226, "Country": "Malaysia", "latitude": 2.740962, "longitude": 102.248493 }, "geometry": { "type": "Point", "coordinates": [ 102.248493, 2.740962 ] } },
{ "type": "Feature", "properties": { "Name_CH": "瓜拉庇月劳永春公所   ", "Name_ML": "Persatuan Eng Choon Kong So Kuala Pilah", "Name_EN": "Kuala Pilah Eng Choon Kong So", "Location": "164, Jalan Yam Tuan Taden,72000 Kuala Pilah, Negeri Sembilan.", "Region": "Negeri Sembilan", "Category": "地缘", "PageNumber": 226, "Country": "Malaysia", "latitude": 2.7237694, "longitude": 101.9408764 }, "geometry": { "type": "Point", "coordinates": [ 101.9408764, 2.7237694 ] } },
{ "type": "Feature", "properties": { "Name_CH": "马口潮州会馆 ", "Name_ML": "Persatuan Teo Chew Bahau ", "Name_EN": null, "Location": "15, (Tingkat 2), Jalan Dato5 Besar, 72100 Bahau, Negeri Sembilan.", "Region": "Negeri Sembilan", "Category": "地缘", "PageNumber": 226, "Country": "Malaysia", "latitude": 2.8103574, "longitude": 102.4022214 }, "geometry": { "type": "Point", "coordinates": [ 102.4022214, 2.8103574 ] } },
{ "type": "Feature", "properties": { "Name_CH": "金马士福建会馆 ", "Name_ML": "Persatuan Hokkien Gemas Negeri Sembilan  ", "Name_EN": "Negeri Sembilan Gemas Hokkien Association", "Location": "967, Jalan Pasar, 73400 Gemas, Negeri Sembilan.", "Region": "Negeri Sembilan", "Category": "地缘", "PageNumber": 226, "Country": "Malaysia", "latitude": 2.5821126, "longitude": 102.6169949 }, "geometry": { "type": "Point", "coordinates": [ 102.6169949, 2.5821126 ] } },
{ "type": "Feature", "properties": { "Name_CH": "马口泷江同乡会   ", "Name_ML": "Persatuan Siong Kong Bahau", "Name_EN": "Siong Kong Association", "Location": "108, Jalan Gurney 72100 Bahau, Negeri Sembilan.", "Region": "Negeri Sembilan", "Category": "地缘", "PageNumber": 227, "Country": "Malaysia", "latitude": 3.1679673, "longitude": 101.7211992 }, "geometry": { "type": "Point", "coordinates": [ 101.7211992, 3.1679673 ] } },
{ "type": "Feature", "properties": { "Name_CH": "日拉务福建会馆", "Name_ML": "Persatuan Hokkien Jelebu Negeri Sembilan", "Name_EN": null, "Location": "26, Jalan Besar, 71600 Kuala Klawang, Jelebu, Negeri Sembilan.", "Region": "Negeri Sembilan", "Category": "地缘", "PageNumber": 227, "Country": "Malaysia", "latitude": 2.9311389, "longitude": 102.0946818 }, "geometry": { "type": "Point", "coordinates": [ 102.0946818, 2.9311389 ] } },
{ "type": "Feature", "properties": { "Name_CH": "马来西亚海陆会馆   ", "Name_ML": "Persatuan Hoi Loke Malaysia", "Name_EN": "Hoi Loke Association Malaysia", "Location": "80-C ,Tingkat 2, Jalan Rasah, 70300 Seremban, Negeri Sembilan.", "Region": "Negeri Sembilan", "Category": "地缘", "PageNumber": 227, "Country": "Malaysia", "latitude": 2.7064467, "longitude": 101.940772 }, "geometry": { "type": "Point", "coordinates": [ 101.940772, 2.7064467 ] } },
{ "type": "Feature", "properties": { "Name_CH": "马口广西会馆  ", "Name_ML": "Persatuan Kwang Si Bahau Negeri Sembilan", "Name_EN": null, "Location": "47Jalan Dato5 Leia Petra, 72100 Bahau, Negeri Sembilan.", "Region": "Negeri Sembilan", "Category": "地缘", "PageNumber": 227, "Country": "Malaysia", "latitude": 2.7818598, "longitude": 102.3578423 }, "geometry": { "type": "Point", "coordinates": [ 102.3578423, 2.7818598 ] } },
{ "type": "Feature", "properties": { "Name_CH": "柔和海南会馆", "Name_ML": "Persatuan Hainan Johol Negeri Sembilan", "Name_EN": null, "Location": "27,  Main Road, Johol Kuala Pilah, Negeri Sembilan.", "Region": "Negeri Sembilan", "Category": "地缘", "PageNumber": 227, "Country": "Malaysia", "latitude": 2.740474, "longitude": 102.2488718 }, "geometry": { "type": "Point", "coordinates": [ 102.2488718, 2.740474 ] } },
{ "type": "Feature", "properties": { "Name_CH": "柔河永春公所", "Name_ML": "Persatuan Keturunan Eng Choon Kong Soh, Johol Negeri Sembilan", "Name_EN": null, "Location": "45, Jalan Besar, 73100 Johol, Negeri Sembilan.", "Region": "Negeri Sembilan", "Category": "地缘", "PageNumber": 227, "Country": "Malaysia", "latitude": 2.6001222, "longitude": 102.2629742 }, "geometry": { "type": "Point", "coordinates": [ 102.2629742, 2.6001222 ] } },
{ "type": "Feature", "properties": { "Name_CH": "森甲河婆同乡会", "Name_ML": "Persatuan Hopo Negeri Sembilan\/Melaka", "Name_EN": null, "Location": "598-B Jalan Besar, 73000 Tampin, Negeri Sembilan.", "Region": "Negeri Sembilan", "Category": "地缘", "PageNumber": 227, "Country": "Malaysia", "latitude": 2.4707618, "longitude": 102.2318683 }, "geometry": { "type": "Point", "coordinates": [ 102.2318683, 2.4707618 ] } },
{ "type": "Feature", "properties": { "Name_CH": "马口高州会馆 ", "Name_ML": "Persatuan Ko Chow Bahau ", "Name_EN": "Bahau Ko Chow Asssociation ", "Location": "106,Gurney Road, Bahau, Jempol Negeri Sembilan.", "Region": "Negeri Sembilan", "Category": "地缘", "PageNumber": 227, "Country": "Malaysia", "latitude": 2.809902, "longitude": 102.398351 }, "geometry": { "type": "Point", "coordinates": [ 102.398351, 2.809902 ] } },
{ "type": "Feature", "properties": { "Name_CH": "日拉务嘉属会馆", "Name_ML": "Persatuan Kah Shook Fui Kon", "Name_EN": null, "Location": "98, Keyser Road, 71600 Kuala Klawang, Jelebu, Negeri Sembilan.", "Region": "Negeri Sembilan", "Category": "地缘", "PageNumber": 227, "Country": "Malaysia", "latitude": 2.9311389, "longitude": 102.0946818 }, "geometry": { "type": "Point", "coordinates": [ 102.0946818, 2.9311389 ] } },
{ "type": "Feature", "properties": { "Name_CH": "马口客家公会   ", "Name_ML": "Persatuan Hakka Bahau", "Name_EN": "Bahau Hakka Association", "Location": "105, Jalan Gurney 72100, Bahau, Negeri Sembilan.", "Region": "Negeri Sembilan", "Category": "地缘", "PageNumber": 227, "Country": "Malaysia", "latitude": 3.1682205, "longitude": 101.7219613 }, "geometry": { "type": "Point", "coordinates": [ 101.7219613, 3.1682205 ] } },
{ "type": "Feature", "properties": { "Name_CH": "仁保县海南会馆", "Name_ML": "Persatuan Hainan Daerah Jempol", "Name_EN": null, "Location": "105, Jalan Dato, Komo,72100 Bahau,Negeri Sembilan.", "Region": "Negeri Sembilan", "Category": "地缘", "PageNumber": 227, "Country": "Malaysia", "latitude": 2.811818, "longitude": 102.4000067 }, "geometry": { "type": "Point", "coordinates": [ 102.4000067, 2.811818 ] } },
{ "type": "Feature", "properties": { "Name_CH": "马口福建会馆", "Name_ML": "Persatuan Hokkian Bahau", "Name_EN": "Bahau Hokkien Association", "Location": "107 (atas) Jalan Mewah, 72100 Bahau, Negeri Sembilan.", "Region": "Negeri Sembilan", "Category": "地缘", "PageNumber": 227, "Country": "Malaysia", "latitude": 2.8110325, "longitude": 102.4032192 }, "geometry": { "type": "Point", "coordinates": [ 102.4032192, 2.8110325 ] } },
{ "type": "Feature", "properties": { "Name_CH": "森美兰惠州会馆", "Name_ML": "Persatuan Fui Chiu Negeri Sembilan", "Name_EN": "Negeri Sembilan Fui Chiu Association", "Location": "Tingkat 2, Wisma Fui Chiu, 15, Jalan Nunis, 70000 Seremban, Negeri Sembilan.", "Region": "Negeri Sembilan", "Category": "地缘", "PageNumber": 228, "Country": "Malaysia", "latitude": 3.1456439, "longitude": 101.6974449 }, "geometry": { "type": "Point", "coordinates": [ 101.6974449, 3.1456439 ] } },
{ "type": "Feature", "properties": { "Name_CH": "森美兰南安会馆", "Name_ML": null, "Name_EN": "Negeri Sembilan Nam Ann Association", "Location": "2nd Floor, no. 26 Jalan Besar, 71010 Lukut, Negeri Sembilan.", "Region": "Negeri Sembilan", "Category": "地缘", "PageNumber": 228, "Country": "Malaysia", "latitude": 2.5689945, "longitude": 101.8287361 }, "geometry": { "type": "Point", "coordinates": [ 101.8287361, 2.5689945 ] } },
{ "type": "Feature", "properties": { "Name_CH": "森美兰高州会馆", "Name_ML": "Persatuan Negeri Sembilan Ko Chaw Association", "Name_EN": "The Negeri Sembilan Kochow Association", "Location": "178 (Tingkat 4) Jalan Tuanku Munawir, 70000 Seremban, Negeri Sembilan.", "Region": "Negeri Sembilan", "Category": "地缘", "PageNumber": 228, "Country": "Malaysia", "latitude": 2.7241573, "longitude": 101.93747 }, "geometry": { "type": "Point", "coordinates": [ 101.93747, 2.7241573 ] } },
{ "type": "Feature", "properties": { "Name_CH": "森美兰福州会馆", "Name_ML": "Persatuan Foo Chow Negeri Sembilan", "Name_EN": "Negeri Sembilan Foo Chow Association", "Location": "76, Jalan Temiang, 70200 Seremban, Negeri Sembilan.", "Region": "Negeri Sembilan", "Category": "地缘", "PageNumber": 228, "Country": "Malaysia", "latitude": 2.73329, "longitude": 101.9380161 }, "geometry": { "type": "Point", "coordinates": [ 101.9380161, 2.73329 ] } },
{ "type": "Feature", "properties": { "Name_CH": "森美兰潮州会馆", "Name_ML": "Persatuan Teo Chew Negeri Sembilan", "Name_EN": "Negeri Sembilan Teo Chew Association", "Location": "43, Jalan Tuanku Munawir,70000 Seremban, Negeri Sembilan.", "Region": "Negeri Sembilan", "Category": "地缘", "PageNumber": 228, "Country": "Malaysia", "latitude": 2.7263744, "longitude": 101.9363315 }, "geometry": { "type": "Point", "coordinates": [ 101.9363315, 2.7263744 ] } },
{ "type": "Feature", "properties": { "Name_CH": "森美兰顺德会馆", "Name_ML": null, "Name_EN": "Negeri Sembilan Soon Tuck Association", "Location": "68, Jalan Lemon, 70000 Seremban, Negeri Sembilan.", "Region": "Negeri Sembilan", "Category": "地缘", "PageNumber": 228, "Country": "Malaysia", "latitude": 2.7303519, "longitude": 101.9357717 }, "geometry": { "type": "Point", "coordinates": [ 101.9357717, 2.7303519 ] } },
{ "type": "Feature", "properties": { "Name_CH": "森美兰广东会馆", "Name_ML": "Kwang Tung Negeri Sembilan", "Name_EN": "Negeri Sembilan Kwang Tung Association", "Location": "76- B, Jalan Temiang, 70200 Seremban, Negeri Sembilan.", "Region": "Negeri Sembilan", "Category": "地缘", "PageNumber": 228, "Country": "Malaysia", "latitude": 2.73329, "longitude": 101.9380161 }, "geometry": { "type": "Point", "coordinates": [ 101.9380161, 2.73329 ] } },
{ "type": "Feature", "properties": { "Name_CH": "森美兰梅江五属会馆", "Name_ML": "Persatuan Moi Kong Ng Shook Fui Kon Negeri Sembilan", "Name_EN": "Negeri Sembilan Moi Kong Ng Shook Fui Kon", "Location": "148, Jalan Temiang, 70200 Seremban, Negeri Sembilan.", "Region": "Negeri Sembilan", "Category": "地缘", "PageNumber": 228, "Country": "Malaysia", "latitude": 2.7370028, "longitude": 101.9381725 }, "geometry": { "type": "Point", "coordinates": [ 101.9381725, 2.7370028 ] } },
{ "type": "Feature", "properties": { "Name_CH": "森美兰广西会馆", "Name_ML": null, "Name_EN": "Negeri Sembilan Kwongsai Association", "Location": "12(3rd Floor), Jalan Dato Lee Fong Yee, 70000 Seremban, Negeri Sembilan.", "Region": "Negeri Sembilan", "Category": "地缘", "PageNumber": 228, "Country": "Malaysia", "latitude": 2.7252174, "longitude": 101.9398088 }, "geometry": { "type": "Point", "coordinates": [ 101.9398088, 2.7252174 ] } },
{ "type": "Feature", "properties": { "Name_CH": "森美兰福建会馆", "Name_ML": "Persatuan Hokkien Negeri Sembilan", "Name_EN": "Negeri Sembilan Hokkien Association", "Location": "33，Jalan Nunis, 70000 Seremban, Negeri Sembilan.", "Region": "Negeri Sembilan", "Category": "地缘", "PageNumber": 228, "Country": "Malaysia", "latitude": 2.7277378, "longitude": 101.9402351 }, "geometry": { "type": "Point", "coordinates": [ 101.9402351, 2.7277378 ] } },
{ "type": "Feature", "properties": { "Name_CH": "森美兰海南会馆", "Name_ML": "Persatuan Hainan Negeri Sembilan", "Name_EN": "Negeri Sembilan Hainan Association", "Location": "30-3L Jalan Dato Abdul Malek, 70000 Seremban, Negeri Sembilan.", "Region": "Negeri Sembilan", "Category": "地缘", "PageNumber": 228, "Country": "Malaysia", "latitude": 2.7269381, "longitude": 101.941232 }, "geometry": { "type": "Point", "coordinates": [ 101.941232, 2.7269381 ] } },
{ "type": "Feature", "properties": { "Name_CH": "森美兰龙江会馆", "Name_ML": "Persatuan Siong Kong Negeri Sembilan", "Name_EN": null, "Location": "48A\/592 Off Jalan Haji Abdul Hamid, 70200 Seremban, Negeri Sembilan.", "Region": "Negeri Sembilan", "Category": "地缘", "PageNumber": 228, "Country": "Malaysia", "latitude": 2.7328119, "longitude": 101.9176916 }, "geometry": { "type": "Point", "coordinates": [ 101.9176916, 2.7328119 ] } },
{ "type": "Feature", "properties": { "Name_CH": "武东岸福建会馆", "Name_ML": "Persatuan Broga Hokkien Association", "Name_EN": null, "Location": "142, Main Road, Broga lenggeng, Negeri Sembilan.", "Region": "Negeri Sembilan", "Category": "地缘", "PageNumber": 229, "Country": "Malaysia", "latitude": 2.9387518, "longitude": 101.8957558 }, "geometry": { "type": "Point", "coordinates": [ 101.8957558, 2.9387518 ] } },
{ "type": "Feature", "properties": { "Name_CH": "森州琼州会馆", "Name_ML": "Negeri Sembilan Keng Chew Wee Kuan", "Name_EN": null, "Location": "1,Jalan Bukit, 70000 Seremban, Negeri Sembilan.", "Region": "Negeri Sembilan", "Category": "地缘", "PageNumber": 229, "Country": "Malaysia", "latitude": 2.7462475, "longitude": 101.9189792 }, "geometry": { "type": "Point", "coordinates": [ 101.9189792, 2.7462475 ] } },
{ "type": "Feature", "properties": { "Name_CH": "森美兰台山会馆", "Name_ML": "Persatuan Toi Sun Negeri Sembilan", "Name_EN": "Toi Sun Association Negeri Sembilan", "Location": "21K, Jalan Tan Sri Manickavasagam, 70200 Seremban, Negeri Sembilan.", "Region": "Negeri Sembilan", "Category": "地缘", "PageNumber": 229, "Country": "Malaysia", "latitude": 2.7277482, "longitude": 101.929837 }, "geometry": { "type": "Point", "coordinates": [ 101.929837, 2.7277482 ] } },
{ "type": "Feature", "properties": { "Name_CH": "森美兰中山同乡会", "Name_ML": "Persatuan Chung Sun Negeri Sembilan", "Name_EN": null, "Location": "62, Jalan Tuanku Munawir, 70000 Seremban, Negeri Sembilan.", "Region": "Negeri Sembilan", "Category": "地缘", "PageNumber": 229, "Country": "Malaysia", "latitude": 2.7281699, "longitude": 101.9365563 }, "geometry": { "type": "Point", "coordinates": [ 101.9365563, 2.7281699 ] } },
{ "type": "Feature", "properties": { "Name_CH": "森美兰永春会馆", "Name_ML": "Persatuan Eng Choon Negeri Sembilan", "Name_EN": "The Negeri Sembilan Eng Choon Association", "Location": "37, Jalan Siow Loong Hin, 70000 Seremban, Negeri Sembilan.", "Region": "Negeri Sembilan", "Category": "地缘", "PageNumber": 229, "Country": "Malaysia", "latitude": 2.7284153, "longitude": 101.9391897 }, "geometry": { "type": "Point", "coordinates": [ 101.9391897, 2.7284153 ] } },
{ "type": "Feature", "properties": { "Name_CH": "森美兰四邑会馆", "Name_ML": "Persatuan Negeri Sembilan See Yap", "Name_EN": "Negeri Sembilan See Yap Association", "Location": "30, Jalan Seng Meng Lee, 70200 Seremban, Negeri Sembilan.", "Region": "Negeri Sembilan", "Category": "地缘", "PageNumber": 229, "Country": "Malaysia", "latitude": 2.7343727, "longitude": 101.9402933 }, "geometry": { "type": "Point", "coordinates": [ 101.9402933, 2.7343727 ] } },
{ "type": "Feature", "properties": { "Name_CH": "森美兰兴安会馆", "Name_ML": "Persatuan Negeri Sembilan Shing An Association", "Name_EN": "Negeri Sembilan Sheng An Association", "Location": "2A-2B, Jalan Temiang, Seremban, Negeri Sembilan.", "Region": "Negeri Sembilan", "Category": "地缘", "PageNumber": 229, "Country": "Malaysia", "latitude": 2.7333155, "longitude": 101.9378673 }, "geometry": { "type": "Point", "coordinates": [ 101.9378673, 2.7333155 ] } },
{ "type": "Feature", "properties": { "Name_CH": "森美兰荼阳会馆", "Name_ML": "Persatuan Char Young Negeri Sembilan", "Name_EN": "Negeri Sembilan Char Young Association", "Location": "19, Jalan Kapitan Tam Yeong, 70000 Seremban, Negeri Sembilan.", "Region": "Negeri Sembilan", "Category": "地缘", "PageNumber": 229, "Country": "Malaysia", "latitude": 2.7290601, "longitude": 101.9400707 }, "geometry": { "type": "Point", "coordinates": [ 101.9400707, 2.7290601 ] } }
]
}
