{
"type": "FeatureCollection",
"name": "Category_4",
"crs": { "type": "name", "properties": { "name": "urn:ogc:def:crs:OGC:1.3:CRS84" } },
"features": [
{ "type": "Feature", "properties": { "Name_CH": "淡边福建会馆", "Name_ML": null, "Name_EN": "The Tampin Hokkien Association", "Location": "80A,(1st Flr), Kg. Baru, 73000 Tampin, Negeri Sembilan.", "Longitude": 102.2260916, "Latitude": 2.4799557, "Region": "Negeri Sembilan", "Category": "地缘", "PageNumber": "225" }, "geometry": { "type": "Point", "coordinates": [ 102.2261, 2.48, 102.2261 ] } },
{ "type": "Feature", "properties": { "Name_CH": "波德申福建会馆", "Name_ML": "Persatuan Hokkien Port Dickson Negeri Sembilan", "Name_EN": null, "Location": "19,Pasar Baru,Port Dickson, 71000 Port Dickson, Negeri Sembilan.", "Longitude": 101.7953558, "Latitude": 2.5263432, "Region": "Negeri Sembilan", "Category": "地缘", "PageNumber": "225" }, "geometry": { "type": "Point", "coordinates": [ 101.7954, 2.5263, 101.7954 ] } },
{ "type": "Feature", "properties": { "Name_CH": "波德申海南会馆", "Name_ML": "Persatuan Hainan Port Dickson", "Name_EN": null, "Location": "66C, Tingkat Atas, Jalan Baru, 71000 Port Dickson, Negeri Sembilan.", "Longitude": 101.8026861, "Latitude": 2.5532129, "Region": "Negeri Sembilan", "Category": "地缘", "PageNumber": "225" }, "geometry": { "type": "Point", "coordinates": [ 101.8027, 2.5532, 101.8027 ] } },
{ "type": "Feature", "properties": { "Name_CH": "庇月劳海南会馆", "Name_ML": "Persatuan Hainan Kuala Pilah", "Name_EN": null, "Location": "108, Jalan Yam Tuan 72000 Kuala Pilah, Negeri Sembilan.", "Longitude": 102.2484315, "Latitude": 2.7389692, "Region": "Negeri Sembilan", "Category": "地缘", "PageNumber": "225" }, "geometry": { "type": "Point", "coordinates": [ 102.2484, 2.739, 102.2484 ] } },
{ "type": "Feature", "properties": { "Name_CH": "庇月劳客属公会", "Name_ML": "Persatuan Hakka Kuala Pilah", "Name_EN": null, "Location": "102Jalan Yam Tuan,72000 Kuala Pilah, Negeri Sembilan", "Longitude": 102.202109, "Latitude": 2.8398229, "Region": "Negeri Sembilan", "Category": "地缘", "PageNumber": "225" }, "geometry": { "type": "Point", "coordinates": [ 102.2021, 2.8398, 102.2021 ] } },
{ "type": "Feature", "properties": { "Name_CH": "淡边海南会馆 ", "Name_ML": "Persatuan Hainan Tampin", "Name_EN": null, "Location": " 282, Pulau Sebang, 73000 Tampin, Melaka.", "Longitude": 102.2210308, "Latitude": 2.4546815, "Region": "Negeri Sembilan", "Category": "地缘", "PageNumber": "226" }, "geometry": { "type": "Point", "coordinates": [ 102.221, 2.4547, 102.221 ] } },
{ "type": "Feature", "properties": { "Name_CH": "淡边桂高波联谊会", "Name_ML": "Persatuan Kwai Kooh Song Tampin", "Name_EN": "Tampin Kwai Kooh Song Association ", "Location": " 202, Kampung Baru Tampin, 73000 Tampin, Negeri Sembilan.", "Longitude": 102.1947658, "Latitude": 2.4547882, "Region": "Negeri Sembilan", "Category": "地缘", "PageNumber": "226" }, "geometry": { "type": "Point", "coordinates": [ 102.1948, 2.4548, 102.1948 ] } },
{ "type": "Feature", "properties": { "Name_CH": "淡边客家公会  ", "Name_ML": "Pertubuhan Hakka Tampin", "Name_EN": "Hakka Association Tampin", "Location": "P.S. 1044, Jin Perhentian Bas, 73000 Pulau Sebang,Tampin.Pos., Negeri Sembilan.", "Longitude": 102.2285236, "Latitude": 2.462144, "Region": "Negeri Sembilan", "Category": "地缘", "PageNumber": "226" }, "geometry": { "type": "Point", "coordinates": [ 102.2285, 2.4621, 102.2285 ] } },
{ "type": "Feature", "properties": { "Name_CH": "淡边嘉应同乡会", "Name_ML": "Kah Yin Thong Heong Fui Tampin ", "Name_EN": null, "Location": "AG 3962(Tingkat 1) Jalan Pasar Pulau Sebang, 73000 Tampin, Negeri Sembilan.", "Longitude": 102.2294258, "Latitude": 2.4653402, "Region": "Negeri Sembilan", "Category": "地缘", "PageNumber": "226" }, "geometry": { "type": "Point", "coordinates": [ 102.2294, 2.4653, 102.2294 ] } },
{ "type": "Feature", "properties": { "Name_CH": "东安会馆", "Name_ML": "Persatuan Toong Onn Kwoon ", "Name_EN": null, "Location": "72, Jalan Murray, Seremban, Negeri Sembilan.", "Longitude": 101.8319034, "Latitude": 2.7124874, "Region": "Negeri Sembilan", "Category": "地缘", "PageNumber": "226" }, "geometry": { "type": "Point", "coordinates": [ 101.8319, 2.7125, 101.8319 ] } },
{ "type": "Feature", "properties": { "Name_CH": "瓜拉庇月劳应和会馆   ", "Name_ML": "Persatuan Yin Foh", "Name_EN": "Yin Foh Association Kuala Pilah", "Location": "166, (Tingkat 2), Jalan Seremban Lama, 72000 Kuala Pilah, Negeri Sembilan.", "Longitude": 101.9366524, "Latitude": 2.7285749, "Region": "Negeri Sembilan", "Category": "地缘", "PageNumber": "226" }, "geometry": { "type": "Point", "coordinates": [ 101.9367, 2.7286, 101.9367 ] } },
{ "type": "Feature", "properties": { "Name_CH": "瓜拉庇月劳广东会馆", "Name_ML": "Persatuan Kwang Tung Kuala Pilah", "Name_EN": "Kuala Pilah District Kwang Tung Association", "Location": "68, Jalan Dato, Undang Johol 72000 Kuala Pilah, Negeri Sembilan.", "Longitude": 102.2482644, "Latitude": 2.73847899, "Region": "Negeri Sembilan", "Category": "地缘", "PageNumber": "226" }, "geometry": { "type": "Point", "coordinates": [ 102.2483, 2.7385, 102.2483 ] } },
{ "type": "Feature", "properties": { "Name_CH": "瓜拉庇月劳永春公所   ", "Name_ML": "Persatuan Eng Choon Kong So Kuala Pilah", "Name_EN": "Kuala Pilah Eng Choon Kong So", "Location": "164, Jalan Yam Tuan Taden,72000 Kuala Pilah, Negeri Sembilan.", "Longitude": 102.2495684, "Latitude": 2.73957116, "Region": "Negeri Sembilan", "Category": "地缘", "PageNumber": "226" }, "geometry": { "type": "Point", "coordinates": [ 102.2496, 2.7396, 102.2496 ] } },
{ "type": "Feature", "properties": { "Name_CH": "瓜拉庇月劳福莆仙公会 ", "Name_ML": "Persatuan Hock Pou Sen Kuala Pilah Negeri Sembilan", "Name_EN": null, "Location": "200, Jalan Tung Yen, 72000 Kuala Pilah, Negeri Sembilan.", "Longitude": 102.2471545, "Latitude": 2.7402947, "Region": "Negeri Sembilan", "Category": "地缘", "PageNumber": "226" }, "geometry": { "type": "Point", "coordinates": [ 102.2472, 2.7403, 102.2472 ] } },
{ "type": "Feature", "properties": { "Name_CH": "金马士客属公会 ", "Name_ML": "Persatuan Hakka Gemas Negeri Sembilan ", "Name_EN": null, "Location": "Lot 961, Jalan Pasar, 73400 Gemas, Negeri Sembilan.", "Longitude": 101.5927194, "Latitude": 2.8090513, "Region": "Negeri Sembilan", "Category": "地缘", "PageNumber": "226" }, "geometry": { "type": "Point", "coordinates": [ 101.5927, 2.8091, 101.5927 ] } },
{ "type": "Feature", "properties": { "Name_CH": "马口潮州会馆 ", "Name_ML": "Persatuan Teo Chew Bahau ", "Name_EN": null, "Location": "15, (Tingkat 2), Jalan Dato5 Besar, 72100 Bahau, Negeri Sembilan.", "Longitude": 102.3971737, "Latitude": 2.8112945, "Region": "Negeri Sembilan", "Category": "地缘", "PageNumber": "226" }, "geometry": { "type": "Point", "coordinates": [ 102.3972, 2.8113, 102.3972 ] } },
{ "type": "Feature", "properties": { "Name_CH": "金马士福建会馆 ", "Name_ML": "Persatuan Hokkien Gemas Negeri Sembilan  ", "Name_EN": "Negeri Sembilan Gemas Hokkien Association", "Location": "967, Jalan Pasar, 73400 Gemas, Negeri Sembilan.", "Longitude": 102.4009093, "Latitude": 2.81214408, "Region": "Negeri Sembilan", "Category": "地缘", "PageNumber": "226" }, "geometry": { "type": "Point", "coordinates": [ 102.4009, 2.8121, 102.4009 ] } },
{ "type": "Feature", "properties": { "Name_CH": "森甲河婆同乡会", "Name_ML": "Persatuan Hopo Negeri Sembilan\/Melaka", "Name_EN": null, "Location": "598-B Jalan Besar, 73000 Tampin, Negeri Sembilan.", "Longitude": 102.2294931, "Latitude": 2.4699917, "Region": "Negeri Sembilan", "Category": "地缘", "PageNumber": "227" }, "geometry": { "type": "Point", "coordinates": [ 102.2295, 2.47, 102.2295 ] } },
{ "type": "Feature", "properties": { "Name_CH": "柔河永春公所", "Name_ML": "Persatuan Keturunan Eng Choon Kong Soh, Johol Negeri Sembilan", "Name_EN": null, "Location": "45, Jalan Besar, 73100 Johol, Negeri Sembilan.", "Longitude": 102.1256114, "Latitude": 2.659358, "Region": "Negeri Sembilan", "Category": "地缘", "PageNumber": "227" }, "geometry": { "type": "Point", "coordinates": [ 102.1256, 2.6594, 102.1256 ] } },
{ "type": "Feature", "properties": { "Name_CH": "柔和海南会馆", "Name_ML": "Persatuan Hainan Johol Negeri Sembilan", "Name_EN": null, "Location": "27,  Main Road, Johol Kuala Pilah, Negeri Sembilan.", "Longitude": 102.1091167, "Latitude": 2.68037497, "Region": "Negeri Sembilan", "Category": "地缘", "PageNumber": "227" }, "geometry": { "type": "Point", "coordinates": [ 102.1091, 2.6804, 102.1091 ] } },
{ "type": "Feature", "properties": { "Name_CH": "马来西亚海陆会馆   ", "Name_ML": "Persatuan Hoi Loke Malaysia", "Name_EN": "Hoi Loke Association Malaysia", "Location": "80-C ,Tingkat 2, Jalan Rasah, 70300 Seremban, Negeri Sembilan.", "Longitude": 101.9005761, "Latitude": 2.69639438, "Region": "Negeri Sembilan", "Category": "地缘", "PageNumber": "227" }, "geometry": { "type": "Point", "coordinates": [ 101.9006, 2.6964, 101.9006 ] } },
{ "type": "Feature", "properties": { "Name_CH": "日拉务嘉属会馆", "Name_ML": "Persatuan Kah Shook Fui Kon", "Name_EN": null, "Location": "98, Keyser Road, 71600 Kuala Klawang, Jelebu, Negeri Sembilan.", "Longitude": 102.3906036, "Latitude": 2.7275665, "Region": "Negeri Sembilan", "Category": "地缘", "PageNumber": "227" }, "geometry": { "type": "Point", "coordinates": [ 102.3906, 2.7276, 102.3906 ] } },
{ "type": "Feature", "properties": { "Name_CH": "马口高州会馆 ", "Name_ML": "Persatuan Ko Chow Bahau ", "Name_EN": "Bahau Ko Chow Asssociation ", "Location": "106,Gurney Road, Bahau, Jempol Negeri Sembilan.", "Longitude": 102.2651437, "Latitude": 2.7409218, "Region": "Negeri Sembilan", "Category": "地缘", "PageNumber": "227" }, "geometry": { "type": "Point", "coordinates": [ 102.2651, 2.7409, 102.2651 ] } },
{ "type": "Feature", "properties": { "Name_CH": "马口广西会馆  ", "Name_ML": "Persatuan Kwang Si Bahau Negeri Sembilan", "Name_EN": null, "Location": "47Jalan Dato5 Leia Petra, 72100 Bahau, Negeri Sembilan.", "Longitude": 102.0674399, "Latitude": 2.762126, "Region": "Negeri Sembilan", "Category": "地缘", "PageNumber": "227" }, "geometry": { "type": "Point", "coordinates": [ 102.0674, 2.7621, 102.0674 ] } },
{ "type": "Feature", "properties": { "Name_CH": "马口客家公会   ", "Name_ML": "Persatuan Hakka Bahau", "Name_EN": "Bahau Hakka Association", "Location": "105, Jalan Gurney 72100, Bahau, Negeri Sembilan.", "Longitude": 102.3957343, "Latitude": 2.80656674, "Region": "Negeri Sembilan", "Category": "地缘", "PageNumber": "227" }, "geometry": { "type": "Point", "coordinates": [ 102.3957, 2.8066, 102.3957 ] } },
{ "type": "Feature", "properties": { "Name_CH": "马口福建会馆", "Name_ML": "Persatuan Hokkian Bahau", "Name_EN": "Bahau Hokkien Association", "Location": "107 (atas) Jalan Mewah, 72100 Bahau, Negeri Sembilan.", "Longitude": 102.4017774, "Latitude": 2.8110511, "Region": "Negeri Sembilan", "Category": "地缘", "PageNumber": "227" }, "geometry": { "type": "Point", "coordinates": [ 102.4018, 2.8111, 102.4018 ] } },
{ "type": "Feature", "properties": { "Name_CH": "仁保县海南会馆", "Name_ML": "Persatuan Hainan Daerah Jempol", "Name_EN": null, "Location": "105, Jalan Dato, Komo,72100 Bahau,Negeri Sembilan.", "Longitude": 102.397818, "Latitude": 2.8118234, "Region": "Negeri Sembilan", "Category": "地缘", "PageNumber": "227" }, "geometry": { "type": "Point", "coordinates": [ 102.3978, 2.8118, 102.3978 ] } },
{ "type": "Feature", "properties": { "Name_CH": "日拉务福建会馆", "Name_ML": "Persatuan Hokkien Jelebu Negeri Sembilan", "Name_EN": null, "Location": "26, Jalan Besar, 71600 Kuala Klawang, Jelebu, Negeri Sembilan.", "Longitude": 101.8924555, "Latitude": 2.82396271, "Region": "Negeri Sembilan", "Category": "地缘", "PageNumber": "227" }, "geometry": { "type": "Point", "coordinates": [ 101.8925, 2.824, 101.8925 ] } },
{ "type": "Feature", "properties": { "Name_CH": "马口泷江同乡会   ", "Name_ML": "Persatuan Siong Kong Bahau", "Name_EN": "Siong Kong Association", "Location": "108, Jalan Gurney 72100 Bahau, Negeri Sembilan.", "Longitude": 101.8006681, "Latitude": 2.9025162, "Region": "Negeri Sembilan", "Category": "地缘", "PageNumber": "227" }, "geometry": { "type": "Point", "coordinates": [ 101.8007, 2.9025, 101.8007 ] } },
{ "type": "Feature", "properties": { "Name_CH": "森美兰南安会馆", "Name_ML": null, "Name_EN": "Negeri Sembilan Nam Ann Association", "Location": "2nd Floor, no. 26 Jalan Besar, 71010 Lukut, Negeri Sembilan.", "Longitude": 101.8265474, "Latitude": 2.5689945, "Region": "Negeri Sembilan", "Category": "地缘", "PageNumber": "228" }, "geometry": { "type": "Point", "coordinates": [ 101.8265, 2.569, 101.8265 ] } },
{ "type": "Feature", "properties": { "Name_CH": "森美兰广西会馆", "Name_ML": null, "Name_EN": "Negeri Sembilan Kwongsai Association", "Location": "12(3rd Floor), Jalan Dato Lee Fong Yee, 70000 Seremban, Negeri Sembilan.", "Longitude": 101.9375641, "Latitude": 2.725632, "Region": "Negeri Sembilan", "Category": "地缘", "PageNumber": "228" }, "geometry": { "type": "Point", "coordinates": [ 101.9376, 2.7256, 101.9376 ] } },
{ "type": "Feature", "properties": { "Name_CH": "森美兰福建会馆", "Name_ML": "Persatuan Hokkien Negeri Sembilan", "Name_EN": "Negeri Sembilan Hokkien Association", "Location": "33，Jalan Nunis, 70000 Seremban, Negeri Sembilan.", "Longitude": 101.9377904, "Latitude": 2.727443, "Region": "Negeri Sembilan", "Category": "地缘", "PageNumber": "228" }, "geometry": { "type": "Point", "coordinates": [ 101.9378, 2.7274, 101.9378 ] } },
{ "type": "Feature", "properties": { "Name_CH": "森美兰海南会馆", "Name_ML": "Persatuan Hainan Negeri Sembilan", "Name_EN": "Negeri Sembilan Hainan Association", "Location": "30-3L Jalan Dato Abdul Malek, 70000 Seremban, Negeri Sembilan.", "Longitude": 101.9410195, "Latitude": 2.7281826, "Region": "Negeri Sembilan", "Category": "地缘", "PageNumber": "228" }, "geometry": { "type": "Point", "coordinates": [ 101.941, 2.7282, 101.941 ] } },
{ "type": "Feature", "properties": { "Name_CH": "森美兰顺德会馆", "Name_ML": null, "Name_EN": "Negeri Sembilan Soon Tuck Association", "Location": "68, Jalan Lemon, 70000 Seremban, Negeri Sembilan.", "Longitude": 101.9343478, "Latitude": 2.7286029, "Region": "Negeri Sembilan", "Category": "地缘", "PageNumber": "228" }, "geometry": { "type": "Point", "coordinates": [ 101.9343, 2.7286, 101.9343 ] } },
{ "type": "Feature", "properties": { "Name_CH": "森美兰潮州会馆", "Name_ML": "Persatuan Teo Chew Negeri Sembilan", "Name_EN": "Negeri Sembilan Teo Chew Association", "Location": "43, Jalan Tuanku Munawir,70000 Seremban, Negeri Sembilan.", "Longitude": 101.9331894, "Latitude": 2.7302213, "Region": "Negeri Sembilan", "Category": "地缘", "PageNumber": "228" }, "geometry": { "type": "Point", "coordinates": [ 101.9332, 2.7302, 101.9332 ] } },
{ "type": "Feature", "properties": { "Name_CH": "森美兰福州会馆", "Name_ML": "Persatuan Foo Chow Negeri Sembilan", "Name_EN": "Negeri Sembilan Foo Chow Association", "Location": "76, Jalan Temiang, 70200 Seremban, Negeri Sembilan.", "Longitude": 101.9316298, "Latitude": 2.7334893, "Region": "Negeri Sembilan", "Category": "地缘", "PageNumber": "228" }, "geometry": { "type": "Point", "coordinates": [ 101.9316, 2.7335, 101.9316 ] } },
{ "type": "Feature", "properties": { "Name_CH": "森美兰高州会馆", "Name_ML": "Persatuan Negeri Sembilan Ko Chaw Association", "Name_EN": "The Negeri Sembilan Kochow Association", "Location": "178 (Tingkat 4) Jalan Tuanku Munawir, 70000 Seremban, Negeri Sembilan.", "Longitude": 101.9293581, "Latitude": 2.733588, "Region": "Negeri Sembilan", "Category": "地缘", "PageNumber": "228" }, "geometry": { "type": "Point", "coordinates": [ 101.9294, 2.7336, 101.9294 ] } },
{ "type": "Feature", "properties": { "Name_CH": "森美兰广东会馆", "Name_ML": "Kwang Tung Negeri Sembilan", "Name_EN": "Negeri Sembilan Kwang Tung Association", "Location": "76- B, Jalan Temiang, 70200 Seremban, Negeri Sembilan.", "Longitude": 101.9359242, "Latitude": 2.733588, "Region": "Negeri Sembilan", "Category": "地缘", "PageNumber": "228" }, "geometry": { "type": "Point", "coordinates": [ 101.9359, 2.7336, 101.9359 ] } },
{ "type": "Feature", "properties": { "Name_CH": "森美兰梅江五属会馆", "Name_ML": "Persatuan Moi Kong Ng Shook Fui Kon Negeri Sembilan", "Name_EN": "Negeri Sembilan Moi Kong Ng Shook Fui Kon", "Location": "148, Jalan Temiang, 70200 Seremban, Negeri Sembilan.", "Longitude": 101.9359838, "Latitude": 2.7370028, "Region": "Negeri Sembilan", "Category": "地缘", "PageNumber": "228" }, "geometry": { "type": "Point", "coordinates": [ 101.936, 2.737, 101.936 ] } },
{ "type": "Feature", "properties": { "Name_CH": "森美兰龙江会馆", "Name_ML": "Persatuan Siong Kong Negeri Sembilan", "Name_EN": null, "Location": "48A\/592 Off Jalan Haji Abdul Hamid, 70200 Seremban, Negeri Sembilan.", "Longitude": 101.9422827, "Latitude": 2.742684, "Region": "Negeri Sembilan", "Category": "地缘", "PageNumber": "228" }, "geometry": { "type": "Point", "coordinates": [ 101.9423, 2.7427, 101.9423 ] } },
{ "type": "Feature", "properties": { "Name_CH": "森美兰惠州会馆", "Name_ML": "Persatuan Fui Chiu Negeri Sembilan", "Name_EN": "Negeri Sembilan Fui Chiu Association", "Location": "Tingkat 2, Wisma Fui Chiu, 15, Jalan Nunis, 70000 Seremban, Negeri Sembilan.", "Longitude": 101.6414125, "Latitude": 2.8396872, "Region": "Negeri Sembilan", "Category": "地缘", "PageNumber": "228" }, "geometry": { "type": "Point", "coordinates": [ 101.6414, 2.8397, 101.6414 ] } },
{ "type": "Feature", "properties": { "Name_CH": "武东岸福建会馆", "Name_ML": "Persatuan Broga Hokkien Association", "Name_EN": null, "Location": "142, Main Road, Broga lenggeng, Negeri Sembilan.", "Longitude": 101.7051636, "Latitude": 2.659223, "Region": "Negeri Sembilan", "Category": "地缘", "PageNumber": "229" }, "geometry": { "type": "Point", "coordinates": [ 101.7052, 2.6592, 101.7052 ] } },
{ "type": "Feature", "properties": { "Name_CH": "森州琼州会馆", "Name_ML": "Negeri Sembilan Keng Chew Wee Kuan", "Name_EN": null, "Location": "1,Jalan Bukit, 70000 Seremban, Negeri Sembilan.", "Longitude": 101.8709842, "Latitude": 2.7191217, "Region": "Negeri Sembilan", "Category": "地缘", "PageNumber": "229" }, "geometry": { "type": "Point", "coordinates": [ 101.871, 2.7191, 101.871 ] } },
{ "type": "Feature", "properties": { "Name_CH": "森美兰台山会馆", "Name_ML": "Persatuan Toi Sun Negeri Sembilan", "Name_EN": "Toi Sun Association Negeri Sembilan", "Location": "21K, Jalan Tan Sri Manickavasagam, 70200 Seremban, Negeri Sembilan.", "Longitude": 101.9276483, "Latitude": 2.7277482, "Region": "Negeri Sembilan", "Category": "地缘", "PageNumber": "229" }, "geometry": { "type": "Point", "coordinates": [ 101.9276, 2.7277, 101.9276 ] } },
{ "type": "Feature", "properties": { "Name_CH": "森美兰中山同乡会", "Name_ML": "Persatuan Chung Sun Negeri Sembilan", "Name_EN": null, "Location": "62, Jalan Tuanku Munawir, 70000 Seremban, Negeri Sembilan.", "Longitude": 101.9343676, "Latitude": 2.7281699, "Region": "Negeri Sembilan", "Category": "地缘", "PageNumber": "229" }, "geometry": { "type": "Point", "coordinates": [ 101.9344, 2.7282, 101.9344 ] } },
{ "type": "Feature", "properties": { "Name_CH": "森美兰永春会馆", "Name_ML": "Persatuan Eng Choon Negeri Sembilan", "Name_EN": "The Negeri Sembilan Eng Choon Association", "Location": "37, Jalan Siow Loong Hin, 70000 Seremban, Negeri Sembilan.", "Longitude": 101.937001, "Latitude": 2.7284153, "Region": "Negeri Sembilan", "Category": "地缘", "PageNumber": "229" }, "geometry": { "type": "Point", "coordinates": [ 101.937, 2.7284, 101.937 ] } },
{ "type": "Feature", "properties": { "Name_CH": "森美兰荼阳会馆", "Name_ML": "Persatuan Char Young Negeri Sembilan", "Name_EN": "Negeri Sembilan Char Young Association", "Location": "19, Jalan Kapitan Tam Yeong, 70000 Seremban, Negeri Sembilan.", "Longitude": 101.9378212, "Latitude": 2.7290396, "Region": "Negeri Sembilan", "Category": "地缘", "PageNumber": "229" }, "geometry": { "type": "Point", "coordinates": [ 101.9378, 2.729, 101.9378 ] } },
{ "type": "Feature", "properties": { "Name_CH": "森美兰四邑会馆", "Name_ML": "Persatuan Negeri Sembilan See Yap", "Name_EN": "Negeri Sembilan See Yap Association", "Location": "30, Jalan Seng Meng Lee, 70200 Seremban, Negeri Sembilan.", "Longitude": 101.9373549, "Latitude": 2.7317719, "Region": "Negeri Sembilan", "Category": "地缘", "PageNumber": "229" }, "geometry": { "type": "Point", "coordinates": [ 101.9374, 2.7318, 101.9374 ] } },
{ "type": "Feature", "properties": { "Name_CH": "森美兰兴安会馆", "Name_ML": "Persatuan Negeri Sembilan Shing An Association", "Name_EN": "Negeri Sembilan Sheng An Association", "Location": "2A-2B, Jalan Temiang, Seremban, Negeri Sembilan.", "Longitude": 101.9378021, "Latitude": 2.7332994, "Region": "Negeri Sembilan", "Category": "地缘", "PageNumber": "229" }, "geometry": { "type": "Point", "coordinates": [ 101.9378, 2.7333, 101.9378 ] } }
]
}
