{
"type": "FeatureCollection",
"name": "Category_7",
"crs": { "type": "name", "properties": { "name": "urn:ogc:def:crs:OGC:1.3:CRS84" } },
"features": [
{ "type": "Feature", "properties": { "Name_CH": "波德申德教会紫德阁  ", "Name_ML": "Persatuan Pendidikan Akhlak Che Teck Khor", "Name_EN": "Che teck Khor Moral Uplifting Society ", "Location": "176, Jalan Tuan Sheikh, 71000 Port Dickson, Negeri Sembilan.", "Longitude": 101.8364383, "Latitude": 2.4986024, "Region": "Negeri Sembilan", "Category": "宗教", "PageNumber": "237" }, "geometry": { "type": "Point", "coordinates": [ 101.8364, 2.4986, 101.8364 ] } },
{ "type": "Feature", "properties": { "Name_CH": "波德申发祖公 ", "Name_ML": "Persatuan Penganut Dewa Fatt Chu Kong Port Dickson Negeri Sembilan", "Name_EN": null, "Location": "Kg Arab, Jalan PD By Pass, 71000 Port Dickson, Negeri Sembilan.", "Longitude": 101.7890715, "Latitude": 2.5349929, "Region": "Negeri Sembilan", "Category": "宗教", "PageNumber": "237" }, "geometry": { "type": "Point", "coordinates": [ 101.7891, 2.535, 101.7891 ] } },
{ "type": "Feature", "properties": { "Name_CH": "安斗竹林园庙 ", "Name_ML": "Rumah Berhala Chok Lam Yam Rantau Negeri Sembilan ", "Name_EN": null, "Location": "19，1\/4 km, Jalan Kg Pening, 71200 Rantau, Negeri Sembilan.", "Longitude": 101.8906, "Latitude": 2.6172271, "Region": "Negeri Sembilan", "Category": "宗教", "PageNumber": "237" }, "geometry": { "type": "Point", "coordinates": [ 101.8906, 2.6172, 101.8906 ] } },
{ "type": "Feature", "properties": { "Name_CH": "安斗锦发神庙  ", "Name_ML": "Persatuan Penganut Dewa Kam Fatt Rantau Negeri Sembilan", "Name_EN": null, "Location": "Lot 10475, Bt 5 3 \/4, Jalan Kuala Sawah, 70300 Mukim Rantau, Negeri Sembilan.", "Longitude": 101.9652161, "Latitude": 2.6331494, "Region": "Negeri Sembilan", "Category": "宗教", "PageNumber": "237" }, "geometry": { "type": "Point", "coordinates": [ 101.9652, 2.6331, 101.9652 ] } },
{ "type": "Feature", "properties": { "Name_CH": "白平四面佛(先师坛)庙  ", "Name_ML": "Persatuan Penganut Rumah Berhala Bai Peng Si Mian Fu(Xian Shi Tam) Bukit Pelandok Negeri Sembilan.", "Name_EN": null, "Location": "10, Jalan Haiwan, 71960 Bukit Pelandok, Negeri Sembilan.", "Longitude": 101.7526997, "Latitude": 2.654705, "Region": "Negeri Sembilan", "Category": "宗教", "PageNumber": "237" }, "geometry": { "type": "Point", "coordinates": [ 101.7527, 2.6547, 101.7527 ] } },
{ "type": "Feature", "properties": { "Name_CH": "安斗闽南公所 ", "Name_ML": "Persatuan Man Nam Kong Soh Rantau Negeri Sembilan", "Name_EN": null, "Location": "111.Main Road,Rantau, Negeri Sembilan.", "Longitude": 101.9526186, "Latitude": 2.7078702, "Region": "Negeri Sembilan", "Category": "宗教", "PageNumber": "237" }, "geometry": { "type": "Point", "coordinates": [ 101.9526, 2.7079, 101.9526 ] } },
{ "type": "Feature", "properties": { "Name_CH": "庇唠三圣宫委员会 ", "Name_ML": "Pertubuhan Penganut Tokong Sam Seng Keong Kuala Pilah Negeri Sembilan ", "Name_EN": null, "Location": "376, Jalan Lister Kuala Pilah,72000,Negeri Sembilan.", "Longitude": 102.2457088, "Latitude": 2.7444637, "Region": "Negeri Sembilan", "Category": "宗教", "PageNumber": "237" }, "geometry": { "type": "Point", "coordinates": [ 102.2457, 2.7445, 102.2457 ] } },
{ "type": "Feature", "properties": { "Name_CH": "船头红香娘神庙 ", "Name_ML": "Pertubuhan Penganut Penganut Rumah Berhala Ang Heo Neo Pengkalan Kempas Linggi Negeri Sembilan", "Name_EN": null, "Location": "21,Pekan Pengkalan Kempas,71150 Linggi Negeri Sembilan", "Longitude": 101.9981474, "Latitude": 2.4428779, "Region": "Negeri Sembilan", "Category": "宗教", "PageNumber": "238" }, "geometry": { "type": "Point", "coordinates": [ 101.9981, 2.4429, 101.9981 ] } },
{ "type": "Feature", "properties": { "Name_CH": "船头拿督公庙", "Name_ML": "Persatuan Pengikut Na Tok Kong Pengkalan Kempas Linggi Negeri Sembilan", "Name_EN": null, "Location": "5, Jalan Besar Pengkalan Kempas, 71150 Linggi Negeri Sembilan.", "Longitude": 101.9411418, "Latitude": 2.484522, "Region": "Negeri Sembilan", "Category": "宗教", "PageNumber": "238" }, "geometry": { "type": "Point", "coordinates": [ 101.9411, 2.4845, 101.9411 ] } },
{ "type": "Feature", "properties": { "Name_CH": "波德申德教会紫德阁 ", "Name_ML": "Persatuan Pendidekan Akhlak Che Tek Khor Port Dickson ", "Name_EN": null, "Location": "176,Jalan Tuan Sheikh, 71000 Port Dickson,Negeri Sembilan.", "Longitude": 101.8364383, "Latitude": 2.4986024, "Region": "Negeri Sembilan", "Category": "宗教", "PageNumber": "238" }, "geometry": { "type": "Point", "coordinates": [ 101.8364, 2.4986, 101.8364 ] } },
{ "type": "Feature", "properties": { "Name_CH": "波德申伊曼纽浸信教会 ", "Name_ML": "Pertubuhan Pengikut Emmanuel Baptist Port Dickson Negeri Sembilan", "Name_EN": null, "Location": "914(2nd Floor), Jalan Lama, 71000 Port Dickson, Negeri Sembilan.", "Longitude": 101.7958295, "Latitude": 2.5259322, "Region": "Negeri Sembilan", "Category": "宗教", "PageNumber": "238" }, "geometry": { "type": "Point", "coordinates": [ 101.7958, 2.5259, 101.7958 ] } },
{ "type": "Feature", "properties": { "Name_CH": "波德申甘榜阿纳七姐庙 ", "Name_ML": "Pertubuhan Pengurusan Tokong Tujuh Puteri Kg. Arab Port Dickson Negeri Sembilan ", "Name_EN": null, "Location": "PT No 6421,Kg. Arab, 71000 Port Dickson, Negeri Sembilan.", "Longitude": 101.8006266, "Latitude": 2.5315031, "Region": "Negeri Sembilan", "Category": "宗教", "PageNumber": "238" }, "geometry": { "type": "Point", "coordinates": [ 101.8006, 2.5315, 101.8006 ] } },
{ "type": "Feature", "properties": { "Name_CH": "波德申真光道堂", "Name_ML": "Persatuan Penganut Buddha Chin Kong Toh Tong Port Dickson Negeri Sembilan", "Name_EN": null, "Location": "Lot 1318, Jalan Kg Arnab, 71000 Port Dickson, Negeri Sembilan.", "Longitude": 101.7846827, "Latitude": 2.5318548, "Region": "Negeri Sembilan", "Category": "宗教", "PageNumber": "238" }, "geometry": { "type": "Point", "coordinates": [ 101.7847, 2.5319, 101.7847 ] } },
{ "type": "Feature", "properties": { "Name_CH": "波德申将军圣宫", "Name_ML": "Pertubuhan Pengikut Tokong Chong Koong Sing Kung Port Dickson Negeri Sembilan", "Name_EN": null, "Location": "Lot 301,281-C, Kg. Ayer Meleleh, 71000 Port Dickson, Negeri Sembilan.", "Longitude": 101.7962372, "Latitude": 2.5342882, "Region": "Negeri Sembilan", "Category": "宗教", "PageNumber": "238" }, "geometry": { "type": "Point", "coordinates": [ 101.7962, 2.5343, 101.7962 ] } },
{ "type": "Feature", "properties": { "Name_CH": "波德申关帝庙 ", "Name_ML": "Pertubuhan Pengikut Dewa Kuan Dai Kampung Gopal Rajoo Port Dickson Negeri Sembilan", "Name_EN": null, "Location": "Lot 3,Kg. Gopal Rajoo, 71000 Port Dickson, Negeri Sembilan.", "Longitude": 101.8026861, "Latitude": 2.5532129, "Region": "Negeri Sembilan", "Category": "宗教", "PageNumber": "238" }, "geometry": { "type": "Point", "coordinates": [ 101.8027, 2.5532, 101.8027 ] } },
{ "type": "Feature", "properties": { "Name_CH": "波德申西天笑佛爷庙 ", "Name_ML": "Pertubuhan Penganut Dewa Sai Thin Siew Fatt Yea Kg. Gopal Rajoo Port Dickson Negeri Sembilan", "Name_EN": null, "Location": "568, Kg. Gopal Rajoo, 71000 Port Dickson, Negeri Sembilan.", "Longitude": 101.6711227, "Latitude": 2.5647128, "Region": "Negeri Sembilan", "Category": "宗教", "PageNumber": "238" }, "geometry": { "type": "Point", "coordinates": [ 101.6711, 2.5647, 101.6711 ] } },
{ "type": "Feature", "properties": { "Name_CH": "丹那美拉A新村佛教会", "Name_ML": "Pertubuhan Penganut Penganut Tokong Kampung Baru Tanah Merah Site A Negeri Sembilan", "Name_EN": null, "Location": "68, Kampung Baru, Tanah Merah Site A, Negeri Sembilan", "Longitude": 101.7447103, "Latitude": 2.6469072, "Region": "Negeri Sembilan", "Category": "宗教", "PageNumber": "238" }, "geometry": { "type": "Point", "coordinates": [ 101.7447, 2.6469, 101.7447 ] } },
{ "type": "Feature", "properties": { "Name_CH": "丹那美拉C村观音信善会", "Name_ML": "Pertubuhan Penganut Dewi Kuan Yin Taman Jimah Jaya Tanah Merah Site C Seremban Negeri Sembilan.", "Name_EN": null, "Location": "Lot 1478Jaman Jimah Jaya, Tanah Merah Site C, 71960 Seremban.Negeri Sembilan.", "Longitude": 101.7447103, "Latitude": 2.6469072, "Region": "Negeri Sembilan", "Category": "宗教", "PageNumber": "238" }, "geometry": { "type": "Point", "coordinates": [ 101.7447, 2.6469, 101.7447 ] } },
{ "type": "Feature", "properties": { "Name_CH": "丹那美拉C新村南海观音 ", "Name_ML": "Pertubuhan Penganut Dewi Nam Hai Kuan Eng Kg Seri Desa Site C Tanah Merah Negeri Sembilan", "Name_EN": null, "Location": "46,Kg Seri Desa Site C, Taman Merah, 71960, Negeri Sembilan.", "Longitude": 101.7447102, "Latitude": 2.6472482, "Region": "Negeri Sembilan", "Category": "宗教", "PageNumber": "238" }, "geometry": { "type": "Point", "coordinates": [ 101.7447, 2.6472, 101.7447 ] } },
{ "type": "Feature", "properties": { "Name_CH": "淡边新村土地公庙 ", "Name_ML": "Pertubuhan Pengurusan Rumah Berhala Too Tee Kong Kg. Baru Tampin Negeri Sembilan", "Name_EN": null, "Location": "71,Kg Baru,73000 Tampin, Negeri Sembilan.", "Longitude": 102.2130745, "Latitude": 2.4704964, "Region": "Negeri Sembilan", "Category": "宗教", "PageNumber": "239" }, "geometry": { "type": "Point", "coordinates": [ 102.2131, 2.4705, 102.2131 ] } },
{ "type": "Feature", "properties": { "Name_CH": "淡边新村毛山庙 ", "Name_ML": "Pertubuhan Penganut Penganut Tokong Mau San Tampin Negeri Sembilan", "Name_EN": null, "Location": "260,Kg. Baru,73000 Tampin, Negeri Sembilan.", "Longitude": 102.2130745, "Latitude": 2.4706674, "Region": "Negeri Sembilan", "Category": "宗教", "PageNumber": "239" }, "geometry": { "type": "Point", "coordinates": [ 102.2131, 2.4707, 102.2131 ] } },
{ "type": "Feature", "properties": { "Name_CH": "淡边德教会紫祥阁  ", "Name_ML": "Persatuan Pendidikan Akhlak Che Sian Khor Tampin", "Name_EN": null, "Location": "3904, Taman lndah, 73000 Tampin, Negeri Sembilan", "Longitude": 102.2381595, "Latitude": 2.4803018, "Region": "Negeri Sembilan", "Category": "宗教", "PageNumber": "239" }, "geometry": { "type": "Point", "coordinates": [ 102.2382, 2.4803, 102.2382 ] } },
{ "type": "Feature", "properties": { "Name_CH": "淡边玉龙宫 ", "Name_ML": "Pertubuhan Penganut Tokong Yok Leng Kong Tampin Negeri Sembilan ", "Name_EN": null, "Location": "3434,Taman Indah, 73000 Tampin, Negeri Sembilan", "Longitude": 102.2381595, "Latitude": 2.4803018, "Region": "Negeri Sembilan", "Category": "宗教", "PageNumber": "239" }, "geometry": { "type": "Point", "coordinates": [ 102.2382, 2.4803, 102.2382 ] } },
{ "type": "Feature", "properties": { "Name_CH": "淡边北帝庙", "Name_ML": "Persatuan Penganut Penganut Rumah Berhala Pektee Mel Tong Tampoi Negeri Sembilan", "Name_EN": null, "Location": "211B,Kg.Baru,73000 Tampin, Negeri Sembilan.", "Longitude": 102.2381595, "Latitude": 2.4803125, "Region": "Negeri Sembilan", "Category": "宗教", "PageNumber": "239" }, "geometry": { "type": "Point", "coordinates": [ 102.2382, 2.4803, 102.2382 ] } },
{ "type": "Feature", "properties": { "Name_CH": "淡边邓刚根文园庙 ", "Name_ML": "Persatuan Penganut Penganut Tokong Teng Kang Keng Woon Estate Tampin Negeri Sembilan", "Name_EN": null, "Location": "Batu 1l\/4 ,Jalan Seremban, 73000 Tampin, Negeri Sembilan.", "Longitude": 102.1189259, "Latitude": 2.5737828, "Region": "Negeri Sembilan", "Category": "宗教", "PageNumber": "239" }, "geometry": { "type": "Point", "coordinates": [ 102.1189, 2.5738, 102.1189 ] } },
{ "type": "Feature", "properties": { "Name_CH": "淡边天福堂  ", "Name_ML": "Pertubuhan Penganut Tokong Ten Fok Tang Tampin Negeri Sembilan", "Name_EN": null, "Location": "AG5992, Batu 11\/2, Jalan Seremban, 73000 Tampin, Negeri Sembilan.", "Longitude": 102.1184124, "Latitude": 2.5758093, "Region": "Negeri Sembilan", "Category": "宗教", "PageNumber": "239" }, "geometry": { "type": "Point", "coordinates": [ 102.1184, 2.5758, 102.1184 ] } },
{ "type": "Feature", "properties": { "Name_CH": "芙蓉阿密陀巴佛教会  ", "Name_ML": "Persatuan Penganut Agama Buddha Amitabha Seremban Negeri Sembilan", "Name_EN": null, "Location": "26-1,Jalan S2 B1,Lake View Square, 27020 Seremban, Negeri Sembilan.", "Longitude": 101.9132275, "Latitude": 2.693724, "Region": "Negeri Sembilan", "Category": "宗教", "PageNumber": "239" }, "geometry": { "type": "Point", "coordinates": [ 101.9132, 2.6937, 101.9132 ] } },
{ "type": "Feature", "properties": { "Name_CH": "芙蓉巴剌拿佛教会 ", "Name_ML": "Persatuan Agama Buddha Prajna Seremban Negeri Sembilan", "Name_EN": null, "Location": "780, Jalan Teratai 5, Taman Marida,70450 Seremban, Negeri Sembilan.", "Longitude": 101.9812983, "Latitude": 2.6999207, "Region": "Negeri Sembilan", "Category": "宗教", "PageNumber": "239" }, "geometry": { "type": "Point", "coordinates": [ 101.9813, 2.6999, 101.9813 ] } },
{ "type": "Feature", "properties": { "Name_CH": "芙蓉德教会紫森阁", "Name_ML": "Persatuan Negeri Sembilan Che Sim Khor Moral Uplifting I Society (Pers. Ugama Pembangunan Akhlak Chee Sim Kho)", "Name_EN": null, "Location": "73-74 Jalan Tuanku Munawir, 70000 Seremban,Negeri Sembilan.", "Longitude": 101.9342283, "Latitude": 2.7278732, "Region": "Negeri Sembilan", "Category": "宗教", "PageNumber": "239" }, "geometry": { "type": "Point", "coordinates": [ 101.9342, 2.7279, 101.9342 ] } },
{ "type": "Feature", "properties": { "Name_CH": "芙蓉福建普渡联谊会", "Name_ML": "Pertubuhan Po Toh Kaum Hokkien Seremban, Negeri Sembilan", "Name_EN": null, "Location": "323, Jalan Limbok, Seremban, Negeri Sembilan. ", "Longitude": 101.9370522, "Latitude": 2.7333494, "Region": "Negeri Sembilan", "Category": "宗教", "PageNumber": "239" }, "geometry": { "type": "Point", "coordinates": [ 101.9371, 2.7333, 101.9371 ] } },
{ "type": "Feature", "properties": { "Name_CH": "芙蓉慈仁会", "Name_ML": "Seremban Chee Yin Fui ", "Name_EN": null, "Location": "149-A, Jalan Han Hui Foong, 70200 Seremban, Negeri Sembilan.", "Longitude": 101.9327392, "Latitude": 2.7390732, "Region": "Negeri Sembilan", "Category": "宗教", "PageNumber": "239" }, "geometry": { "type": "Point", "coordinates": [ 101.9327, 2.7391, 101.9327 ] } },
{ "type": "Feature", "properties": { "Name_CH": "芙蓉孔教会 ", "Name_ML": "Persatuan Bimbingan Ajaran Confucian Seremban Negeri Sembilan.", "Name_EN": null, "Location": "2831,Jalan SJ 3\/6-Ataman Seremban Jaya, 70450 Seremban,Negeri Sembilan", "Longitude": 101.9692124, "Latitude": 2.6814671, "Region": "Negeri Sembilan", "Category": "宗教", "PageNumber": "240" }, "geometry": { "type": "Point", "coordinates": [ 101.9692, 2.6815, 101.9692 ] } },
{ "type": "Feature", "properties": { "Name_CH": "芙蓉净空祠舍庙 ", "Name_ML": "Persatuan Penganut Penganut Rumah Berhala Chin Kong Chi Si Seremban Negeri Sembilan", "Name_EN": null, "Location": "94, Bukit Tembok, Seremban, Negeri Sembilan.", "Longitude": 101.9538914, "Latitude": 2.6815152, "Region": "Negeri Sembilan", "Category": "宗教", "PageNumber": "240" }, "geometry": { "type": "Point", "coordinates": [ 101.9539, 2.6815, 101.9539 ] } },
{ "type": "Feature", "properties": { "Name_CH": "芙蓉龙城佛教会", "Name_ML": "Persatuan Buddha Taman Seremban Jaya Seremban Negeri Sembilan", "Name_EN": null, "Location": "2836, Jalan SJ3\/6, Taman Seremban Jaya, 70450 Seremban, Negeri Sembilan.", "Longitude": 101.9563445, "Latitude": 2.6853507, "Region": "Negeri Sembilan", "Category": "宗教", "PageNumber": "240" }, "geometry": { "type": "Point", "coordinates": [ 101.9563, 2.6854, 101.9563 ] } },
{ "type": "Feature", "properties": { "Name_CH": "芙蓉将军坛 ", "Name_ML": "Tokong Chong Kuan Tan Seremban Negeri Sembilan", "Name_EN": null, "Location": "73,Kg. Baru Rahang Seremban, Negeri Sembilan.", "Longitude": 101.963334, "Latitude": 2.6961846, "Region": "Negeri Sembilan", "Category": "宗教", "PageNumber": "240" }, "geometry": { "type": "Point", "coordinates": [ 101.9633, 2.6962, 101.9633 ] } },
{ "type": "Feature", "properties": { "Name_CH": "芙蓉黄老仙师会  ", "Name_ML": "Persatuan Penganut Dewa Wong Loo Sen See(Chee Soon Thoon) Seremban Negeri Sembilan", "Name_EN": null, "Location": "297Jalan Tok Ungku,Rahang,70100 Seremban, Negeri Sembilan.", "Longitude": 101.9479486, "Latitude": 2.699413, "Region": "Negeri Sembilan", "Category": "宗教", "PageNumber": "240" }, "geometry": { "type": "Point", "coordinates": [ 101.9479, 2.6994, 101.9479 ] } },
{ "type": "Feature", "properties": { "Name_CH": "芙蓉建基园九天娘娘信众会 ", "Name_ML": "Pertubuhan Penganut Dewi Kau Tin Yuin Nui Leong Leong Seremban Negeri Sembilan", "Name_EN": null, "Location": "2953 Jaman Kian Kee,70450,Seremban, Negeri Sembilan.", "Longitude": 101.9652275, "Latitude": 2.7025299, "Region": "Negeri Sembilan", "Category": "宗教", "PageNumber": "240" }, "geometry": { "type": "Point", "coordinates": [ 101.9652, 2.7025, 101.9652 ] } },
{ "type": "Feature", "properties": { "Name_CH": "芙蓉六壬仙师庙  ", "Name_ML": "Persatuan Penganut Tokong Cina Lok Yam Sin See Seremban Negeri Sembilan", "Name_EN": null, "Location": "179, Rahang Kecil, 70100 Seremban, Negeri Sembilan.", "Longitude": 101.9516911, "Latitude": 2.708972, "Region": "Negeri Sembilan", "Category": "宗教", "PageNumber": "240" }, "geometry": { "type": "Point", "coordinates": [ 101.9517, 2.709, 101.9517 ] } },
{ "type": "Feature", "properties": { "Name_CH": "芙蓉孔孟圣道院", "Name_ML": "Persatuan Permujaan Tuhan Kung Mung Sern Tao Yen", "Name_EN": null, "Location": "312,Jalan Bukit Rasah.Seremban, Negeri Sembilan", "Longitude": 101.9455236, "Latitude": 2.7096556, "Region": "Negeri Sembilan", "Category": "宗教", "PageNumber": "240" }, "geometry": { "type": "Point", "coordinates": [ 101.9455, 2.7097, 101.9455 ] } },
{ "type": "Feature", "properties": { "Name_CH": "芙蓉华人基督教友会", "Name_ML": "Pertubuhan Persaudaraan Kristian Cina Seremban ", "Name_EN": null, "Location": "23G, Jalan Zaaba, 70100, Seremban, Negeri Sembilan.", "Longitude": 101.9479989, "Latitude": 2.714603, "Region": "Negeri Sembilan", "Category": "宗教", "PageNumber": "240" }, "geometry": { "type": "Point", "coordinates": [ 101.948, 2.7146, 101.948 ] } },
{ "type": "Feature", "properties": { "Name_CH": "芙蓉孔孟圣道院  ", "Name_ML": "Persatuan Kung Men Shen Tao Seremban Negeri Sembilan", "Name_EN": null, "Location": "376,Tkt.2, Jalan Tuanku Antah, 70100 Seremban, Negeri Sembilan", "Longitude": 101.9713804, "Latitude": 2.7153093, "Region": "Negeri Sembilan", "Category": "宗教", "PageNumber": "240" }, "geometry": { "type": "Point", "coordinates": [ 101.9714, 2.7153, 101.9714 ] } },
{ "type": "Feature", "properties": { "Name_CH": "芙蓉妙真如精舍 ", "Name_ML": "Perdatuan Buddha Meow Chen Ru Chin Ser Seremban Negeri Sembilan", "Name_EN": null, "Location": "137G-180 & 180A, Kg. Seri Sikamat 70400 Seremban, Negeri Sembilan", "Longitude": 101.9629459, "Latitude": 2.7316044, "Region": "Negeri Sembilan", "Category": "宗教", "PageNumber": "240" }, "geometry": { "type": "Point", "coordinates": [ 101.9629, 2.7316, 101.9629 ] } },
{ "type": "Feature", "properties": { "Name_CH": "芙蓉林苑神庙", "Name_ML": "Pertubuhan Penganut Dewan Lin Wan Seremban Negeri Sembilan", "Name_EN": null, "Location": "182B, Jalan Seng Meng Lee, 70200 Seremban, Negeri Sembilan.", "Longitude": 101.9377264, "Latitude": 2.7347316, "Region": "Negeri Sembilan", "Category": "宗教", "PageNumber": "240" }, "geometry": { "type": "Point", "coordinates": [ 101.9377, 2.7347, 101.9377 ] } },
{ "type": "Feature", "properties": { "Name_CH": "芙蓉三口洞神庙  ", "Name_ML": "Pertubuhan Penganut Dewa San Kow Tong Seremban", "Name_EN": null, "Location": "Lot 9819,No 243,Tmn Dusun Setia,JIn Dato' Muda Linggi 70100 Seremban, Negeri Sembilan", "Longitude": 101.841234, "Latitude": 2.491899, "Region": "Negeri Sembilan", "Category": "宗教", "PageNumber": "241" }, "geometry": { "type": "Point", "coordinates": [ 101.8412, 2.4919, 101.8412 ] } },
{ "type": "Feature", "properties": { "Name_CH": "芙蓉亚沙花园竹枝林观音庙 ", "Name_ML": "Pertubuhan Penganut Dewi Chok Chee Lum Kuan Yin Taman Rasah Seremban Negeri Sembilan ", "Name_EN": null, "Location": "2161, Batu 3 1\/2, Taman Rasah, 70300 Seremban, Negeri Sembilan.", "Longitude": 101.941583, "Latitude": 2.681795, "Region": "Negeri Sembilan", "Category": "宗教", "PageNumber": "241" }, "geometry": { "type": "Point", "coordinates": [ 101.9416, 2.6818, 101.9416 ] } },
{ "type": "Feature", "properties": { "Name_CH": "芙蓉菩提练寺  ", "Name_ML": "Pertubuhan Pu Ti Lian She Seremban Negeri Sembilan", "Name_EN": null, "Location": "288, Jalan Tun Dr.lsmail,70200 Seremban, Negeri Sembilan", "Longitude": 101.95169, "Latitude": 2.707079, "Region": "Negeri Sembilan", "Category": "宗教", "PageNumber": "241" }, "geometry": { "type": "Point", "coordinates": [ 101.9517, 2.7071, 101.9517 ] } },
{ "type": "Feature", "properties": { "Name_CH": "芙蓉清业精舍佛教会 ", "Name_ML": "Persatuan Penganut Agama Buddha Chin Yap Chin Ser Seremban Negeri Sembilan", "Name_EN": null, "Location": "583H, Jalan Ulu Temiang, 70200 Seremban, Negeri Sembilan.", "Longitude": 101.95169, "Latitude": 2.707079, "Region": "Negeri Sembilan", "Category": "宗教", "PageNumber": "241" }, "geometry": { "type": "Point", "coordinates": [ 101.9517, 2.7071, 101.9517 ] } },
{ "type": "Feature", "properties": { "Name_CH": "芙蓉神龙宫 ", "Name_ML": "Persatuan Penganut Dewa San Loong Seremban Negeri Sembilan", "Name_EN": null, "Location": "181, Jalan Han Hee Foongz 70200 Seremban, Negeri Sembilan.", "Longitude": 101.95169, "Latitude": 2.707079, "Region": "Negeri Sembilan", "Category": "宗教", "PageNumber": "241" }, "geometry": { "type": "Point", "coordinates": [ 101.9517, 2.7071, 101.9517 ] } },
{ "type": "Feature", "properties": { "Name_CH": "芙蓉太上老君会", "Name_ML": "Perbubuhan Penganut Dewa Tai Seong Lau Koon Taman Bidara Seremban Negeri Sembilan", "Name_EN": null, "Location": "43, Jalan Bidara 5, Taman Bidara, 70100 Seremban, Negeri Sembilan.", "Longitude": 101.95169, "Latitude": 2.707079, "Region": "Negeri Sembilan", "Category": "宗教", "PageNumber": "241" }, "geometry": { "type": "Point", "coordinates": [ 101.9517, 2.7071, 101.9517 ] } },
{ "type": "Feature", "properties": { "Name_CH": "芙蓉添惠爱心教会", "Name_ML": "Pertubuhan Pengikut Pengajaran Tian Hui Ai Xin Seremban Negeri Sembilan", "Name_EN": null, "Location": "250, Jalan Quek Kai Dong, 70200 Seremban, Negeri Sembilan.", "Longitude": 101.95169, "Latitude": 2.707079, "Region": "Negeri Sembilan", "Category": "宗教", "PageNumber": "241" }, "geometry": { "type": "Point", "coordinates": [ 101.9517, 2.7071, 101.9517 ] } },
{ "type": "Feature", "properties": { "Name_CH": "芙蓉真耶苏教会  ", "Name_ML": "Gereja Jesus Benar Seremban Negeri Sembilan", "Name_EN": "Negeri Sembilan True Jesus Church Seremban", "Location": "305, Taman Chip Aik, Jin Tun Dr Ismail ,70200 Seremban, Negeri Sembilan", "Longitude": 101.95169, "Latitude": 2.707079, "Region": "Negeri Sembilan", "Category": "宗教", "PageNumber": "241" }, "geometry": { "type": "Point", "coordinates": [ 101.9517, 2.7071, 101.9517 ] } },
{ "type": "Feature", "properties": { "Name_CH": "芙蓉如来佛信众会 ", "Name_ML": "Pertubuhan Penganut Dewa Ru Lai Fo Seremban Negeri Sembilan", "Name_EN": null, "Location": "32Jalan Dato, Lee Fong Yee, 70000 Seremban, Negeri Sembilan.", "Longitude": 101.938697, "Latitude": 2.724503, "Region": "Negeri Sembilan", "Category": "宗教", "PageNumber": "241" }, "geometry": { "type": "Point", "coordinates": [ 101.9387, 2.7245, 101.9387 ] } },
{ "type": "Feature", "properties": { "Name_CH": "芙蓉真光道堂 ", "Name_ML": "Persatuan Penganut Chen Kong Toh Tong Seremban Negeri Sembilan", "Name_EN": null, "Location": "151, Jalan Temiang, 70200 Seremban, Negeri Sembilan.", "Longitude": 101.938511, "Latitude": 2.739264, "Region": "Negeri Sembilan", "Category": "宗教", "PageNumber": "241" }, "geometry": { "type": "Point", "coordinates": [ 101.9385, 2.7393, 101.9385 ] } },
{ "type": "Feature", "properties": { "Name_CH": "芙蓉仙人叔婆太神庙", "Name_ML": "Persatuan Tokong Xian Ren Shu Po Tai Seramban Negeri Sembilan", "Name_EN": null, "Location": "Batu 21\/2, Jalan Kuala Pilah Paroi, Seremban, Negeri Sembilan.", "Longitude": 102.309751, "Latitude": 2.791267, "Region": "Negeri Sembilan", "Category": "宗教", "PageNumber": "241" }, "geometry": { "type": "Point", "coordinates": [ 102.3098, 2.7913, 102.3098 ] } },
{ "type": "Feature", "properties": { "Name_CH": "芙蓉文华佛教会 ", "Name_ML": "Persatuan Penganut Agama Buddha Wen Hua Seremban Negeri Sembilan", "Name_EN": null, "Location": "144C, Jalan Toman 7, Kemayan Square, Jalan Sg. Ujong, 70200 Seremban,Negeri Sembilan.", "Longitude": 102.370559, "Latitude": 3.13582, "Region": "Negeri Sembilan", "Category": "宗教", "PageNumber": "241" }, "geometry": { "type": "Point", "coordinates": [ 102.3706, 3.1358, 102.3706 ] } },
{ "type": "Feature", "properties": { "Name_CH": "老港天后宫", "Name_ML": "Pertubuhan Tin Hor Kong Pasir Panjang Negeri Sembilan ", "Name_EN": null, "Location": "23, Jalan Pantal, 71250 Pasir Panjang, Negeri Sembilan.", "Longitude": 101.858333, "Latitude": 2.43066, "Region": "Negeri Sembilan", "Category": "宗教", "PageNumber": "242" }, "geometry": { "type": "Point", "coordinates": [ 101.8583, 2.4307, 101.8583 ] } },
{ "type": "Feature", "properties": { "Name_CH": "瓜拉芦骨关帝庙", "Name_ML": "Pertubuhan Penganut Dewa Kuang Tee Kuala Lukut Pork Dickson", "Name_EN": null, "Location": "Lot 33, Batu 3, Jalan Seremban, Kuala Lukut, 71000 Port Dickson, Negeri Sembilan.", "Longitude": 101.812966, "Latitude": 2.561527, "Region": "Negeri Sembilan", "Category": "宗教", "PageNumber": "242" }, "geometry": { "type": "Point", "coordinates": [ 101.813, 2.5615, 101.813 ] } },
{ "type": "Feature", "properties": { "Name_CH": "高岛太清宫庙 ", "Name_ML": "Pertubuhan Penganut Tokong Tai Chin Kung Kg. Legong Jaya Kota Negeri Sembilan ", "Name_EN": null, "Location": "14A, Kg. Legong Jaya ,71350 Kota, Negeri Sembilan.", "Longitude": 102.1652, "Latitude": 2.51143, "Region": "Negeri Sembilan", "Category": "宗教", "PageNumber": "242" }, "geometry": { "type": "Point", "coordinates": [ 102.1652, 2.5114, 102.1652 ] } },
{ "type": "Feature", "properties": { "Name_CH": "冷宜新村佛教会 ", "Name_ML": "Persatuan Penganut Agama Buddha Kg.Baru Dangi ", "Name_EN": null, "Location": "18, Jalan Besar, Pekan Dangi, 73100 Johol Negeri Sembilan.", "Longitude": 102.250027, "Latitude": 2.558965, "Region": "Negeri Sembilan", "Category": "宗教", "PageNumber": "242" }, "geometry": { "type": "Point", "coordinates": [ 102.25, 2.559, 102.25 ] } },
{ "type": "Feature", "properties": { "Name_CH": "金马士陈保田神庙理事会  ", "Name_ML": null, "Name_EN": "Commitee Of Management Of Chin Poh Tian Temple Gemas Tampin Negeri Sembilan", "Location": "22, Jalan Batu Anam Gemas, Tampin, Negeri Sembilan.", "Longitude": 102.611714, "Latitude": 2.580265, "Region": "Negeri Sembilan", "Category": "宗教", "PageNumber": "242" }, "geometry": { "type": "Point", "coordinates": [ 102.6117, 2.5803, 102.6117 ] } },
{ "type": "Feature", "properties": { "Name_CH": "瓜拉沙花观音庙 ", "Name_ML": "Pertubuhan Pengikut Rumah Berhala Kuang Eng Meo Kuala Sawah Rantau Negeri Sembilan ", "Name_EN": null, "Location": "39, Jalan Besar, Kuala Sawah, 71250 Rantau, Seremban, Negeri Sembilan.", "Longitude": 101.961812, "Latitude": 2.586419, "Region": "Negeri Sembilan", "Category": "宗教", "PageNumber": "242" }, "geometry": { "type": "Point", "coordinates": [ 101.9618, 2.5864, 101.9618 ] } },
{ "type": "Feature", "properties": { "Name_CH": "利民济东兴宫 ", "Name_ML": "Persatuan Penganut Rumah Berhala Tiong Sing Kong Felda Bukit Rokan Pos Gemencheh Negeri Sembilan", "Name_EN": null, "Location": "33, Kg. Bahru Gemencheh, Batang Melako, Tampin, Negeri Sembilan.", "Longitude": 101.874202, "Latitude": 2.672714, "Region": "Negeri Sembilan", "Category": "宗教", "PageNumber": "242" }, "geometry": { "type": "Point", "coordinates": [ 101.8742, 2.6727, 101.8742 ] } },
{ "type": "Feature", "properties": { "Name_CH": "瓜垃庇唠西天宫", "Name_ML": "Pertubuhan Penganut Dewa Si Thian Kong ", "Name_EN": null, "Location": "603, Jalan Sawah Lebar, 72000 Kuala Pilah, Negeri Sembilan.", "Longitude": 102.253937, "Latitude": 2.748933, "Region": "Negeri Sembilan", "Category": "宗教", "PageNumber": "242" }, "geometry": { "type": "Point", "coordinates": [ 102.2539, 2.7489, 102.2539 ] } },
{ "type": "Feature", "properties": { "Name_CH": "葫芦顶佛教会 ", "Name_ML": "Persatuan Penganut Agama Buddha Pertang Negeri Sembilan", "Name_EN": null, "Location": "13, Jalan Besar Bercang, 72300 Kuala Pilah, Negeri Sembilan.", "Longitude": 102.219709, "Latitude": 2.9606, "Region": "Negeri Sembilan", "Category": "宗教", "PageNumber": "242" }, "geometry": { "type": "Point", "coordinates": [ 102.2197, 2.9606, 102.2197 ] } },
{ "type": "Feature", "properties": { "Name_CH": "拉务再也佛教会", "Name_ML": "Penganut Agama Buddha Kg. Labu Jaya Seremban Negeri Sembilan ", "Name_EN": null, "Location": "C-18, Peringkat Satu Felda, Kg. Labu Jaya, 71760 Seremban, Negeri Sembilan.", "Longitude": 101.783459, "Latitude": 2.751479, "Region": "Negeri Sembilan", "Category": "宗教", "PageNumber": "242" }, "geometry": { "type": "Point", "coordinates": [ 101.7835, 2.7515, 101.7835 ] } },
{ "type": "Feature", "properties": { "Name_CH": "葫芦顶三帝庙 ", "Name_ML": "Persatuan Pengikut Rumah Berhala Sam Tee Pertiang Negeri Sembilan", "Name_EN": null, "Location": "Batu 1\/2, Jalan Simpang Pertang, Pertang, Negeri Sembilan.", "Longitude": 102.2171, "Latitude": 2.9597, "Region": "Negeri Sembilan", "Category": "宗教", "PageNumber": "242" }, "geometry": { "type": "Point", "coordinates": [ 102.2171, 2.9597, 102.2171 ] } },
{ "type": "Feature", "properties": { "Name_CH": "金马士宝胜大帝庙  ", "Name_ML": "Persatuan Penganut Sewa Poh Seng Tai Tay Gemas, Negeri Sembilan", "Name_EN": null, "Location": "514, Kg. Tiong, 73400 Gemas, Negeri Sembilan.", "Longitude": 101.685441, "Latitude": 3.06257, "Region": "Negeri Sembilan", "Category": "宗教", "PageNumber": "242" }, "geometry": { "type": "Point", "coordinates": [ 101.6854, 3.0626, 101.6854 ] } },
{ "type": "Feature", "properties": { "Name_CH": "马佛总森州分会 ", "Name_ML": "Persatuan Buddhist Malaysia Cawangan Negeri Sembilan Malaysia Buddhist Association Negeri Sembilan", "Name_EN": null, "Location": "588, Jalan Tan Sri Manickavasagam, 70200,Negeri Sembilan.", "Longitude": 102.562866, "Latitude": 2.443717, "Region": "Negeri Sembilan", "Category": "宗教", "PageNumber": "243" }, "geometry": { "type": "Point", "coordinates": [ 102.5629, 2.4437, 102.5629 ] } },
{ "type": "Feature", "properties": { "Name_CH": "芦骨孔教会", "Name_ML": "Pertubuhan Pengajian Ajaran Confucius Lukut Port Dickson Negeri Sembilan", "Name_EN": null, "Location": "36 Jaman Naga Batu 3 3\/4Jalan Seremban Pekan Lukut 71010 Port Dickson, Negeri Sembilan.", "Longitude": 101.840262, "Latitude": 2.578896, "Region": "Negeri Sembilan", "Category": "宗教", "PageNumber": "243" }, "geometry": { "type": "Point", "coordinates": [ 101.8403, 2.5789, 101.8403 ] } },
{ "type": "Feature", "properties": { "Name_CH": "林茂太乙公善信会", "Name_ML": "Pertubuhan Penganut Penganut Dewa Tai Ait Kong Padang Chenkau Rembau Negeri Sembilan", "Name_EN": null, "Location": "1645, Pekan Chengkdu, 71300 Rembau, Negeri Sembilan.", "Longitude": 102.108315, "Latitude": 2.549187, "Region": "Negeri Sembilan", "Category": "宗教", "PageNumber": "243" }, "geometry": { "type": "Point", "coordinates": [ 102.1083, 2.5492, 102.1083 ] } },
{ "type": "Feature", "properties": { "Name_CH": "芦骨凤山寺 ", "Name_ML": "Pertubuhan Hong Sun Sek Lukut Negeri Sembilan ", "Name_EN": null, "Location": "PT 324, Jalan Besar, 71010 Lukut,Negeri Sembilan.", "Longitude": 101.833, "Latitude": 2.5703, "Region": "Negeri Sembilan", "Category": "宗教", "PageNumber": "243" }, "geometry": { "type": "Point", "coordinates": [ 101.833, 2.5703, 101.833 ] } },
{ "type": "Feature", "properties": { "Name_CH": "芦骨斯巴力里新济森宫", "Name_ML": "Pertubuhan Pengurusan Tokong Chee Seng Kong Kg.Sri Parit Lukut Negeri Sembilan ", "Name_EN": null, "Location": "Lot 394, Kg Sri Parit 71010 Lukut Negeri Sembilan.", "Longitude": 101.833, "Latitude": 2.5703, "Region": "Negeri Sembilan", "Category": "宗教", "PageNumber": "243" }, "geometry": { "type": "Point", "coordinates": [ 101.833, 2.5703, 101.833 ] } },
{ "type": "Feature", "properties": { "Name_CH": "骨笑佛爷南海观音佛学会 ", "Name_ML": "Pertubuhan Penganut Buddha Siaw Fatt Yea Nam Hai Kuan Im Lukut Negeri Sembilan", "Name_EN": null, "Location": "Batu 3 1\/2, Jalan Seremban, 71010 Lukut Negeri Sembilan.", "Longitude": 101.833, "Latitude": 2.5703, "Region": "Negeri Sembilan", "Category": "宗教", "PageNumber": "243" }, "geometry": { "type": "Point", "coordinates": [ 101.833, 2.5703, 101.833 ] } },
{ "type": "Feature", "properties": { "Name_CH": "灵生真佛宗教会", "Name_ML": "Persatuan Penganut Agama Ling Sheng Jen Foo Chung Seremban Negeri Sembilan", "Name_EN": null, "Location": "64, Tingkat 2, Jalan Tuanku Munawir, 70000 Seremban, Negeri Sembilan.", "Longitude": 101.935372, "Latitude": 2.732151, "Region": "Negeri Sembilan", "Category": "宗教", "PageNumber": "243" }, "geometry": { "type": "Point", "coordinates": [ 101.9354, 2.7322, 101.9354 ] } },
{ "type": "Feature", "properties": { "Name_CH": "邻恩复兴教会  ", "Name_ML": null, "Name_EN": "Neighbour Grace Assembly  ", "Location": "2, Jalan Temiang, 70200 Seremban, Negeri Sembilan.", "Longitude": 101.937555, "Latitude": 2.732953, "Region": "Negeri Sembilan", "Category": "宗教", "PageNumber": "243" }, "geometry": { "type": "Point", "coordinates": [ 101.9376, 2.733, 101.9376 ] } },
{ "type": "Feature", "properties": { "Name_CH": "马口阿密陀巴佛学会", "Name_ML": "Persatuan Penganut Agama Buddha Amitabha Bahau Negeri Sembilan", "Name_EN": null, "Location": "CS-107, Bahau MDJL, 72100 Bahau, Negeri Sembilan.", "Longitude": 102.409578, "Latitude": 2.807962, "Region": "Negeri Sembilan", "Category": "宗教", "PageNumber": "243" }, "geometry": { "type": "Point", "coordinates": [ 102.4096, 2.808, 102.4096 ] } },
{ "type": "Feature", "properties": { "Name_CH": "龙城如来佛祖 ", "Name_ML": "Persatuan Penganut Dewa Ru Lai Fo Zhu Seremban Negeri Sembilan", "Name_EN": null, "Location": "Persatuan Penganut Dewa Ru Lai Fo Zhu Seremban Negeri Sembilan", "Longitude": 101.706028, "Latitude": 3.138946, "Region": "Negeri Sembilan", "Category": "宗教", "PageNumber": "243" }, "geometry": { "type": "Point", "coordinates": [ 101.706, 3.1389, 101.706 ] } },
{ "type": "Feature", "properties": { "Name_CH": "利民济盂兰盛会 ", "Name_ML": "Persatuan Penyokong Perayaan Yu Lan Gemencheh Negeri Sembilan", "Name_EN": null, "Location": "620, Taman Gemencheh Baru, 73200 Gemencheh,Negeri Sembilan.", "Longitude": 100.612483, "Latitude": 5.612853, "Region": "Negeri Sembilan", "Category": "宗教", "PageNumber": "243" }, "geometry": { "type": "Point", "coordinates": [ 100.6125, 5.6129, 100.6125 ] } },
{ "type": "Feature", "properties": { "Name_CH": "利民济新村镇天宫  ", "Name_ML": "Lembaga Pengurus Tokong Cheng Thian Kiong Kg.Bahru Gemencheh Negeri Sembilan", "Name_EN": null, "Location": null, "Longitude": null, "Latitude": null, "Region": "Negeri Sembilan", "Category": "宗教", "PageNumber": "243" }, "geometry": null },
{ "type": "Feature", "properties": { "Name_CH": "马来西亚剑价学会(森美兰分会) ", "Name_ML": "Persatuan Soka Gakkai Malaysia (Caw Negeri Sembilan)", "Name_EN": null, "Location": "Lot 9128, Jalan RJ2\/25, Taman Rasah Jaya, 70300 Seremban, Negeri Sembilan.", "Longitude": 101.95169, "Latitude": 2.707079, "Region": "Negeri Sembilan", "Category": "宗教", "PageNumber": "244" }, "geometry": { "type": "Point", "coordinates": [ 101.9517, 2.7071, 101.9517 ] } },
{ "type": "Feature", "properties": { "Name_CH": "马来西亚阿密陀巴佛教会 ", "Name_ML": "Persatuan Penganut Agama Buddha Amitabha Malaysia ", "Name_EN": null, "Location": "Lot 2236, 8 1\/2KM, Jalan Kuala Pilah, Ampangan, Seremban, Negeri Sembilan", "Longitude": 102.014134, "Latitude": 2.712571, "Region": "Negeri Sembilan", "Category": "宗教", "PageNumber": "244" }, "geometry": { "type": "Point", "coordinates": [ 102.0141, 2.7126, 102.0141 ] } },
{ "type": "Feature", "properties": { "Name_CH": "马口光武庙", "Name_ML": "Persatuan Pengikut Rumah Berhala Kwang Woo Bahau Negeri Sembilan", "Name_EN": null, "Location": "175A, Kg. China, 72100 Bahau, Negeri Sembilan.", "Longitude": 102.411826, "Latitude": 2.808852, "Region": "Negeri Sembilan", "Category": "宗教", "PageNumber": "244" }, "geometry": { "type": "Point", "coordinates": [ 102.4118, 2.8089, 102.4118 ] } },
{ "type": "Feature", "properties": { "Name_CH": "马口黄老仙师会  ", "Name_ML": "Persatuan Penganut Dewa Huang Lao Xian Shi Bahau Negeri Sembilan ", "Name_EN": null, "Location": "Kg.Batu Ratabatu 2t Jalan Tampin, 72100 Bahau, Negeri Sembilan.", "Longitude": 102.059393, "Latitude": 2.618865, "Region": "Negeri Sembilan", "Category": "宗教", "PageNumber": "244" }, "geometry": { "type": "Point", "coordinates": [ 102.0594, 2.6189, 102.0594 ] } },
{ "type": "Feature", "properties": { "Name_CH": "马口孔孟圣道院", "Name_ML": "Persatuan Penganut Buddha Kung Mern Sern Tau Yen Bahau Negeri Sembilan ", "Name_EN": null, "Location": "249, Blok D3, Tingkat Satu, Taman Bahau lndahz 72100 Bahau, Negeri Sembilan", "Longitude": 102.424635, "Latitude": 2.79511, "Region": "Negeri Sembilan", "Category": "宗教", "PageNumber": "244" }, "geometry": { "type": "Point", "coordinates": [ 102.4246, 2.7951, 102.4246 ] } },
{ "type": "Feature", "properties": { "Name_CH": "马口民众老观音堂 ", "Name_ML": "Persatuan Penganut Lao Kuan Yin Tang Awam Bahau Negeri Sembilan ", "Name_EN": null, "Location": "101, Batu Bakar, 72100 Bahau, Negeri Sembilan.", "Longitude": 102.366058, "Latitude": 2.800398, "Region": "Negeri Sembilan", "Category": "宗教", "PageNumber": "244" }, "geometry": { "type": "Point", "coordinates": [ 102.3661, 2.8004, 102.3661 ] } },
{ "type": "Feature", "properties": { "Name_CH": "马口普宁佛教会  ", "Name_ML": "Persatuan Agama Buddha Pu Ning Bahau Negeri Sembilan", "Name_EN": null, "Location": "91, Taman Sornam, 72100 Bahau, Negeri Sembilan.", "Longitude": 102.366058, "Latitude": 2.800398, "Region": "Negeri Sembilan", "Category": "宗教", "PageNumber": "244" }, "geometry": { "type": "Point", "coordinates": [ 102.3661, 2.8004, 102.3661 ] } },
{ "type": "Feature", "properties": { "Name_CH": "马身阿密陀巴佛教会", "Name_ML": "Persatuan Penganut Agama Buddha Amitabha Mahsan Negeri Sembilan ", "Name_EN": null, "Location": "153, Taman Mahsan, 72100 Bahau, Negeri Sembilan.", "Longitude": 102.366058, "Latitude": 2.800398, "Region": "Negeri Sembilan", "Category": "宗教", "PageNumber": "244" }, "geometry": { "type": "Point", "coordinates": [ 102.3661, 2.8004, 102.3661 ] } },
{ "type": "Feature", "properties": { "Name_CH": "马口济南堂神庙 ", "Name_ML": "Persatuan Penganut Dewa Chee Nam Thang Bahau Negeri Sembilan ", "Name_EN": null, "Location": "46A, Kg. Baru, 72100 Bahau, Negeri Sembilan.", "Longitude": 101.662902, "Latitude": 3.086999, "Region": "Negeri Sembilan", "Category": "宗教", "PageNumber": "244" }, "geometry": { "type": "Point", "coordinates": [ 101.6629, 3.087, 101.6629 ] } },
{ "type": "Feature", "properties": { "Name_CH": "马口双溪镭东区关帝庙  ", "Name_ML": "Persatuan Penganut Tokong Cina Kwan Ti Felda Lui Timor Bahau Negeri Sembilan", "Name_EN": null, "Location": "193, Felda Lui Timor ,72130 Bahau, Negeri Sembilan.", "Longitude": 101.515267, "Latitude": 3.723548, "Region": "Negeri Sembilan", "Category": "宗教", "PageNumber": "244" }, "geometry": { "type": "Point", "coordinates": [ 101.5153, 3.7235, 101.5153 ] } },
{ "type": "Feature", "properties": { "Name_CH": "妙应寺", "Name_ML": "Bew Eng Temple 741, Rahang Garden, 70100 Seremban, Negeri Sembilan.", "Name_EN": null, "Location": null, "Longitude": null, "Latitude": null, "Region": "Negeri Sembilan", "Category": "宗教", "PageNumber": "244" }, "geometry": null },
{ "type": "Feature", "properties": { "Name_CH": "谈边德教会紫祥阁", "Name_ML": null, "Name_EN": "Che Sian Khor Moral Uplifting Society Tampin ", "Location": "3904, Taman Indcih,73000, Tampin, Negeri Sembilan", "Longitude": 102.237998, "Latitude": 2.477528, "Region": "Negeri Sembilan", "Category": "宗教", "PageNumber": "245" }, "geometry": { "type": "Point", "coordinates": [ 102.238, 2.4775, 102.238 ] } },
{ "type": "Feature", "properties": { "Name_CH": "斯里巴力南海观音会 ", "Name_ML": "Persatuan Penganut Dewi Nam Hai Kuan Im Lukut Seri Parit Port Dickson", "Name_EN": null, "Location": "312, Lukut Seri Parit 70100 Port Dickson, Negeri Sembilan", "Longitude": 101.95192, "Latitude": 2.693152, "Region": "Negeri Sembilan", "Category": "宗教", "PageNumber": "245" }, "geometry": { "type": "Point", "coordinates": [ 101.9519, 2.6932, 101.9519 ] } },
{ "type": "Feature", "properties": { "Name_CH": "谈边镇江宫 ", "Name_ML": "Tokong Teng Kang Ken ", "Name_EN": null, "Location": "Woon Estate 73000 Tampin, Negeri Sembilan.", "Longitude": 102.481633, "Latitude": 2.566402, "Region": "Negeri Sembilan", "Category": "宗教", "PageNumber": "245" }, "geometry": { "type": "Point", "coordinates": [ 102.4816, 2.5664, 102.4816 ] } },
{ "type": "Feature", "properties": { "Name_CH": "森美兰州孔孟圣道院  ", "Name_ML": "Persatuan Pengikut Ajaran Kung Mern (Kung Mern Sern Tau Yen) Negeri Sembilan", "Name_EN": null, "Location": "23, Kg. Pasir Mas, 71200 Rantau, Negeri Sembilan", "Longitude": 101.952003, "Latitude": 2.5905, "Region": "Negeri Sembilan", "Category": "宗教", "PageNumber": "245" }, "geometry": { "type": "Point", "coordinates": [ 101.952, 2.5905, 101.952 ] } },
{ "type": "Feature", "properties": { "Name_CH": "申达央土展区关帝庙 ", "Name_ML": "Persatuan Penganut Dewa Kuan Ti Felda Sendayan Negeri Sembilan", "Name_EN": null, "Location": "Felda Sendayan, 71950 Sendayan, Negeri Sembilan.", "Longitude": 101.84781, "Latitude": 2.674942, "Region": "Negeri Sembilan", "Category": "宗教", "PageNumber": "245" }, "geometry": { "type": "Point", "coordinates": [ 101.8478, 2.6749, 101.8478 ] } },
{ "type": "Feature", "properties": { "Name_CH": "森美兰德教会紫森阁  ", "Name_ML": null, "Name_EN": "Che Sim Khor Moral Uplifting Society", "Location": "73-74, Jalan Tunku Munawir, 70000 Seremban, Negeri Sembilan", "Longitude": 101.95169, "Latitude": 2.707079, "Region": "Negeri Sembilan", "Category": "宗教", "PageNumber": "245" }, "geometry": { "type": "Point", "coordinates": [ 101.9517, 2.7071, 101.9517 ] } },
{ "type": "Feature", "properties": { "Name_CH": "双溪立白洪龙宫庙 ", "Name_ML": "Persatuan Penganut Dewa Hong Long Kong Sg.Nipah f Seremban Negeri Sembilan", "Name_EN": null, "Location": "44 ,Kg. Baru Sg. Nipah. 71960 Seremban, Negeri Sembilan.", "Longitude": 101.95169, "Latitude": 2.707079, "Region": "Negeri Sembilan", "Category": "宗教", "PageNumber": "245" }, "geometry": { "type": "Point", "coordinates": [ 101.9517, 2.7071, 101.9517 ] } },
{ "type": "Feature", "properties": { "Name_CH": "万茂新村马利友佛教会 ", "Name_ML": "Persatuan Buddha Marijee Negeri Sembilan ", "Name_EN": null, "Location": "60, Taman Mambau, 70300 Seremban, Negeri Sembilan.", "Longitude": 101.95169, "Latitude": 2.707079, "Region": "Negeri Sembilan", "Category": "宗教", "PageNumber": "245" }, "geometry": { "type": "Point", "coordinates": [ 101.9517, 2.7071, 101.9517 ] } },
{ "type": "Feature", "properties": { "Name_CH": "森美兰文丁盂兰盛会  ", "Name_ML": "Pertubuhan Penyokong Perayaan Yu Lan Mantin Negeri Sembilan", "Name_EN": null, "Location": " 1, Jalan Lenggeng, Taman Pelangi lndah, 71700 Mantin, Negeri Sembilan.", "Longitude": 101.882202, "Latitude": 2.826747, "Region": "Negeri Sembilan", "Category": "宗教", "PageNumber": "245" }, "geometry": { "type": "Point", "coordinates": [ 101.8822, 2.8267, 101.8822 ] } },
{ "type": "Feature", "properties": { "Name_CH": "森美兰德教会济清阁", "Name_ML": "Persatuan Chee Chen Khor ", "Name_EN": null, "Location": "337, Taman Union, Jalan Seng Meng Lee, 70200 Seremban,Negeri Sembilan.", "Longitude": 103.331308, "Latitude": 3.844007, "Region": "Negeri Sembilan", "Category": "宗教", "PageNumber": "245" }, "geometry": { "type": "Point", "coordinates": [ 103.3313, 3.844, 103.3313 ] } },
{ "type": "Feature", "properties": { "Name_CH": "文丁八大先师善信会", "Name_ML": "Persatuan Penganut Dewa Pak Da Shen See Seremban Negeri Sembilan ", "Name_EN": null, "Location": "286, Jalan T\/D 17, Taman Desa Pelangi, 71700 Mantin, Negeri Sembilan", "Longitude": 100.369663, "Latitude": 6.211168, "Region": "Negeri Sembilan", "Category": "宗教", "PageNumber": "245" }, "geometry": { "type": "Point", "coordinates": [ 100.3697, 6.2112, 100.3697 ] } },
{ "type": "Feature", "properties": { "Name_CH": "文丁追元坛", "Name_ML": "Pertubuhan Zui Yuan Tham Mantin Negeri Sembilan ", "Name_EN": null, "Location": "Batu 9,Kawasan Mercih, 71700 Mantin, Negeri Sembilan.", "Longitude": 101.863297, "Latitude": 2.429254, "Region": "Negeri Sembilan", "Category": "宗教", "PageNumber": "246" }, "geometry": { "type": "Point", "coordinates": [ 101.8633, 2.4293, 101.8633 ] } },
{ "type": "Feature", "properties": { "Name_CH": "武吉罗干三圣公会 ", "Name_ML": "Persatuan Penganut Dewa Sam Sin Kong Bukit Rokan Utara Gemencheh Negeri Sembilan ", "Name_EN": null, "Location": "6, Kedai Baru, Bukit Rokan Utara, 73200 Tampin, Negeri Sembilan.", "Longitude": 102.421617, "Latitude": 2.668749, "Region": "Negeri Sembilan", "Category": "宗教", "PageNumber": "246" }, "geometry": { "type": "Point", "coordinates": [ 102.4216, 2.6687, 102.4216 ] } },
{ "type": "Feature", "properties": { "Name_CH": "西廖福龙宫", "Name_ML": "awatankuasa Pembinaan Tokong Fook Loong Kong Siliau Port Dickson Negeri Sembilan ", "Name_EN": null, "Location": "Ladang Siliau, Siliau Port Dickson, Negeri Sembilan.", "Longitude": 101.910987, "Latitude": 2.579547, "Region": "Negeri Sembilan", "Category": "宗教", "PageNumber": "246" }, "geometry": { "type": "Point", "coordinates": [ 101.911, 2.5795, 101.911 ] } },
{ "type": "Feature", "properties": { "Name_CH": "武吉不兰律紫砂良宫 ", "Name_ML": "Pertubuhan Pengurusan Rumah Berhala Chi Sah Liang Kong Bukit Pelandok Negeri Sembilan", "Name_EN": null, "Location": "PT 617,(Mukim Jimah), 71960 Bukit Pelandok, Negeri Sembilan.", "Longitude": 101.74682, "Latitude": 2.648942, "Region": "Negeri Sembilan", "Category": "宗教", "PageNumber": "246" }, "geometry": { "type": "Point", "coordinates": [ 101.7468, 2.6489, 101.7468 ] } },
{ "type": "Feature", "properties": { "Name_CH": "新那旺南海音 ", "Name_ML": "Pertubuhan Penganut Dewi Nam Hai Yin Seremban Negeri Sembilan ", "Name_EN": null, "Location": "318, Taman Marida, 70450 Senawang, Seremban, Negeri Sembilan.", "Longitude": 101.95169, "Latitude": 2.707079, "Region": "Negeri Sembilan", "Category": "宗教", "PageNumber": "246" }, "geometry": { "type": "Point", "coordinates": [ 101.9517, 2.7071, 101.9517 ] } },
{ "type": "Feature", "properties": { "Name_CH": "亚沙新村将军神坛  ", "Name_ML": "Persatuan Buddha Chong Kung Sing Kuan Kg.Baru Rasah Seremban Negeri Sembilan", "Name_EN": null, "Location": "144, Rasah New Village, 70200 Seremban, Negeri Sembilan.", "Longitude": 101.95169, "Latitude": 2.707079, "Region": "Negeri Sembilan", "Category": "宗教", "PageNumber": "246" }, "geometry": { "type": "Point", "coordinates": [ 101.9517, 2.7071, 101.9517 ] } },
{ "type": "Feature", "properties": { "Name_CH": "小甘密花园吉同公会", "Name_ML": "Pertubuhan Pengikut Chit Thong Seremban Negeri Sembilan ", "Name_EN": null, "Location": "327， Taman Sikamat, 70450 Seremban, Negeri Sembilan.", "Longitude": 101.97626, "Latitude": 2.707346, "Region": "Negeri Sembilan", "Category": "宗教", "PageNumber": "246" }, "geometry": { "type": "Point", "coordinates": [ 101.9763, 2.7073, 101.9763 ] } },
{ "type": "Feature", "properties": { "Name_CH": "文丁天后水尾圣娘庙", "Name_ML": "Rumah Berhala Thian Heow Sui Moi Sin Nyong Mantin Negeri Sembilan ", "Name_EN": null, "Location": "Rumah Berhala Thian Heow Sui Moi Sin Nyong, Green Ward Mantin, Negeri Sembilan.", "Longitude": 101.940666, "Latitude": 2.72137, "Region": "Negeri Sembilan", "Category": "宗教", "PageNumber": "246" }, "geometry": { "type": "Point", "coordinates": [ 101.9407, 2.7214, 101.9407 ] } },
{ "type": "Feature", "properties": { "Name_CH": "武东岸石拿督 ", "Name_ML": "Pertubuhan Penganut Sak Dato Broga Negeri Sembilan ", "Name_EN": null, "Location": "C\/0 4, Jalan Besar, Broga 71750, Negeri Sembilan.", "Longitude": 101.75933, "Latitude": 2.761082, "Region": "Negeri Sembilan", "Category": "宗教", "PageNumber": "246" }, "geometry": { "type": "Point", "coordinates": [ 101.7593, 2.7611, 101.7593 ] } },
{ "type": "Feature", "properties": { "Name_CH": "文丁谭公庙 ", "Name_ML": "Tokong Tham Koong Mantin Negeri Sembilan ", "Name_EN": null, "Location": "Kawasan Merah, 71700 Mantin, Seremban, Negeri Sembilan.", "Longitude": 102.297644, "Latitude": 2.783715, "Region": "Negeri Sembilan", "Category": "宗教", "PageNumber": "246" }, "geometry": { "type": "Point", "coordinates": [ 102.2976, 2.7837, 102.2976 ] } },
{ "type": "Feature", "properties": { "Name_CH": "文丁美帝雅佛教会 ", "Name_ML": "Pertubuhan Buddha Maitreya Mantin Negeri Sembilan", "Name_EN": null, "Location": "28，Jalan Besar，71700 Mantin, Negeri Sembilan.", "Longitude": 101.882202, "Latitude": 2.826747, "Region": "Negeri Sembilan", "Category": "宗教", "PageNumber": "246" }, "geometry": { "type": "Point", "coordinates": [ 101.8822, 2.8267, 101.8822 ] } },
{ "type": "Feature", "properties": { "Name_CH": "文丁观音信众会 ", "Name_ML": "Persatuan Penganut Dewi Koon Yam Mantin Negeri Sembilan", "Name_EN": null, "Location": "72, Jalan Orkid 5, Taman Orkid，71700 Mantin, Negeri Sembilan.", "Longitude": 100.891572, "Latitude": 4.424211, "Region": "Negeri Sembilan", "Category": "宗教", "PageNumber": "246" }, "geometry": { "type": "Point", "coordinates": [ 100.8916, 4.4242, 100.8916 ] } },
{ "type": "Feature", "properties": { "Name_CH": "忠诚园三保庙", "Name_ML": "Persatuan Pengikut Rumah Berhala Sam Boh Taman Jujur Seremban Negeri Sembilan", "Name_EN": null, "Location": "Lot 1541\/415, Taman Jujurjalan Sikamat 70400 Seremban, Negeri Sembilan.", "Longitude": 101.841234, "Latitude": 2.491899, "Region": "Negeri Sembilan", "Category": "宗教", "PageNumber": "247" }, "geometry": { "type": "Point", "coordinates": [ 101.8412, 2.4919, 101.8412 ] } },
{ "type": "Feature", "properties": { "Name_CH": "义乐新村镇云宫 ", "Name_ML": "Lembaga Pengurus Tokong Cheng Yuen Kong Kg. Bahru Gedok", "Name_EN": null, "Location": "D\/A No 7, Kg Bahru Gedok, 73200 Gemencheh, Negeri Sembilan.", "Longitude": 102.420352, "Latitude": 2.545961, "Region": "Negeri Sembilan", "Category": "宗教", "PageNumber": "247" }, "geometry": { "type": "Point", "coordinates": [ 102.4204, 2.546, 102.4204 ] } },
{ "type": "Feature", "properties": { "Name_CH": "义乐新村中元会", "Name_ML": "Persatuan Penyokong Perayaan Tiong Guan Gedok Gemencheh Negeri Sembilan", "Name_EN": null, "Location": "31, Kg. Baru Gedok ,73200 Gemencheh, Negeri Sembilan.", "Longitude": 102.419537, "Latitude": 2.543238, "Region": "Negeri Sembilan", "Category": "宗教", "PageNumber": "247" }, "geometry": { "type": "Point", "coordinates": [ 102.4195, 2.5432, 102.4195 ] } },
{ "type": "Feature", "properties": { "Name_CH": "亚逸马旺白雪宫", "Name_ML": "Pertubuhan Penganut Tokong Pek Sek Kong Air Mawang Johol Negeri Sembilan", "Name_EN": null, "Location": "Kampung Renggam, 73100 Johol, Negeri Sembilan.", "Longitude": 102.250027, "Latitude": 2.558965, "Region": "Negeri Sembilan", "Category": "宗教", "PageNumber": "247" }, "geometry": { "type": "Point", "coordinates": [ 102.25, 2.559, 102.25 ] } },
{ "type": "Feature", "properties": { "Name_CH": "亚逸马旺济公善信会", "Name_ML": "Pertubuhan Penganut Dewa Chi Kong Air Mawang Johol Negeri Sembilan", "Name_EN": null, "Location": "86, Kg. Baru Air Mawang, 73100 Johol, Negeri Sembilan.", "Longitude": 102.250027, "Latitude": 2.558965, "Region": "Negeri Sembilan", "Category": "宗教", "PageNumber": "247" }, "geometry": { "type": "Point", "coordinates": [ 102.25, 2.559, 102.25 ] } },
{ "type": "Feature", "properties": { "Name_CH": "亚逸昆宁佛教会 ", "Name_ML": "Persatuan Penganut Agama Buddha Air Kuning Selatan Gemas Negeri Sembilan", "Name_EN": null, "Location": "3, Kg. Baru Air Kuning Selatan, 73300 Batang Melaka, Negeri Sembilan.", "Longitude": 102.620717, "Latitude": 2.583945, "Region": "Negeri Sembilan", "Category": "宗教", "PageNumber": "247" }, "geometry": { "type": "Point", "coordinates": [ 102.6207, 2.5839, 102.6207 ] } },
{ "type": "Feature", "properties": { "Name_CH": "宜卖佛教会 ", "Name_ML": "Persatuan Penganut Agama Buddha Jimah Negeri Sembilan", "Name_EN": null, "Location": "4481, Taman Pelandok Jaya, 71960, Seremban, Negeri Sembilan.", "Longitude": 101.753042, "Latitude": 2.643979, "Region": "Negeri Sembilan", "Category": "宗教", "PageNumber": "247" }, "geometry": { "type": "Point", "coordinates": [ 101.753, 2.644, 101.753 ] } },
{ "type": "Feature", "properties": { "Name_CH": "亚逸昆宁新村华人神庙 ", "Name_ML": "Pertubuhan Penganut Berhala Tokong Cina Kg. Baru Air Kuning Selatan Gemas Negeri Sembilan", "Name_EN": null, "Location": "56, Kg. Baru Air Kuning Selatan, Gemas, Negeri Sembilan.", "Longitude": 102.64741, "Latitude": 2.739104, "Region": "Negeri Sembilan", "Category": "宗教", "PageNumber": "247" }, "geometry": { "type": "Point", "coordinates": [ 102.6474, 2.7391, 102.6474 ] } },
{ "type": "Feature", "properties": { "Name_CH": "义乐新村关帝庙", "Name_ML": "Persatuan Penganut Penganut Kuan Tee Meow Gedok Gemencheh Negeri Sembilan", "Name_EN": null, "Location": "5z Kg. Baru, Gedok, Gemencheh, Negeri Sembilan.", "Longitude": 102.272813, "Latitude": 2.776334, "Region": "Negeri Sembilan", "Category": "宗教", "PageNumber": "247" }, "geometry": { "type": "Point", "coordinates": [ 102.2728, 2.7763, 102.2728 ] } },
{ "type": "Feature", "properties": { "Name_CH": "知知港佛教会 ", "Name_ML": "Persatuan Penganut Agama Buddha Titi Jelebu Negeri Sembilan", "Name_EN": null, "Location": "274, Taman Mawar, 71650 Titi Jelebu, Negeri Sembilan.", "Longitude": 102.100011, "Latitude": 3.002342, "Region": "Negeri Sembilan", "Category": "宗教", "PageNumber": "247" }, "geometry": { "type": "Point", "coordinates": [ 102.1, 3.0023, 102.1 ] } },
{ "type": "Feature", "properties": { "Name_CH": "亚逸昆令椰园庙", "Name_ML": "Persatuan Penganut Rumah Berhala Cina Ladang Kelapa Air Kuning Selantan Batang Melaka Negeri Sembilan", "Name_EN": null, "Location": "36B,Kg. Baru, Air Kuning Selatan, 74300 Batang Melaka, Pos Melaka, Negeri Sembilan.", "Longitude": 101.588859, "Latitude": 3.124654, "Region": "Negeri Sembilan", "Category": "宗教", "PageNumber": "247" }, "geometry": { "type": "Point", "coordinates": [ 101.5889, 3.1247, 101.5889 ] } },
{ "type": "Feature", "properties": { "Name_CH": "直凉佛教会 ", "Name_ML": "Persatuan Penganut Agama Buddha Triang llir Negeri Sembilan", "Name_EN": null, "Location": "30, Pekan Simpang Durian, 72400 Simpang Durian, Negeri Sembilan.", "Longitude": 100.501834, "Latitude": 5.276849, "Region": "Negeri Sembilan", "Category": "宗教", "PageNumber": "247" }, "geometry": { "type": "Point", "coordinates": [ 100.5018, 5.2768, 100.5018 ] } },
{ "type": "Feature", "properties": { "Name_CH": "安斗佛教会 ", "Name_ML": "Persatuan Agama Buddha Rantau Negeri Sembilan", "Name_EN": "Negeri Sembilan Rantau Buddhist Association", "Location": "3713\/67Jaman Pasir Mas, 71200 Rantau, Negeri Sembilan", "Longitude": 101.858333, "Latitude": 2.43066, "Region": "Negeri Sembilan", "Category": "宗教", "PageNumber": "248" }, "geometry": { "type": "Point", "coordinates": [ 101.8583, 2.4307, 101.8583 ] } },
{ "type": "Feature", "properties": { "Name_CH": "晏斗佛学会", "Name_ML": "Persatuan Agama Buddha Rantau Negeri Sembilan ", "Name_EN": null, "Location": "2713\/67 Taman Pasir Mas, 71200 Rantau, Negeri Sembilan.", "Longitude": 101.952003, "Latitude": 2.5905, "Region": "Negeri Sembilan", "Category": "宗教", "PageNumber": "248" }, "geometry": { "type": "Point", "coordinates": [ 101.952, 2.5905, 101.952 ] } }
]
}
