[
 {
   "Name_ZH": "新路村",
   "Name_MY": "Pauh Setia",
   "District_ZH": "加央",
   "District_MY": "Kangar",
   "State_ZH": "玻璃市",
   "State_MY": "Perlis",
   "Founding_Year": 1956,
   "latlng": "6.438084°N 100.301644°E",
   "lat": "6.438084",
   "lng": "100.301644"
 },
 {
   "Name_ZH": "加基武吉",
   "Name_MY": "Kaki Bukit",
   "District_ZH": "加央",
   "District_MY": "Kangar",
   "State_ZH": "玻璃市",
   "State_MY": "Perlis",
   "Founding_Year": null,
   "latlng": "6.643650°N 100.208078°E",
   "lat": "6.643650",
   "lng": "100.208078"
 },
 {
   "Name_ZH": " 基锐",
   "Name_MY": "Kejai",
   "District_ZH": "华玲",
   "District_MY": "Baling",
   "State_ZH": "吉打",
   "State_MY": "Kedah",
   "Founding_Year": 1950,
   "latlng": "5.551044°N 100.729479°E",
   "lat": "5.551044",
   "lng": "100.729479"
 },
 {
   "Name_ZH": " 甘光拉兰",
   "Name_MY": "Kampung Lalang",
   "District_ZH": "华玲",
   "District_MY": "Baling",
   "State_ZH": "吉打",
   "State_MY": "Kedah",
   "Founding_Year": 1950,
   "latlng": "5.790341°N 100.894927°E",
   "lat": "5.790341",
   "lng": "100.894927"
 },
 {
   "Name_ZH": " 瓜拉吉底",
   "Name_MY": "Kuala Ketil",
   "District_ZH": "华玲",
   "District_MY": "Baling",
   "State_ZH": "吉打",
   "State_MY": "Kedah",
   "Founding_Year": 1950,
   "latlng": "5.604284°N 100.650783°E",
   "lat": "5.604284",
   "lng": "100.650783"
 },
 {
   "Name_ZH": " 瓜拉不干",
   "Name_MY": "Kuala Pegang",
   "District_ZH": "华玲",
   "District_MY": "Baling",
   "State_ZH": "吉打",
   "State_MY": "Kedah",
   "Founding_Year": 1950,
   "latlng": "5.636025°N 100.809639°E",
   "lat": "5.636025",
   "lng": "100.809639"
 },
 {
   "Name_ZH": " 居邦",
   "Name_MY": "Kupang",
   "District_ZH": "华玲",
   "District_MY": "Baling",
   "State_ZH": "吉打",
   "State_MY": "Kedah",
   "Founding_Year": 1950,
   "latlng": "5.636893°N 100.844121°E",
   "lat": "5.636893",
   "lng": "100.844121"
 },
 {
   "Name_ZH": " 打活",
   "Name_MY": "Tawar",
   "District_ZH": "华玲",
   "District_MY": "Baling",
   "State_ZH": "吉打",
   "State_MY": "Kedah",
   "Founding_Year": 1950,
   "latlng": "5.595712°N 100.772926°E",
   "lat": "5.595712",
   "lng": "100.772926"
 },
 {
   "Name_ZH": "峇眼三目",
   "Name_MY": "Bagan Samak",
   "District_ZH": "万拉峇鲁",
   "District_MY": "Bandar Baharu",
   "State_ZH": "吉打",
   "State_MY": "Kedah",
   "Founding_Year": 1952,
   "latlng": "5.090819°N 100.5592566°E\t",
   "lat": "5.090819",
   "lng": "100.5592566"
 },
 {
   "Name_ZH": "司南马",
   "Name_MY": "Selama",
   "District_ZH": "万拉峇鲁",
   "District_MY": "Bandar Baharu",
   "State_ZH": "吉打",
   "State_MY": "Kedah",
   "Founding_Year": 1952,
   "latlng": "5.233486°N 100.682638°E",
   "lat": "5.233486",
   "lng": "100.682638"
 },
 {
   "Name_ZH": "西岭（怡源） ",
   "Name_MY": "Serdang (Ee Yuan)",
   "District_ZH": "万拉峇鲁",
   "District_MY": "Bandar Baharu",
   "State_ZH": "吉打",
   "State_MY": "Kedah",
   "Founding_Year": 1952,
   "latlng": "5.206949°N 100.615523°E",
   "lat": "5.206949",
   "lng": "100.615523"
 },
 {
   "Name_ZH": "麻杭",
   "Name_MY": "Mahang",
   "District_ZH": "万拉峇鲁",
   "District_MY": "Bandar Baharu",
   "State_ZH": "吉打",
   "State_MY": "Kedah",
   "Founding_Year": 1952,
   "latlng": "5.320731°N 100.748169°E",
   "lat": "5.320731",
   "lng": "100.748169"
 },
 {
   "Name_ZH": "三巴央 ",
   "Name_MY": "Junjong",
   "District_ZH": "万拉峇鲁",
   "District_MY": "Bandar Baharu",
   "State_ZH": "吉打",
   "State_MY": "Kedah",
   "Founding_Year": 1952,
   "latlng": "5.297478°N 100.534488°E",
   "lat": "5.297478",
   "lng": "100.534488"
 },
 {
   "Name_ZH": "新港",
   "Name_MY": "Bukit Besar",
   "District_ZH": "万拉峇鲁",
   "District_MY": "Bandar Baharu",
   "State_ZH": "吉打",
   "State_MY": "Kedah",
   "Founding_Year": null,
   "latlng": "5.4577229°N 100.5633676°E",
   "lat": "5.4577229",
   "lng": "100.5633676"
 },
 {
   "Name_ZH": "吕蒙文打",
   "Name_MY": "Lubok Buntar",
   "District_ZH": "万拉峇鲁",
   "District_MY": "Bandar Baharu",
   "State_ZH": "吉打",
   "State_MY": "Kedah",
   "Founding_Year": null,
   "latlng": "5.139635°N 100.590418°E",
   "lat": "5.139635",
   "lng": "100.590418"
 },
 {
   "Name_ZH": "蔗芭村",
   "Name_MY": "Kilang Tebu",
   "District_ZH": "哥打士打",
   "District_MY": "Kota Setar",
   "State_ZH": "吉打",
   "State_MY": "Kedah",
   "Founding_Year": null,
   "latlng": "6.105°N 100.3513889°E",
   "lat": "6.105",
   "lng": "100.3513889"
 },
 {
   "Name_ZH": "十字港",
   "Name_MY": "Simpang Empat",
   "District_ZH": "哥打士打",
   "District_MY": "Kota Setar",
   "State_ZH": "吉打",
   "State_MY": "Kedah",
   "Founding_Year": null,
   "latlng": "6.024360°N 100.381952°E",
   "lat": "6.024360",
   "lng": "100.381952"
 },
 {
   "Name_ZH": " 美农",
   "Name_MY": "Bedong",
   "District_ZH": "瓜拉姆达",
   "District_MY": "Kuala Muda",
   "State_ZH": "吉打",
   "State_MY": "Kedah",
   "Founding_Year": 1952,
   "latlng": "5.728031°N 100.509494°E",
   "lat": "5.728031",
   "lng": "100.509494"
 },
 {
   "Name_ZH": " 武吉士南卯",
   "Name_MY": "Bukit Selambau",
   "District_ZH": "瓜拉姆达",
   "District_MY": "Kuala Muda",
   "State_ZH": "吉打",
   "State_MY": "Kedah",
   "Founding_Year": 1950,
   "latlng": "5.682561°N 100.633960°E",
   "lat": "5.682561",
   "lng": "100.633960"
 },
 {
   "Name_ZH": " 莪仑",
   "Name_MY": "Gurun",
   "District_ZH": "瓜拉姆达",
   "District_MY": "Kuala Muda",
   "State_ZH": "吉打",
   "State_MY": "Kedah",
   "Founding_Year": 1954,
   "latlng": "5.808555°N 100.477225°E",
   "lat": "5.808555",
   "lng": "100.477225"
 },
 {
   "Name_ZH": " 仁岭",
   "Name_MY": "Jening",
   "District_ZH": "瓜拉姆达",
   "District_MY": "Kuala Muda",
   "State_ZH": "吉打",
   "State_MY": "Kedah",
   "Founding_Year": 1950,
   "latlng": "5.814001°N 100.631248°E",
   "lat": "5.814001",
   "lng": "100.631248"
 },
 {
   "Name_ZH": " 马莫",
   "Name_MY": "Merbok",
   "District_ZH": "瓜拉姆达",
   "District_MY": "Kuala Muda",
   "State_ZH": "吉打",
   "State_MY": "Kedah",
   "Founding_Year": 1953,
   "latlng": "5.721789°N 100.413712°E",
   "lat": "5.721789",
   "lng": "100.413712"
 },
 {
   "Name_ZH": " 巴东伦武",
   "Name_MY": "Padang Lembu",
   "District_ZH": "瓜拉姆达",
   "District_MY": "Kuala Muda",
   "State_ZH": "吉打",
   "State_MY": "Kedah",
   "Founding_Year": 1950,
   "latlng": "5.841295°N 100.535944°E",
   "lat": "5.841295",
   "lng": "100.535944"
 },
 {
   "Name_ZH": " 新文英",
   "Name_MY": "Semiling",
   "District_ZH": "瓜拉姆达",
   "District_MY": "Kuala Muda",
   "State_ZH": "吉打",
   "State_MY": "Kedah",
   "Founding_Year": 1952,
   "latlng": "5.701286°N 100.472268°E",
   "lat": "5.701286",
   "lng": "100.472268"
 },
 {
   "Name_ZH": " 双溪拉兰",
   "Name_MY": "Sungai Lalang",
   "District_ZH": "瓜拉姆达",
   "District_MY": "Kuala Muda",
   "State_ZH": "吉打",
   "State_MY": "Kedah",
   "Founding_Year": 1952,
   "latlng": "5.698234°N 100.514914°E",
   "lat": "5.698234",
   "lng": "100.514914"
 },
 {
   "Name_ZH": " 樟仑",
   "Name_MY": "Changlun",
   "District_ZH": "樟仑",
   "District_MY": "Changlun",
   "State_ZH": "吉打",
   "State_MY": "Kedah",
   "Founding_Year": 1952,
   "latlng": "6.432968°N 100.429609°E",
   "lat": "6.432968",
   "lng": "100.429609"
 },
 {
   "Name_ZH": " 双溪加拉岸",
   "Name_MY": "Sungai Karangan",
   "District_ZH": "居林",
   "District_MY": "Kulim",
   "State_ZH": "吉打",
   "State_MY": "Kedah",
   "Founding_Year": 1952,
   "latlng": "5.420775°N 100.667191°E",
   "lat": "5.420775",
   "lng": "100.667191"
 },
 {
   "Name_ZH": " 老火较",
   "Name_MY": "Kelang Lama",
   "District_ZH": "居林",
   "District_MY": "Kulim",
   "State_ZH": "吉打",
   "State_MY": "Kedah",
   "Founding_Year": 1952,
   "latlng": "5.388926°N 100.566936°E",
   "lat": "5.388926",
   "lng": "100.566936"
 },
 {
   "Name_ZH": " 硕莪廊",
   "Name_MY": "Kilang Sago",
   "District_ZH": "居林",
   "District_MY": "Kulim",
   "State_ZH": "吉打",
   "State_MY": "Kedah",
   "Founding_Year": 1952,
   "latlng": "5.371071°N 100.551454°E",
   "lat": "5.371071",
   "lng": "100.551454"
 },
 {
   "Name_ZH": " 鲁乃",
   "Name_MY": "Lunas",
   "District_ZH": "居林",
   "District_MY": "Kulim",
   "State_ZH": "吉打",
   "State_MY": "Kedah",
   "Founding_Year": 1952,
   "latlng": "5.431124°N 100.534097°E",
   "lat": "5.431124",
   "lng": "100.534097"
 },
 {
   "Name_ZH": " 巴东色海",
   "Name_MY": "Padang Serai",
   "District_ZH": "居林",
   "District_MY": "Kulim",
   "State_ZH": "吉打",
   "State_MY": "Kedah",
   "Founding_Year": 1952,
   "latlng": "5.510960°N 100.555920°E",
   "lat": "5.510960",
   "lng": "100.555920"
 },
 {
   "Name_ZH": " 双溪谷",
   "Name_MY": "Sungai Kob",
   "District_ZH": "居林",
   "District_MY": "Kulim",
   "State_ZH": "吉打",
   "State_MY": "Kedah",
   "Founding_Year": 1952,
   "latlng": "5.426795°N 100.643555°E",
   "lat": "5.426795",
   "lng": "100.643555"
 },
 {
   "Name_ZH": "六支碑村（顺安）",
   "Name_MY": "Bukit 6 (Bukit Lada)",
   "District_ZH": "居林",
   "District_MY": "Kulim",
   "State_ZH": "吉打",
   "State_MY": "Kedah",
   "Founding_Year": null,
   "latlng": "5.4577229°N 100.5633676°E",
   "lat": "5.4577229",
   "lng": "100.5633676"
 },
 {
   "Name_ZH": " 那加",
   "Name_MY": "Pekan Naka",
   "District_ZH": "巴东得腊",
   "District_MY": "Padag Terap",
   "State_ZH": "吉打",
   "State_MY": "Kedah",
   "Founding_Year": 1952,
   "latlng": "6.137784°N 100.673147°E",
   "lat": "6.137784",
   "lng": "100.673147"
 },
 {
   "Name_ZH": " 柏鲁",
   "Name_MY": "Tanjong Thai (Pedu)",
   "District_ZH": "巴东得腊",
   "District_MY": "Padag Terap",
   "State_ZH": "吉打",
   "State_MY": "Kedah",
   "Founding_Year": 1952,
   "latlng": "6.230379°N 100.694777°E",
   "lat": "6.230379",
   "lng": "100.694777"
 },
 {
   "Name_ZH": " 古拉",
   "Name_MY": "Kura",
   "District_ZH": "锡 ",
   "District_MY": "Sik",
   "State_ZH": "吉打",
   "State_MY": "Kedah",
   "Founding_Year": 1952,
   "latlng": "5.946123°N 100.667423°E",
   "lat": "5.946123",
   "lng": "100.667423"
 },
 {
   "Name_ZH": " 南美",
   "Name_MY": "Nami",
   "District_ZH": "锡 ",
   "District_MY": "Sik",
   "State_ZH": "吉打",
   "State_MY": "Kedah",
   "Founding_Year": 1952,
   "latlng": "6.050276°N 100.778152°E",
   "lat": "6.050276",
   "lng": "100.778152"
 },
 {
   "Name_ZH": "武拉必",
   "Name_MY": "Berapit",
   "District_ZH": "威省中区",
   "District_MY": "Seberang Perai Tengah",
   "State_ZH": "槟城",
   "State_MY": "Penang",
   "Founding_Year": 1954,
   "latlng": "5.381714°N 100.472257°E",
   "lat": "5.381714",
   "lng": "100.472257"
 },
 {
   "Name_ZH": "柔府",
   "Name_MY": "Juru",
   "District_ZH": "威省中区",
   "District_MY": "Seberang Perai Tengah",
   "State_ZH": "槟城",
   "State_MY": "Penang",
   "Founding_Year": 1954,
   "latlng": "5.314125°N 100.44358°E",
   "lat": "5.314125",
   "lng": "100.44358"
 },
 {
   "Name_ZH": "巴章武莫",
   "Name_MY": "Machang Bubok",
   "District_ZH": "威省中区",
   "District_MY": "Seberang Perai Tengah",
   "State_ZH": "槟城",
   "State_MY": "Penang",
   "Founding_Year": 1954,
   "latlng": "5.333998°N 100.508155°E",
   "lat": "5.333998",
   "lng": "100.508155"
 },
 {
   "Name_ZH": "峇东丁宜",
   "Name_MY": "Permatang Tinggi",
   "District_ZH": "威省中区",
   "District_MY": "Seberang Perai Tengah",
   "State_ZH": "槟城",
   "State_MY": "Penang",
   "Founding_Year": 1954,
   "latlng": "5.301277°N 100.478507°E",
   "lat": "5.301277",
   "lng": "100.478507"
 },
 {
   "Name_ZH": "双溪里武",
   "Name_MY": "Sungai Lembu",
   "District_ZH": "威省中区",
   "District_MY": "Seberang Perai Tengah",
   "State_ZH": "槟城",
   "State_MY": "Penang",
   "Founding_Year": 1954,
   "latlng": "5.390258°N 100.523077°E",
   "lat": "5.390258",
   "lng": "100.523077"
 },
 {
   "Name_ZH": "甘榜峇汝",
   "Name_MY": "Kampung Bahru",
   "District_ZH": "威省中区",
   "District_MY": "Seberang Perai Tengah",
   "State_ZH": "槟城",
   "State_MY": "Penang",
   "Founding_Year": null,
   "latlng": "5.3426°N 100.4708°E",
   "lat": "5.3426",
   "lng": "100.4708"
 },
 {
   "Name_ZH": "平安村",
   "Name_MY": "Kampung Selamat",
   "District_ZH": "威省中区",
   "District_MY": "Seberang Perai Tengah",
   "State_ZH": "槟城",
   "State_MY": "Penang",
   "Founding_Year": null,
   "latlng": "5.504918°N 100.514779°E",
   "lat": "5.504918",
   "lng": "100.514779"
 },
 {
   "Name_ZH": "瓜夷",
   "Name_MY": "Jawi",
   "District_ZH": "威省南区",
   "District_MY": "Seberang Perai Selatan",
   "State_ZH": "槟城",
   "State_MY": "Penang",
   "Founding_Year": 1954,
   "latlng": "5.211444°N 100.495237°E",
   "lat": "5.211444",
   "lng": "100.495237"
 },
 {
   "Name_ZH": "双溪格吉",
   "Name_MY": "Sungai Kecil",
   "District_ZH": "威省南区",
   "District_MY": "Seberang Perai Selatan",
   "State_ZH": "槟城",
   "State_MY": "Penang",
   "Founding_Year": 1954,
   "latlng": "5.164411°N 100.523190°E",
   "lat": "5.164411",
   "lng": "100.523190"
 },
 {
   "Name_ZH": "华都村",
   "Name_MY": "Kampung Val Dor",
   "District_ZH": "威省南区",
   "District_MY": "Seberang Perai Selatan",
   "State_ZH": "槟城",
   "State_MY": "Penang",
   "Founding_Year": 1954,
   "latlng": "5.241635°N 100.491300°E",
   "lat": "5.241635",
   "lng": "100.491300"
 },
 {
   "Name_ZH": "威利斯里",
   "Name_MY": "Wellesley",
   "District_ZH": "威省南区",
   "District_MY": "Seberang Perai Selatan",
   "State_ZH": "槟城",
   "State_MY": "Penang",
   "Founding_Year": 1954,
   "latlng": "5.211821°N 100.516084°E",
   "lat": "5.211821",
   "lng": "100.516084"
 },
 {
   "Name_ZH": "樟角村",
   "Name_MY": "Changkat",
   "District_ZH": "威省南区",
   "District_MY": "Seberang Perai Selatan",
   "State_ZH": "槟城",
   "State_MY": "Penang",
   "Founding_Year": null,
   "latlng": "5.198436°N 100.469718°E",
   "lat": "5.198436",
   "lng": "100.469718"
 },
 {
   "Name_ZH": "武吉淡纹峇眼",
   "Name_MY": "Bagan Bukit Tambun",
   "District_ZH": "威省南区",
   "District_MY": "Seberang Perai Selatan",
   "State_ZH": "槟城",
   "State_MY": "Penang",
   "Founding_Year": null,
   "latlng": "5.274689°N 100.444173°E",
   "lat": "5.274689",
   "lng": "100.444173"
 },
 {
   "Name_ZH": "高渊港口",
   "Name_MY": "Sungai Udang",
   "District_ZH": "威省南区",
   "District_MY": "Seberang Perai Selatan",
   "State_ZH": "槟城",
   "State_MY": "Penang",
   "Founding_Year": null,
   "latlng": "5.165217°N 100.427857°E",
   "lat": "5.165217",
   "lng": "100.427857"
 },
 {
   "Name_ZH": "亚当君令",
   "Name_MY": "Ayer Kuning",
   "District_ZH": "巴登峇当",
   "District_MY": "Batang Padang",
   "State_ZH": "霹雳",
   "State_MY": "Perak",
   "Founding_Year": 1950,
   "latlng": "4°11′21″N 101°08′33″E",
   "lat": "4.189166666666667",
   "lng": "101.14250000000001"
 },
 {
   "Name_ZH": "万岭",
   "Name_MY": "Banir",
   "District_ZH": "巴登峇当",
   "District_MY": "Batang Padang",
   "State_ZH": "霹雳",
   "State_MY": "Perak",
   "Founding_Year": 1950,
   "latlng": "4°12′32″N 101°10′48″E",
   "lat": "4.208888888888889",
   "lng": "101.18"
 },
 {
   "Name_ZH": "万岭园",
   "Name_MY": "Banir Estate",
   "District_ZH": "巴登峇当",
   "District_MY": "Batang Padang",
   "State_ZH": "霹雳",
   "State_MY": "Perak",
   "Founding_Year": 1950,
   "latlng": "4°13′21″N 101°13′35″E",
   "lat": "4.2225",
   "lng": "101.22638888888889"
 },
 {
   "Name_ZH": "美冷车站",
   "Name_MY": "Behrang Stesyen",
   "District_ZH": "巴登峇当",
   "District_MY": "Batang Padang",
   "State_ZH": "霹雳",
   "State_MY": "Perak",
   "Founding_Year": 1950,
   "latlng": "3°44′35″N 101°26′59″E",
   "lat": "3.743055555555556",
   "lng": "101.44972222222222"
 },
 {
   "Name_ZH": "美冷呼噜",
   "Name_MY": "Behrang Stesyen",
   "District_ZH": "巴登峇当",
   "District_MY": "Batang Padang",
   "State_ZH": "霹雳",
   "State_MY": "Perak",
   "Founding_Year": 1950,
   "latlng": "3°45′21″N 101°29′47″E",
   "lat": "3.7558333333333334",
   "lng": "101.49638888888889"
 },
 {
   "Name_ZH": "美罗",
   "Name_MY": "Bidor",
   "District_ZH": "巴登峇当",
   "District_MY": "Batang Padang",
   "State_ZH": "霹雳",
   "State_MY": "Perak",
   "Founding_Year": 1950,
   "latlng": "4°07′00″N 101°17′21″E",
   "lat": "4.116666666666666",
   "lng": "101.28916666666666"
 },
 {
   "Name_ZH": "美罗车站",
   "Name_MY": "Bidor Stesyen",
   "District_ZH": "巴登峇当",
   "District_MY": "Batang Padang",
   "State_ZH": "霹雳",
   "State_MY": "Perak",
   "Founding_Year": 1950,
   "latlng": "4°06′20″N 101°16′02″E",
   "lat": "4.105555555555555",
   "lng": "101.26722222222222"
 },
 {
   "Name_ZH": "宝结百家",
   "Name_MY": "Bukit Pagar",
   "District_ZH": "巴登峇当",
   "District_MY": "Batang Padang",
   "State_ZH": "霹雳",
   "State_MY": "Perak",
   "Founding_Year": 1950,
   "latlng": "4°11′10″N 101°15′59″E",
   "lat": "4.186111111111112",
   "lng": "101.26638888888888"
 },
 {
   "Name_ZH": "积莪营",
   "Name_MY": "Chenderiang",
   "District_ZH": "巴登峇当",
   "District_MY": "Batang Padang",
   "State_ZH": "霹雳",
   "State_MY": "Perak",
   "Founding_Year": 1951,
   "latlng": "4°15′53″N 101°14′16″E",
   "lat": "4.264722222222222",
   "lng": "101.23777777777778"
 },
 {
   "Name_ZH": "甘榜冷水河",
   "Name_MY": "Kampung Coldstream",
   "District_ZH": "巴登峇当",
   "District_MY": "Batang Padang",
   "State_ZH": "霹雳",
   "State_MY": "Perak",
   "Founding_Year": 1950,
   "latlng": "4°02′37″N 101°14′23″E",
   "lat": "4.043611111111111",
   "lng": "101.23972222222223"
 },
 {
   "Name_ZH": "各多庸",
   "Name_MY": "Kentoyong",
   "District_ZH": "巴登峇当",
   "District_MY": "Batang Padang",
   "State_ZH": "霹雳",
   "State_MY": "Perak",
   "Founding_Year": 1950,
   "latlng": "3.689577°N 101.516274°E",
   "lat": "3.689577",
   "lng": "101.516274"
 },
 {
   "Name_ZH": "金榜彭亨",
   "Name_MY": "Kampung Pahang",
   "District_ZH": "巴登峇当",
   "District_MY": "Batang Padang",
   "State_ZH": "霹雳",
   "State_MY": "Perak",
   "Founding_Year": 1951,
   "latlng": "4°13′02″N 101°16′32″E       ",
   "lat": "4.217222222222222",
   "lng": "101.27555555555556"
 },
 {
   "Name_ZH": "瓜拉美金",
   "Name_MY": "Kuala Bikam",
   "District_ZH": "巴登峇当",
   "District_MY": "Batang Padang",
   "State_ZH": "霹雳",
   "State_MY": "Perak",
   "Founding_Year": 1950,
   "latlng": "4°01′21″N 101°14′36″E",
   "lat": "4.0225",
   "lng": "101.24333333333334"
 },
 {
   "Name_ZH": "北根吉打",
   "Name_MY": "Pekan Getah",
   "District_ZH": "巴登峇当",
   "District_MY": "Batang Padang",
   "State_ZH": "霹雳",
   "State_MY": "Perak",
   "Founding_Year": 1950,
   "latlng": "4°11′18″N 101°13′30″E",
   "lat": "4.1883333333333335",
   "lng": "101.22500000000001"
 },
 {
   "Name_ZH": "不干巴沙",
   "Name_MY": "Pekan Pasir",
   "District_ZH": "巴登峇当",
   "District_MY": "Batang Padang",
   "State_ZH": "霹雳",
   "State_MY": "Perak",
   "Founding_Year": 1951,
   "latlng": "4°04′09″N 101°17′14″E",
   "lat": "4.069166666666667",
   "lng": "101.28722222222223"
 },
 {
   "Name_ZH": "宋溪古罗",
   "Name_MY": "Pekan Pasir",
   "District_ZH": "巴登峇当",
   "District_MY": "Batang Padang",
   "State_ZH": "霹雳",
   "State_MY": "Perak",
   "Founding_Year": 1950,
   "latlng": "4°13′8″N 101°08′24″E",
   "lat": "4.218888888888889",
   "lng": "101.14"
 },
 {
   "Name_ZH": "仕林河",
   "Name_MY": "Slim River",
   "District_ZH": "巴登峇当",
   "District_MY": "Batang Padang",
   "State_ZH": "霹雳",
   "State_MY": "Perak",
   "Founding_Year": 1950,
   "latlng": "3°49′54″N 101°24′02″E",
   "lat": "3.8316666666666666",
   "lng": "101.40055555555556"
 },
 {
   "Name_ZH": "仕林新村",
   "Name_MY": "Slim Village",
   "District_ZH": "巴登峇当",
   "District_MY": "Batang Padang",
   "State_ZH": "霹雳",
   "State_MY": "Perak",
   "Founding_Year": 1950,
   "latlng": "3°50′57″N 101°28′51″E",
   "lat": "3.8491666666666666",
   "lng": "101.48083333333334"
 },
 {
   "Name_ZH": "宋溪",
   "Name_MY": "Sungkai",
   "District_ZH": "巴登峇当",
   "District_MY": "Batang Padang",
   "State_ZH": "霹雳",
   "State_MY": "Perak",
   "Founding_Year": 1951,
   "latlng": "3°59′41″N 101°18′38″E",
   "lat": "3.9947222222222223",
   "lng": "101.31055555555555"
 },
 {
   "Name_ZH": "丹那马士",
   "Name_MY": "Tanah Mas",
   "District_ZH": "巴登峇当",
   "District_MY": "Batang Padang",
   "State_ZH": "霹雳",
   "State_MY": "Perak",
   "Founding_Year": 1950,
   "latlng": "4°08′41″N 101°15′58″E",
   "lat": "4.144722222222223",
   "lng": "101.26611111111112"
 },
 {
   "Name_ZH": "打巴路",
   "Name_MY": "Tapah Road",
   "District_ZH": "巴登峇当",
   "District_MY": "Batang Padang",
   "State_ZH": "霹雳",
   "State_MY": "Perak",
   "Founding_Year": 1952,
   "latlng": "4°10′19″N 101°11′30″E",
   "lat": "4.171944444444445",
   "lng": "101.19166666666668"
 },
 {
   "Name_ZH": "地摩 ",
   "Name_MY": "Temoh",
   "District_ZH": "巴登峇当",
   "District_MY": "Batang Padang",
   "State_ZH": "霹雳",
   "State_MY": "Perak",
   "Founding_Year": 1950,
   "latlng": "4°14′27″N 101°11′42″E",
   "lat": "4.240833333333334",
   "lng": "101.19500000000001"
 },
 {
   "Name_ZH": "十二碑",
   "Name_MY": "Batu 12",
   "District_ZH": "下霹雳",
   "District_MY": "Hilir Perak",
   "State_ZH": "霹雳",
   "State_MY": "Perak",
   "Founding_Year": 1950,
   "latlng": "4°00′12″N 101°10′26″E",
   "lat": "4.003333333333333",
   "lng": "101.1738888888889"
 },
 {
   "Name_ZH": "五丰路",
   "Name_MY": "Goh Hong",
   "District_ZH": "下霹雳",
   "District_MY": "Hilir Perak",
   "State_ZH": "霹雳",
   "State_MY": "Perak",
   "Founding_Year": 1960,
   "latlng": "4°01′39″N 101°08′02″E",
   "lat": "4.0275",
   "lng": "101.13388888888889"
 },
 {
   "Name_ZH": "水闸",
   "Name_MY": "Chui Chak",
   "District_ZH": "下霹雳",
   "District_MY": "Hilir Perak",
   "State_ZH": "霹雳",
   "State_MY": "Perak",
   "Founding_Year": 1950,
   "latlng": "4°02′41″N 101°10′20″E",
   "lat": "4.044722222222222",
   "lng": "101.17222222222223"
 },
 {
   "Name_ZH": "冷甲",
   "Name_MY": "Langkap",
   "District_ZH": "下霹雳",
   "District_MY": "Hilir Perak",
   "State_ZH": "霹雳",
   "State_MY": "Perak",
   "Founding_Year": 1950,
   "latlng": "4°04′18″N 101°08′57″E",
   "lat": "4.071666666666666",
   "lng": "101.14916666666667"
 },
 {
   "Name_ZH": "巴拉湾",
   "Name_MY": "Pahlawan",
   "District_ZH": "下霹雳",
   "District_MY": "Hilir Perak",
   "State_ZH": "霹雳",
   "State_MY": "Perak",
   "Founding_Year": 1949,
   "latlng": "4°04′00″N 101°11′15″E",
   "lat": "4.066666666666666",
   "lng": "101.1875"
 },
 {
   "Name_ZH": "芭尾",
   "Name_MY": "Pasir Bedamar",
   "District_ZH": "下霹雳",
   "District_MY": "Hilir Perak",
   "State_ZH": "霹雳",
   "State_MY": "Perak",
   "Founding_Year": 1950,
   "latlng": "4°02′06″N 101°00′21″E",
   "lat": "4.035",
   "lng": "101.00583333333333"
 },
 {
   "Name_ZH": "新邦安拔",
   "Name_MY": "Simpang Empat",
   "District_ZH": "下霹雳",
   "District_MY": "Hilir Perak",
   "State_ZH": "霹雳",
   "State_MY": "Perak",
   "Founding_Year": 1950,
   "latlng": "3°53′46″N 100°56′13″E",
   "lat": "3.8961111111111113",
   "lng": "100.93694444444445"
 },
 {
   "Name_ZH": "阿育加拉",
   "Name_MY": "Ayer Kala",
   "District_ZH": "上霹雳",
   "District_MY": "Hulu Perak",
   "State_ZH": "霹雳",
   "State_MY": "Perak",
   "Founding_Year": 1951,
   "latlng": "5°11′41″N 101°03′26″E",
   "lat": "5.1947222222222225",
   "lng": "101.05722222222222"
 },
 {
   "Name_ZH": "巴都鲁亚",
   "Name_MY": "Batu 2",
   "District_ZH": "上霹雳",
   "District_MY": "Hulu Perak",
   "State_ZH": "霹雳",
   "State_MY": "Perak",
   "Founding_Year": 1950,
   "latlng": "5°27′08″N 101°01′24″E",
   "lat": "5.452222222222223",
   "lng": "101.02333333333333"
 },
 {
   "Name_ZH": "仁丹",
   "Name_MY": "Klian Intan",
   "District_ZH": "上霹雳",
   "District_MY": "Hulu Perak",
   "State_ZH": "霹雳",
   "State_MY": "Perak",
   "Founding_Year": 1952,
   "latlng": "5°38′09″N 101°01′24″E",
   "lat": "5.635833333333333",
   "lng": "101.02333333333333"
 },
 {
   "Name_ZH": "哥打淡板新村",
   "Name_MY": "Klian Intan",
   "District_ZH": "上霹雳",
   "District_MY": "Hulu Perak",
   "State_ZH": "霹雳",
   "State_MY": "Perak",
   "Founding_Year": 1952,
   "latlng": "5°03′21″N 100°57′57″E",
   "lat": "5.055833333333333",
   "lng": "100.96583333333334"
 },
 {
   "Name_ZH": "瓜拉雷新村",
   "Name_MY": "Kuala Rui",
   "District_ZH": "上霹雳",
   "District_MY": "Hulu Perak",
   "State_ZH": "霹雳",
   "State_MY": "Perak",
   "Founding_Year": 1957,
   "latlng": "5°27′29″N 101°10′14″E",
   "lat": "5.458055555555556",
   "lng": "101.17055555555557"
 },
 {
   "Name_ZH": "巴登古鲁",
   "Name_MY": "Padang Gerus",
   "District_ZH": "上霹雳",
   "District_MY": "Hulu Perak",
   "State_ZH": "霹雳",
   "State_MY": "Perak",
   "Founding_Year": 1951,
   "latlng": "5°09′56″N 101°00′55″E",
   "lat": "5.165555555555556",
   "lng": "101.01527777777778"
 },
 {
   "Name_ZH": "高乌",
   "Name_MY": "Pengkalan Hulu",
   "District_ZH": "上霹雳",
   "District_MY": "Hulu Perak",
   "State_ZH": "霹雳",
   "State_MY": "Perak",
   "Founding_Year": 1959,
   "latlng": "5°42′16″N 101°02′08″E",
   "lat": "5.704444444444444",
   "lng": "101.03555555555555"
 },
 {
   "Name_ZH": "士力百加",
   "Name_MY": "Selat Pagar",
   "District_ZH": "上霹雳",
   "District_MY": "Hulu Perak",
   "State_ZH": "霹雳",
   "State_MY": "Perak",
   "Founding_Year": 1950,
   "latlng": "5°10′45″N 101°02′08″E",
   "lat": "5.179166666666667",
   "lng": "101.03555555555555"
 },
 {
   "Name_ZH": "打昔",
   "Name_MY": "Tasek",
   "District_ZH": "上霹雳",
   "District_MY": "Hulu Perak",
   "State_ZH": "霹雳",
   "State_MY": "Perak",
   "Founding_Year": 1950,
   "latlng": "5°39′58″N 100°58′21″E",
   "lat": "5.666111111111111",
   "lng": "100.9725"
 },
 {
   "Name_ZH": "八号村",
   "Name_MY": "U.P.R.A.(8)",
   "District_ZH": "上霹雳",
   "District_MY": "Hulu Perak",
   "State_ZH": "霹雳",
   "State_MY": "Perak",
   "Founding_Year": 1951,
   "latlng": "5°26′02″N 101°07′41″E",
   "lat": "5.433888888888889",
   "lng": "101.12805555555555"
 },
 {
   "Name_ZH": "暗邦",
   "Name_MY": "Ampang Baru",
   "District_ZH": "近打 ",
   "District_MY": "Kinta",
   "State_ZH": "霹雳",
   "State_MY": "Perak",
   "Founding_Year": 1953,
   "latlng": "4°35′14″N 101°07′48″E",
   "lat": "4.587222222222222",
   "lng": "101.13"
 },
 {
   "Name_ZH": "百利",
   "Name_MY": "Bali",
   "District_ZH": "近打 ",
   "District_MY": "Kinta",
   "State_ZH": "霹雳",
   "State_MY": "Perak",
   "Founding_Year": 1951,
   "latlng": "4°23′38″N 101°00′20″E",
   "lat": "4.393888888888889",
   "lng": "101.00555555555556"
 },
 {
   "Name_ZH": "民万",
   "Name_MY": "Bemban",
   "District_ZH": "近打 ",
   "District_MY": "Kinta",
   "State_ZH": "霹雳",
   "State_MY": "Perak",
   "Founding_Year": 1950,
   "latlng": "4°27′29.30″N 101°0′43.25″E",
   "lat": "4.458055555555556",
   "lng": "101.01194444444444"
 },
 {
   "Name_ZH": "巴占新村",
   "Name_MY": "Kampung Bereham",
   "District_ZH": "近打 ",
   "District_MY": "Kinta",
   "State_ZH": "霹雳",
   "State_MY": "Perak",
   "Founding_Year": 1950,
   "latlng": "4°38′18″N 101°07′41″E",
   "lat": "4.638333333333333",
   "lng": "101.12805555555555"
 },
 {
   "Name_ZH": "红泥山",
   "Name_MY": "Bukit Merah",
   "District_ZH": "近打 ",
   "District_MY": "Kinta",
   "State_ZH": "霹雳",
   "State_MY": "Perak",
   "Founding_Year": 1950,
   "latlng": "4°33′6.3″N 101°2′25″E",
   "lat": "4.551666666666667",
   "lng": "101.04027777777777"
 },
 {
   "Name_ZH": "文冬",
   "Name_MY": "Buntong",
   "District_ZH": "近打 ",
   "District_MY": "Kinta",
   "State_ZH": "霹雳",
   "State_MY": "Perak",
   "Founding_Year": 1950,
   "latlng": "4°35′53″N 101°03′48″E",
   "lat": "4.598055555555555",
   "lng": "101.06333333333333"
 },
 {
   "Name_ZH": "曾吉京丁",
   "Name_MY": "Changkat Kinding",
   "District_ZH": "近打 ",
   "District_MY": "Kinta",
   "State_ZH": "霹雳",
   "State_MY": "Perak",
   "Founding_Year": 1951,
   "latlng": "4°41′58″N 101°09′03″E",
   "lat": "4.6994444444444445",
   "lng": "101.15083333333334"
 },
 {
   "Name_ZH": "珠宝",
   "Name_MY": "Chemor R.A.",
   "District_ZH": "近打 ",
   "District_MY": "Kinta",
   "State_ZH": "霹雳",
   "State_MY": "Perak",
   "Founding_Year": 1950,
   "latlng": "4°43′17″N 101°07′08″E",
   "lat": "4.721388888888889",
   "lng": "101.11888888888888"
 },
 {
   "Name_ZH": "贞德隆",
   "Name_MY": "Chenderong",
   "District_ZH": "近打 ",
   "District_MY": "Kinta",
   "State_ZH": "霹雳",
   "State_MY": "Perak",
   "Founding_Year": 1950,
   "latlng": "4°24′26″N 101°03′02″E",
   "lat": "4.407222222222223",
   "lng": "101.05055555555555"
 },
 {
   "Name_ZH": "华林市",
   "Name_MY": "Falim",
   "District_ZH": "近打 ",
   "District_MY": "Kinta",
   "State_ZH": "霹雳",
   "State_MY": "Perak",
   "Founding_Year": 1950,
   "latlng": "4°34′54″N 101°03′49″E",
   "lat": "4.581666666666666",
   "lng": "101.06361111111111"
 },
 {
   "Name_ZH": "喜明村/布先",
   "Name_MY": "Gunung Hijau/ Pusing",
   "District_ZH": "近打 ",
   "District_MY": "Kinta",
   "State_ZH": "霹雳",
   "State_MY": "Perak",
   "Founding_Year": 1950,
   "latlng": "4°29′27″N 101°00′20″E",
   "lat": "4.490833333333334",
   "lng": "101.00555555555556"
 },
 {
   "Name_ZH": "昆仑喇叭新村",
   "Name_MY": "Gunung Rapat",
   "District_ZH": "近打 ",
   "District_MY": "Kinta",
   "State_ZH": "霹雳",
   "State_MY": "Perak",
   "Founding_Year": 1950,
   "latlng": "4°34′20″N 101°07′13″E",
   "lat": "4.572222222222222",
   "lng": "101.12027777777777"
 },
 {
   "Name_ZH": "印度徒置村（曾吉）",
   "Name_MY": "Indian Settlelement (Desa Changkat)",
   "District_ZH": "近打 ",
   "District_MY": "Kinta",
   "State_ZH": "霹雳",
   "State_MY": "Perak",
   "Founding_Year": 1951,
   "latlng": "4°28′39″N 101°01′44″E",
   "lat": "4.4775",
   "lng": "101.02888888888889"
 },
 {
   "Name_ZH": "九洞",
   "Name_MY": "Jelapang",
   "District_ZH": "近打 ",
   "District_MY": "Kinta",
   "State_ZH": "霹雳",
   "State_MY": "Perak",
   "Founding_Year": 1953,
   "latlng": "4°38′14″N 101°03′35″E",
   "lat": "4.6372222222222215",
   "lng": "101.05972222222222"
 },
 {
   "Name_ZH": "师美新村",
   "Name_MY": "Kampung Simee",
   "District_ZH": "近打 ",
   "District_MY": "Kinta",
   "State_ZH": "霹雳",
   "State_MY": "Perak",
   "Founding_Year": 1950,
   "latlng": "4°37′03″N 101°06′36″E",
   "lat": "4.617500000000001",
   "lng": "101.11"
 },
 {
   "Name_ZH": "甘榜斗华",
   "Name_MY": "Kampung Tawas",
   "District_ZH": "近打 ",
   "District_MY": "Kinta",
   "State_ZH": "霹雳",
   "State_MY": "Perak",
   "Founding_Year": 1951,
   "latlng": "4°38′54″N 101°06′01″E",
   "lat": "4.6483333333333325",
   "lng": "101.10027777777778"
 },
 {
   "Name_ZH": "甘榜地马",
   "Name_MY": "Kampung Timah",
   "District_ZH": "近打 ",
   "District_MY": "Kinta",
   "State_ZH": "霹雳",
   "State_MY": "Perak",
   "Founding_Year": 1951,
   "latlng": "4°16′58″N 101°03′13″E",
   "lat": "4.282777777777778",
   "lng": "101.05361111111111"
 },
 {
   "Name_ZH": "拱桥",
   "Name_MY": "Kanthan Bharu",
   "District_ZH": "近打 ",
   "District_MY": "Kinta",
   "State_ZH": "霹雳",
   "State_MY": "Perak",
   "Founding_Year": 1951,
   "latlng": "4°44′30″N 101°07′06″E",
   "lat": "4.741666666666667",
   "lng": "101.11833333333333"
 },
 {
   "Name_ZH": "瓜拉光",
   "Name_MY": "Kuala Kuang",
   "District_ZH": "近打 ",
   "District_MY": "Kinta",
   "State_ZH": "霹雳",
   "State_MY": "Perak",
   "Founding_Year": 1951,
   "latlng": "4°44′30″N 101°07′06″E",
   "lat": "4.741666666666667",
   "lng": "101.11833333333333"
 },
 {
   "Name_ZH": "拿乞",
   "Name_MY": "Lahat",
   "District_ZH": "近打 ",
   "District_MY": "Kinta",
   "State_ZH": "霹雳",
   "State_MY": "Perak",
   "Founding_Year": 1950,
   "latlng": "4°32′17″N 101°02′14″E",
   "lat": "4.538055555555555",
   "lng": "101.03722222222223"
 },
 {
   "Name_ZH": " 林旦",
   "Name_MY": "Lim Tan",
   "District_ZH": "近打 ",
   "District_MY": "Kinta",
   "State_ZH": "霹雳",
   "State_MY": "Perak",
   "Founding_Year": 1950,
   "latlng": "4°39′32″N 101°09′27″E",
   "lat": "4.658888888888889",
   "lng": "101.1575"
 },
 {
   "Name_ZH": "万里望",
   "Name_MY": "Menglembu",
   "District_ZH": "近打 ",
   "District_MY": "Kinta",
   "State_ZH": "霹雳",
   "State_MY": "Perak",
   "Founding_Year": 1951,
   "latlng": "4°39′32″N 101°09′27″E",
   "lat": "4.658888888888889",
   "lng": "101.1575"
 },
 {
   "Name_ZH": "那拉",
   "Name_MY": "Nalla",
   "District_ZH": "近打 ",
   "District_MY": "Kinta",
   "State_ZH": "霹雳",
   "State_MY": "Perak",
   "Founding_Year": 1951,
   "latlng": "4°25′22″N 100°58′37″E",
   "lat": "4.422777777777778",
   "lng": "100.97694444444444"
 },
 {
   "Name_ZH": "甲板",
   "Name_MY": "Papan",
   "District_ZH": "近打 ",
   "District_MY": "Kinta",
   "State_ZH": "霹雳",
   "State_MY": "Perak",
   "Founding_Year": 1950,
   "latlng": "4°30′54″N 101°00′44″E",
   "lat": "4.515",
   "lng": "101.01222222222222"
 },
 {
   "Name_ZH": "新甲板",
   "Name_MY": "Papan Baru",
   "District_ZH": "近打 ",
   "District_MY": "Kinta",
   "State_ZH": "霹雳",
   "State_MY": "Perak",
   "Founding_Year": 1957,
   "latlng": "4°30′12″N 101°00′58″E",
   "lat": "4.503333333333333",
   "lng": "101.01611111111112"
 },
 {
   "Name_ZH": "兵如港",
   "Name_MY": "Pasir Pinji",
   "District_ZH": "近打 ",
   "District_MY": "Kinta",
   "State_ZH": "霹雳",
   "State_MY": "Perak",
   "Founding_Year": 1950,
   "latlng": "4°34′29″N 101°05′19″E",
   "lat": "4.574722222222222",
   "lng": "101.0886111111111"
 },
 {
   "Name_ZH": "新邦波赖",
   "Name_MY": "Simpang Pulai",
   "District_ZH": "近打 ",
   "District_MY": "Kinta",
   "State_ZH": "霹雳",
   "State_MY": "Perak",
   "Founding_Year": 1951,
   "latlng": "4°31′49″N 101°07′33″E",
   "lat": "4.530277777777778",
   "lng": "101.12583333333333"
 },
 {
   "Name_ZH": "双溪榴莲",
   "Name_MY": "Sungai Durian",
   "District_ZH": "近打 ",
   "District_MY": "Kinta",
   "State_ZH": "霹雳",
   "State_MY": "Perak",
   "Founding_Year": 1951,
   "latlng": "4°19′05″N 101°02′07″E",
   "lat": "4.3180555555555555",
   "lng": "101.03527777777778"
 },
 {
   "Name_ZH": "打扪",
   "Name_MY": "Tambun",
   "District_ZH": "近打 ",
   "District_MY": "Kinta",
   "State_ZH": "霹雳",
   "State_MY": "Perak",
   "Founding_Year": 1952,
   "latlng": "4°36′27″N 101°08′16″E",
   "lat": "4.6075",
   "lng": "101.13777777777779"
 },
 {
   "Name_ZH": "丹那依淡",
   "Name_MY": "Tanah Hitam",
   "District_ZH": "近打 ",
   "District_MY": "Kinta",
   "State_ZH": "霹雳",
   "State_MY": "Perak",
   "Founding_Year": 1951,
   "latlng": "4°43′40″N 101°08′33″E",
   "lat": "4.727777777777778",
   "lng": "101.14250000000001"
 },
 {
   "Name_ZH": "红毛丹",
   "Name_MY": "Tanjong Rambutan RA",
   "District_ZH": "近打 ",
   "District_MY": "Kinta",
   "State_ZH": "霹雳",
   "State_MY": "Perak",
   "Founding_Year": 1950,
   "latlng": "4°40′12.54″N 101°9′16.94″E",
   "lat": "4.67",
   "lng": "101.15444444444445"
 },
 {
   "Name_ZH": "督亚冷",
   "Name_MY": "Tanjong Tualang",
   "District_ZH": "近打 ",
   "District_MY": "Kinta",
   "State_ZH": "霹雳",
   "State_MY": "Perak",
   "Founding_Year": 1950,
   "latlng": "4°19′34″N 101°03′26″E",
   "lat": "4.326111111111111",
   "lng": "101.05722222222222"
 },
 {
   "Name_ZH": "瑶伦",
   "Name_MY": "Jerlun",
   "District_ZH": "江沙",
   "District_MY": "Kuala Kangsar",
   "State_ZH": "霹雳",
   "State_MY": "Perak",
   "Founding_Year": 1952,
   "latlng": "4°43′58″N 100°54′36″E",
   "lat": "4.732777777777778",
   "lng": "100.91000000000001"
 },
 {
   "Name_ZH": "永梧",
   "Name_MY": "Kati",
   "District_ZH": "江沙",
   "District_MY": "Kuala Kangsar",
   "State_ZH": "霹雳",
   "State_MY": "Perak",
   "Founding_Year": 1950,
   "latlng": "4°52′34″N 100°54′25″E",
   "lat": "4.876111111111111",
   "lng": "100.90694444444445"
 },
 {
   "Name_ZH": "叻沙",
   "Name_MY": "Lasah",
   "District_ZH": "江沙",
   "District_MY": "Kuala Kangsar",
   "State_ZH": "霹雳",
   "State_MY": "Perak",
   "Founding_Year": 1951,
   "latlng": "4°57′19″N 101°07′18″E",
   "lat": "4.955277777777778",
   "lng": "101.12166666666666"
 },
 {
   "Name_ZH": "利民加地",
   "Name_MY": "Liman Kati",
   "District_ZH": "江沙",
   "District_MY": "Kuala Kangsar",
   "State_ZH": "霹雳",
   "State_MY": "Perak",
   "Founding_Year": 1951,
   "latlng": "4°51′06″N 100°54′06″E",
   "lat": "4.851666666666667",
   "lng": "100.90166666666667"
 },
 {
   "Name_ZH": "连登",
   "Name_MY": "Lintang",
   "District_ZH": "江沙",
   "District_MY": "Kuala Kangsar",
   "State_ZH": "霹雳",
   "State_MY": "Perak",
   "Founding_Year": 1950,
   "latlng": "4°56′19″N 101°06′08″E",
   "lat": "4.938611111111111",
   "lng": "101.10222222222221"
 },
 {
   "Name_ZH": "万浓",
   "Name_MY": "Manong",
   "District_ZH": "江沙",
   "District_MY": "Kuala Kangsar",
   "State_ZH": "霹雳",
   "State_MY": "Perak",
   "Founding_Year": 1954,
   "latlng": "4°35′38″N 100°52′53″E",
   "lat": "4.5938888888888885",
   "lng": "100.88138888888888"
 },
 {
   "Name_ZH": "硝山",
   "Name_MY": "Padang Rengas",
   "District_ZH": "江沙",
   "District_MY": "Kuala Kangsar",
   "State_ZH": "霹雳",
   "State_MY": "Perak",
   "Founding_Year": 1952,
   "latlng": "4°46′27″N 100°50′33″E",
   "lat": "4.774166666666667",
   "lng": "100.8425"
 },
 {
   "Name_ZH": "林马班让",
   "Name_MY": "Rimba Panjang",
   "District_ZH": "江沙",
   "District_MY": "Kuala Kangsar",
   "State_ZH": "霹雳",
   "State_MY": "Perak",
   "Founding_Year": 1951,
   "latlng": "4°47′52″N 101°06′04″E",
   "lat": "4.797777777777777",
   "lng": "101.10111111111111"
 },
 {
   "Name_ZH": "新沙力",
   "Name_MY": "Salak Baharu",
   "District_ZH": "江沙",
   "District_MY": "Kuala Kangsar",
   "State_ZH": "霹雳",
   "State_MY": "Perak",
   "Founding_Year": 1950,
   "latlng": "4°50′30″N 100°59′37″E",
   "lat": "4.841666666666667",
   "lng": "100.99361111111111"
 },
 {
   "Name_ZH": "沙力北",
   "Name_MY": "Salak Utara",
   "District_ZH": "江沙",
   "District_MY": "Kuala Kangsar",
   "State_ZH": "霹雳",
   "State_MY": "Perak",
   "Founding_Year": 1950,
   "latlng": "4°50′05″N 101°00′30″E",
   "lat": "4.834722222222222",
   "lng": "101.00833333333334"
 },
 {
   "Name_ZH": "新寿活新村",
   "Name_MY": "Sauk",
   "District_ZH": "江沙",
   "District_MY": "Kuala Kangsar",
   "State_ZH": "霹雳",
   "State_MY": "Perak",
   "Founding_Year": 1950,
   "latlng": "4°56′05″N 100°55′16″E",
   "lat": "4.934722222222223",
   "lng": "100.92111111111112"
 },
 {
   "Name_ZH": "竹芭",
   "Name_MY": "Sungai Buluh",
   "District_ZH": "江沙",
   "District_MY": "Kuala Kangsar",
   "State_ZH": "霹雳",
   "State_MY": "Perak",
   "Founding_Year": 1951,
   "latlng": "4°49′13″N 101°03′47″E",
   "lat": "4.820277777777777",
   "lng": "101.06305555555555"
 },
 {
   "Name_ZH": "新邦也郎",
   "Name_MY": "Simpang Jalong",
   "District_ZH": "江沙",
   "District_MY": "Kuala Kangsar",
   "State_ZH": "霹雳",
   "State_MY": "Perak",
   "Founding_Year": 1952,
   "latlng": "4°49′23″N 101°05′31″E",
   "lat": "4.823055555555555",
   "lng": "101.09194444444444"
 },
 {
   "Name_ZH": "亚逸都润",
   "Name_MY": "Ayer Terjun",
   "District_ZH": "拉律马当 ",
   "District_MY": "Larut Matang",
   "State_ZH": "霹雳",
   "State_MY": "Perak",
   "Founding_Year": 1950,
   "latlng": "4°38′33.9″N 100°42′40.4″E",
   "lat": "4.642499999999999",
   "lng": "100.71111111111111"
 },
 {
   "Name_ZH": "后廊",
   "Name_MY": "Aulong",
   "District_ZH": "拉律马当 ",
   "District_MY": "Larut Matang",
   "State_ZH": "霹雳",
   "State_MY": "Perak",
   "Founding_Year": 1952,
   "latlng": "4°51′11.5″N 100°42′45.9″E",
   "lat": "4.853055555555555",
   "lng": "100.7125"
 },
 {
   "Name_ZH": "峇都古楼",
   "Name_MY": "Batu Kurau",
   "District_ZH": "拉律马当 ",
   "District_MY": "Larut Matang",
   "State_ZH": "霹雳",
   "State_MY": "Perak",
   "Founding_Year": 1956,
   "latlng": "4°58′29.4″N 100°47′58.6″E",
   "lat": "4.974722222222223",
   "lng": "100.79944444444445"
 },
 {
   "Name_ZH": "新路口",
   "Name_MY": "Changkat Jering",
   "District_ZH": "拉律马当 ",
   "District_MY": "Larut Matang",
   "State_ZH": "霹雳",
   "State_MY": "Perak",
   "Founding_Year": 1950,
   "latlng": "4°47′27.4″N 100°43′13.7″E",
   "lat": "4.7908333333333335",
   "lng": "100.72027777777778"
 },
 {
   "Name_ZH": "日睐",
   "Name_MY": "Jelai",
   "District_ZH": "拉律马当 ",
   "District_MY": "Larut Matang",
   "State_ZH": "霹雳",
   "State_MY": "Perak",
   "Founding_Year": 1952,
   "latlng": "5°00′43.2″N 100°48′37.9″E",
   "lat": "5.0119444444444445",
   "lng": "100.81027777777777"
 },
 {
   "Name_ZH": "甘文丁",
   "Name_MY": "Kamunting",
   "District_ZH": "拉律马当 ",
   "District_MY": "Larut Matang",
   "State_ZH": "霹雳",
   "State_MY": "Perak",
   "Founding_Year": 1956,
   "latlng": "4°53′27.6″N 100°44′05.1″E",
   "lat": "4.890833333333333",
   "lng": "100.73472222222222"
 },
 {
   "Name_ZH": "甘榜槟榔",
   "Name_MY": "Kampung Pinang",
   "District_ZH": "拉律马当 ",
   "District_MY": "Larut Matang",
   "State_ZH": "霹雳",
   "State_MY": "Perak",
   "Founding_Year": 1956,
   "latlng": "4°53′00.7″N 100°43′34.6″E",
   "lat": "4.883333333333333",
   "lng": "100.72611111111111"
 },
 {
   "Name_ZH": "瓜拉十八丁",
   "Name_MY": "Kuala Sepetang",
   "District_ZH": "拉律马当 ",
   "District_MY": "Larut Matang",
   "State_ZH": "霹雳",
   "State_MY": "Perak",
   "Founding_Year": 1952,
   "latlng": "4°50′18.7″N 100°37′44.6″E",
   "lat": "4.838333333333333",
   "lng": "100.62888888888888"
 },
 {
   "Name_ZH": "古武加牙",
   "Name_MY": "Kubu Gajah",
   "District_ZH": "拉律马当 ",
   "District_MY": "Larut Matang",
   "State_ZH": "霹雳",
   "State_MY": "Perak",
   "Founding_Year": 1950,
   "latlng": "5°09′51.7″N 100°40′35.5″E",
   "lat": "5.1641666666666675",
   "lng": "100.6763888888889"
 },
 {
   "Name_ZH": "马登",
   "Name_MY": "Matang",
   "District_ZH": "拉律马当 ",
   "District_MY": "Larut Matang",
   "State_ZH": "霹雳",
   "State_MY": "Perak",
   "Founding_Year": 1950,
   "latlng": "4°49′11.4″N 100°40′16.2″E",
   "lat": "4.819722222222222",
   "lng": "100.67111111111112"
 },
 {
   "Name_ZH": "峇登牙也",
   "Name_MY": "Padang Gajah",
   "District_ZH": "拉律马当 ",
   "District_MY": "Larut Matang",
   "State_ZH": "霹雳",
   "State_MY": "Perak",
   "Founding_Year": 1954,
   "latlng": "4°36′54.3″N 100°42′59″E",
   "lat": "4.614999999999999",
   "lng": "100.71638888888889"
 },
 {
   "Name_ZH": "大直弄",
   "Name_MY": "Pasir Hitam",
   "District_ZH": "拉律马当 ",
   "District_MY": "Larut Matang",
   "State_ZH": "霹雳",
   "State_MY": "Perak",
   "Founding_Year": 1950,
   "latlng": "4°38′51.1″N 100°36′56.4″E",
   "lat": "4.6475",
   "lng": "100.61555555555555"
 },
 {
   "Name_ZH": "保阁亚三",
   "Name_MY": "Pokok Assam",
   "District_ZH": "拉律马当 ",
   "District_MY": "Larut Matang",
   "State_ZH": "霹雳",
   "State_MY": "Perak",
   "Founding_Year": 1951,
   "latlng": "4°49′42.3″N 100°44′18.4″E",
   "lat": "4.828333333333333",
   "lng": "100.73833333333333"
 },
 {
   "Name_ZH": "拿都班央",
   "Name_MY": "Rantau Panjang",
   "District_ZH": "拉律马当 ",
   "District_MY": "Larut Matang",
   "State_ZH": "霹雳",
   "State_MY": "Perak",
   "Founding_Year": 1950,
   "latlng": "5°14′25″N 100°43′49.4″E",
   "lat": "5.240277777777778",
   "lng": "100.73027777777779"
 },
 {
   "Name_ZH": "连登班央",
   "Name_MY": "Redang Panjang",
   "District_ZH": "拉律马当 ",
   "District_MY": "Larut Matang",
   "State_ZH": "霹雳",
   "State_MY": "Perak",
   "Founding_Year": 1950,
   "latlng": "5°06′56.9″N 100°46′59.2″E",
   "lat": "5.115555555555555",
   "lng": "100.78305555555555"
 },
 {
   "Name_ZH": "双溪古隆",
   "Name_MY": "Sungai Kerang",
   "District_ZH": "拉律马当 ",
   "District_MY": "Larut Matang",
   "State_ZH": "霹雳",
   "State_MY": "Perak",
   "Founding_Year": 1952,
   "latlng": "4°35′46.6″N 100°40′54.3″E",
   "lat": "4.596111111111111",
   "lng": "100.68166666666667"
 },
 {
   "Name_ZH": "双溪罗丹",
   "Name_MY": "Sungai Rotan",
   "District_ZH": "拉律马当 ",
   "District_MY": "Larut Matang",
   "State_ZH": "霹雳",
   "State_MY": "Perak",
   "Founding_Year": 1950,
   "latlng": "4°33′21.5″N 100°44′05″E",
   "lat": "4.555833333333333",
   "lng": "100.73472222222222"
 },
 {
   "Name_ZH": "双溪达立",
   "Name_MY": "Sungai Terap",
   "District_ZH": "拉律马当 ",
   "District_MY": "Larut Matang",
   "State_ZH": "霹雳",
   "State_MY": "Perak",
   "Founding_Year": 1950,
   "latlng": "5°12′12.6″N 100°41′01.0″E",
   "lat": "5.203333333333333",
   "lng": "100.68361111111112"
 },
 {
   "Name_ZH": " 新板 ",
   "Name_MY": "Simpang",
   "District_ZH": "拉律马当 ",
   "District_MY": "Larut Matang",
   "State_ZH": "霹雳",
   "State_MY": "Perak",
   "Founding_Year": 1952,
   "latlng": "4°49′13.2″N 100°42′37.5″E",
   "lat": "4.820277777777777",
   "lng": "100.71027777777778"
 },
 {
   "Name_ZH": "淡布落",
   "Name_MY": "Temerloh",
   "District_ZH": "拉律马当 ",
   "District_MY": "Larut Matang",
   "State_ZH": "霹雳",
   "State_MY": "Perak",
   "Founding_Year": 1950,
   "latlng": "4°39′06.3″N 100°41′33.8″E",
   "lat": "4.651666666666667",
   "lng": "100.69250000000001"
 },
 {
   "Name_ZH": "直弄",
   "Name_MY": "Terung",
   "District_ZH": "拉律马当 ",
   "District_MY": "Larut Matang",
   "State_ZH": "霹雳",
   "State_MY": "Perak",
   "Founding_Year": 1952,
   "latlng": "4°42′28.9″N 100°43′12.9″E",
   "lat": "4.707777777777778",
   "lng": "100.72"
 },
 {
   "Name_ZH": "爱大华",
   "Name_MY": "Ayer Tawar",
   "District_ZH": "曼绒",
   "District_MY": "Manjung",
   "State_ZH": "霹雳",
   "State_MY": "Perak",
   "Founding_Year": 1951,
   "latlng": "4°17′38″N 100°45′33″E",
   "lat": "4.293888888888889",
   "lng": "100.75916666666667"
 },
 {
   "Name_ZH": "木歪",
   "Name_MY": "Beruas",
   "District_ZH": "曼绒",
   "District_MY": "Manjung",
   "State_ZH": "霹雳",
   "State_MY": "Perak",
   "Founding_Year": 1951,
   "latlng": "4°29′56″N 100°47′26″E",
   "lat": "4.498888888888889",
   "lng": "100.79055555555556"
 },
 {
   "Name_ZH": "莫珍歪",
   "Name_MY": "Changkat Keruing",
   "District_ZH": "曼绒",
   "District_MY": "Manjung",
   "State_ZH": "霹雳",
   "State_MY": "Perak",
   "Founding_Year": 1951,
   "latlng": "4°22′38″N 100°41′12″E",
   "lat": "4.377222222222222",
   "lng": "100.68666666666667"
 },
 {
   "Name_ZH": "福清洋",
   "Name_MY": "Kampung Cina Sitiawan",
   "District_ZH": "曼绒",
   "District_MY": "Manjung",
   "State_ZH": "霹雳",
   "State_MY": "Perak",
   "Founding_Year": 1951,
   "latlng": "4°11′39″N 100°41′07″E",
   "lat": "4.194166666666667",
   "lng": "100.68527777777778"
 },
 {
   "Name_ZH": "哲仁新村",
   "Name_MY": "Kampung Jering",
   "District_ZH": "曼绒",
   "District_MY": "Manjung",
   "State_ZH": "霹雳",
   "State_MY": "Perak",
   "Founding_Year": 1951,
   "latlng": "4°20′47″N 100°46′41″E",
   "lat": "4.346388888888889",
   "lng": "100.77805555555555"
 },
 {
   "Name_ZH": "甘文阁",
   "Name_MY": "Kampung Koh",
   "District_ZH": "曼绒",
   "District_MY": "Manjung",
   "State_ZH": "霹雳",
   "State_MY": "Perak",
   "Founding_Year": 1951,
   "latlng": "4°11′19″N 100°42′19″E",
   "lat": "4.188611111111111",
   "lng": "100.70527777777778"
 },
 {
   "Name_ZH": "甘榜马坡",
   "Name_MY": "Kampung Merbau",
   "District_ZH": "曼绒",
   "District_MY": "Manjung",
   "State_ZH": "霹雳",
   "State_MY": "Perak",
   "Founding_Year": 1951,
   "latlng": "4°20′05″N 100°43′48″E",
   "lat": "4.334722222222222",
   "lng": "100.73"
 },
 {
   "Name_ZH": "葛尼市",
   "Name_MY": "Pekan Gurney",
   "District_ZH": "曼绒",
   "District_MY": "Manjung",
   "State_ZH": "霹雳",
   "State_MY": "Perak",
   "Founding_Year": 1951,
   "latlng": "4°13′21″N 100°44′39″E",
   "lat": "4.2225",
   "lng": "100.74416666666667"
 },
 {
   "Name_ZH": "拉惹依淡",
   "Name_MY": "Pekan Gurney",
   "District_ZH": "曼绒",
   "District_MY": "Manjung",
   "State_ZH": "霹雳",
   "State_MY": "Perak",
   "Founding_Year": 1951,
   "latlng": "4°20′12″N 100°45′02″E",
   "lat": "4.336666666666666",
   "lng": "100.75055555555555"
 },
 {
   "Name_ZH": "二条路",
   "Name_MY": "Simpang Dua",
   "District_ZH": "曼绒",
   "District_MY": "Manjung",
   "State_ZH": "霹雳",
   "State_MY": "Perak",
   "Founding_Year": 1951,
   "latlng": "4°12′08″N 100°43′50″E",
   "lat": "4.202222222222223",
   "lng": "100.73055555555555"
 },
 {
   "Name_ZH": "五条路",
   "Name_MY": "Simpang Lima",
   "District_ZH": "曼绒",
   "District_MY": "Manjung",
   "State_ZH": "霹雳",
   "State_MY": "Perak",
   "Founding_Year": 1951,
   "latlng": "4°14′51″N 100°45′31″E",
   "lat": "4.2475000000000005",
   "lng": "100.75861111111111"
 },
 {
   "Name_ZH": "双溪峇都",
   "Name_MY": "Sungai Batu",
   "District_ZH": "曼绒",
   "District_MY": "Manjung",
   "State_ZH": "霹雳",
   "State_MY": "Perak",
   "Founding_Year": 1951,
   "latlng": "4°25′54″N 100°39′21″E",
   "lat": "4.431666666666667",
   "lng": "100.65583333333333"
 },
 {
   "Name_ZH": "甲洞乌鲁",
   "Name_MY": "Kepong Ulu",
   "District_ZH": "鹅唛",
   "District_MY": "Gombak",
   "State_ZH": "雪兰莪",
   "State_MY": "Selangor",
   "Founding_Year": 1950,
   "latlng": "3.227997°N 101.634236°E",
   "lat": "3.227997",
   "lng": "101.634236"
 },
 {
   "Name_ZH": "淡江",
   "Name_MY": "Kuala Ampang",
   "District_ZH": "鹅唛",
   "District_MY": "Gombak",
   "State_ZH": "雪兰莪",
   "State_MY": "Selangor",
   "Founding_Year": 1951,
   "latlng": "3.166321°N 101.748297°E",
   "lat": "3.166321",
   "lng": "101.748297"
 },
 {
   "Name_ZH": "根登",
   "Name_MY": "Kundang",
   "District_ZH": "鹅唛",
   "District_MY": "Gombak",
   "State_ZH": "雪兰莪",
   "State_MY": "Selangor",
   "Founding_Year": 1951,
   "latlng": "3.277790°N 101.513263°E",
   "lat": "3.277790",
   "lng": "101.513263"
 },
 {
   "Name_ZH": "万挠",
   "Name_MY": "Sungai Terentang",
   "District_ZH": "鹅唛",
   "District_MY": "Gombak",
   "State_ZH": "雪兰莪",
   "State_MY": "Selangor",
   "Founding_Year": 1951,
   "latlng": "3.308919°N 101.586184°E",
   "lat": "3.308919",
   "lng": "101.586184"
 },
 {
   "Name_ZH": "轰埠",
   "Name_MY": "Kuang",
   "District_ZH": "鹅唛",
   "District_MY": "Gombak",
   "State_ZH": "雪兰莪",
   "State_MY": "Selangor",
   "Founding_Year": 1950,
   "latlng": "3.254349°N 101.553343°E",
   "lat": "3.254349",
   "lng": "101.553343"
 },
 {
   "Name_ZH": "煤炭山",
   "Name_MY": "Batu Arang",
   "District_ZH": "鹅唛",
   "District_MY": "Gombak",
   "State_ZH": "雪兰莪",
   "State_MY": "Selangor",
   "Founding_Year": null,
   "latlng": "3.315147°N 101.470195°E",
   "lat": "3.315147",
   "lng": "101.470195"
 },
 {
   "Name_ZH": "拿督李金狮村",
   "Name_MY": "Dato′ Lee Kim Sai",
   "District_ZH": "鹅唛",
   "District_MY": "Gombak",
   "State_ZH": "雪兰莪",
   "State_MY": "Selangor",
   "Founding_Year": null,
   "latlng": "3.309920°N 101.577165°E",
   "lat": "3.309920",
   "lng": "101.577165"
 },
 {
   "Name_ZH": "太平村",
   "Name_MY": "Desa Aman",
   "District_ZH": "鹅唛",
   "District_MY": "Gombak",
   "State_ZH": "雪兰莪",
   "State_MY": "Selangor",
   "Founding_Year": null,
   "latlng": "3.204432°N 101.595561°E",
   "lat": "3.204432",
   "lng": "101.595561"
 },
 {
   "Name_ZH": "瓜拉加冷",
   "Name_MY": "Desa Kuala Garing",
   "District_ZH": "鹅唛",
   "District_MY": "Gombak",
   "State_ZH": "雪兰莪",
   "State_MY": "Selangor",
   "Founding_Year": null,
   "latlng": "3.338629°N 101.563273°E",
   "lat": "3.338629",
   "lng": "101.563273"
 },
 {
   "Name_ZH": "瓜拉加冷南区",
   "Name_MY": "Kuala Garing Selatan",
   "District_ZH": "鹅唛",
   "District_MY": "Gombak",
   "State_ZH": "雪兰莪",
   "State_MY": "Selangor",
   "Founding_Year": null,
   "latlng": "3.31715°N 101.56535°E",
   "lat": "3.31715",
   "lng": "101.56535"
 },
 {
   "Name_ZH": "林旦村",
   "Name_MY": "Lim Tan",
   "District_ZH": "鹅唛",
   "District_MY": "Gombak",
   "State_ZH": "雪兰莪",
   "State_MY": "Selangor",
   "Founding_Year": null,
   "latlng": "3.326609°N 101.571753°E",
   "lat": "3.326609",
   "lng": "101.571753"
 },
 {
   "Name_ZH": "甘榜拉惹",
   "Name_MY": "Kampung Rajah",
   "District_ZH": "鹅唛",
   "District_MY": "Gombak",
   "State_ZH": "雪兰莪",
   "State_MY": "Selangor",
   "Founding_Year": null,
   "latlng": "3.323544°N 101.573420°E",
   "lat": "3.323544",
   "lng": "101.573420"
 },
 {
   "Name_ZH": "拉旺丁",
   "Name_MY": "Rawang Tin",
   "District_ZH": "鹅唛",
   "District_MY": "Gombak",
   "State_ZH": "雪兰莪",
   "State_MY": "Selangor",
   "Founding_Year": null,
   "latlng": "3.318147°N 101.572836°E",
   "lat": "3.318147",
   "lng": "101.572836"
 },
 {
   "Name_ZH": "美丽村",
   "Name_MY": "Sri Indah",
   "District_ZH": "鹅唛",
   "District_MY": "Gombak",
   "State_ZH": "雪兰莪",
   "State_MY": "Selangor",
   "Founding_Year": null,
   "latlng": "3.228439°N 101.575736°E",
   "lat": "3.228439",
   "lng": "101.575736"
 },
 {
   "Name_ZH": "双溪巴高",
   "Name_MY": "Sungai Bakau (A, B dan C)",
   "District_ZH": "鹅唛",
   "District_MY": "Gombak",
   "State_ZH": "雪兰莪",
   "State_MY": "Selangor",
   "Founding_Year": null,
   "latlng": "3.320796°N 101.530739°E",
   "lat": "3.320796",
   "lng": "101.530739"
 },
 {
   "Name_ZH": "双溪都亚",
   "Name_MY": "Sungai Dua",
   "District_ZH": "鹅唛",
   "District_MY": "Gombak",
   "State_ZH": "雪兰莪",
   "State_MY": "Selangor",
   "Founding_Year": null,
   "latlng": "3.312644°N 101.561630°E",
   "lat": "3.312644",
   "lng": "101.561630"
 },
 {
   "Name_ZH": "班达马兰",
   "Name_MY": "Pendamaran",
   "District_ZH": "巴生",
   "District_MY": "Klang",
   "State_ZH": "雪兰莪",
   "State_MY": "Selangor",
   "Founding_Year": 1952,
   "latlng": "3.00801°N 101.41338°E",
   "lat": "3.00801",
   "lng": "101.41338"
 },
 {
   "Name_ZH": "海南村",
   "Name_MY": "Bagan Hailam",
   "District_ZH": "巴生",
   "District_MY": "Klang",
   "State_ZH": "雪兰莪",
   "State_MY": "Selangor",
   "Founding_Year": null,
   "latlng": "3.00243°N 101.38657°E",
   "lat": "3.00243",
   "lng": "101.38657"
 },
 {
   "Name_ZH": "五条港",
   "Name_MY": "Bagan Sungai Lima",
   "District_ZH": "巴生",
   "District_MY": "Klang",
   "State_ZH": "雪兰莪",
   "State_MY": "Selangor",
   "Founding_Year": null,
   "latlng": "3.03984°N 101.27830°E",
   "lat": "3.03984",
   "lng": "101.27830"
 },
 {
   "Name_ZH": "吉胆岛",
   "Name_MY": "Pulau Ketam",
   "District_ZH": "巴生",
   "District_MY": "Klang",
   "State_ZH": "雪兰莪",
   "State_MY": "Selangor",
   "Founding_Year": null,
   "latlng": "3.0214°N 101.25245°E",
   "lat": "3.0214",
   "lng": "101.25245"
 },
 {
   "Name_ZH": "仁嘉隆",
   "Name_MY": "Jenjarom",
   "District_ZH": "瓜拉冷岳",
   "District_MY": "Kuala Langat",
   "State_ZH": "雪兰莪",
   "State_MY": "Selangor",
   "Founding_Year": 1950,
   "latlng": "2.87669°N 101.49613°E",
   "lat": "2.87669",
   "lng": "101.49613"
 },
 {
   "Name_ZH": "丹绒士拔",
   "Name_MY": "Tanjong Sepat",
   "District_ZH": "瓜拉冷岳",
   "District_MY": "Kuala Langat",
   "State_ZH": "雪兰莪",
   "State_MY": "Selangor",
   "Founding_Year": 1950,
   "latlng": "2.65969°N 101.55989°E",
   "lat": "2.65969",
   "lng": "101.55989"
 },
 {
   "Name_ZH": "依约",
   "Name_MY": "Ijok Baru",
   "District_ZH": "瓜拉雪兰莪",
   "District_MY": "Kuala Selangor",
   "State_ZH": "雪兰莪",
   "State_MY": "Selangor",
   "Founding_Year": null,
   "latlng": "3.31610°N 101.41404°E",
   "lat": "3.31610",
   "lng": "101.41404"
 },
 {
   "Name_ZH": "八丁燕带",
   "Name_MY": "Batang Berjuntai",
   "District_ZH": "瓜拉雪兰莪",
   "District_MY": "Kuala Selangor",
   "State_ZH": "雪兰莪",
   "State_MY": "Selangor",
   "Founding_Year": null,
   "latlng": "3.37795°N 101.40717°E",
   "lat": "3.37795",
   "lng": "101.40717"
 },
 {
   "Name_ZH": "峇东",
   "Name_MY": "Tiram Setia",
   "District_ZH": "瓜拉雪兰莪",
   "District_MY": "Kuala Selangor",
   "State_ZH": "雪兰莪",
   "State_MY": "Selangor",
   "Founding_Year": null,
   "latlng": "3.42652°N 101.24703°E",
   "lat": "3.42652",
   "lng": "101.24703"
 },
 {
   "Name_ZH": "峇眼巴西",
   "Name_MY": "Bagan Pasir",
   "District_ZH": "瓜拉雪兰莪",
   "District_MY": "Kuala Selangor",
   "State_ZH": "雪兰莪",
   "State_MY": "Selangor",
   "Founding_Year": null,
   "latlng": "3.40143°N 101.17098°E",
   "lat": "3.40143",
   "lng": "101.17098"
 },
 {
   "Name_ZH": "巴西不南邦",
   "Name_MY": "Bagan Pasir Penambang",
   "District_ZH": "瓜拉雪兰莪",
   "District_MY": "Kuala Selangor",
   "State_ZH": "雪兰莪",
   "State_MY": "Selangor",
   "Founding_Year": null,
   "latlng": "3.34753°N 101.25268°E",
   "lat": "3.34753",
   "lng": "101.25268"
 },
 {
   "Name_ZH": "沙沙兰",
   "Name_MY": "Bagan Sasaran (Sungai Buloh)",
   "District_ZH": "瓜拉雪兰莪",
   "District_MY": "Kuala Selangor",
   "State_ZH": "雪兰莪",
   "State_MY": "Selangor",
   "Founding_Year": null,
   "latlng": "3.25878°N 101.30479°E",
   "lat": "3.25878",
   "lng": "101.30479"
 },
 {
   "Name_ZH": "双溪章谷",
   "Name_MY": "Bagan Sungai Janggut",
   "District_ZH": "瓜拉雪兰莪",
   "District_MY": "Kuala Selangor",
   "State_ZH": "雪兰莪",
   "State_MY": "Selangor",
   "Founding_Year": null,
   "latlng": "3.17327°N 101.31047°E",
   "lat": "3.17327",
   "lng": "101.31047"
 },
 {
   "Name_ZH": "双溪加江",
   "Name_MY": "Bagan Sungai Kajang",
   "District_ZH": "瓜拉雪兰莪",
   "District_MY": "Kuala Selangor",
   "State_ZH": "雪兰莪",
   "State_MY": "Selangor",
   "Founding_Year": null,
   "latlng": "3.40163°N 101.16918°E",
   "lat": "3.40163",
   "lng": "101.16918"
 },
 {
   "Name_ZH": "东姑腊",
   "Name_MY": "Bagan Sungai Tengkorak",
   "District_ZH": "瓜拉雪兰莪",
   "District_MY": "Kuala Selangor",
   "State_ZH": "雪兰莪",
   "State_MY": "Selangor",
   "Founding_Year": null,
   "latlng": "3.44910°N 101.13439°E",
   "lat": "3.44910",
   "lng": "101.13439"
 },
 {
   "Name_ZH": "双溪由",
   "Name_MY": "Bagan Sungai Yu Baru",
   "District_ZH": "瓜拉雪兰莪",
   "District_MY": "Kuala Selangor",
   "State_ZH": "雪兰莪",
   "State_MY": "Selangor",
   "Founding_Year": null,
   "latlng": "3.35389°N 101.24805°E",
   "lat": "3.35389",
   "lng": "101.24805"
 },
 {
   "Name_ZH": "蒲种十四哩",
   "Name_MY": "Batu 14, Puchong",
   "District_ZH": "八打灵",
   "District_MY": "Petaling",
   "State_ZH": "雪兰莪",
   "State_MY": "Selangor",
   "Founding_Year": 1950,
   "latlng": "2.99430°N 101.62313°E",
   "lat": "2.99430",
   "lng": "101.62313"
 },
 {
   "Name_ZH": "白沙罗",
   "Name_MY": "Damansara",
   "District_ZH": "八打灵",
   "District_MY": "Petaling",
   "State_ZH": "雪兰莪",
   "State_MY": "Selangor",
   "Founding_Year": 1950,
   "latlng": "3.12952°N 101.63248°E",
   "lat": "3.12952",
   "lng": "101.63248"
 },
 {
   "Name_ZH": "史里肯邦安（沙登",
   "Name_MY": "Seri Kembangan (Serdang)",
   "District_ZH": "八打灵",
   "District_MY": "Petaling",
   "State_ZH": "雪兰莪",
   "State_MY": "Selangor",
   "Founding_Year": 1950,
   "latlng": "3.02523°N 101.70299°E",
   "lat": "3.02523",
   "lng": "101.70299"
 },
 {
   "Name_ZH": "双溪威",
   "Name_MY": "Seri Setia (Sungai Way)",
   "District_ZH": "八打灵",
   "District_MY": "Petaling",
   "State_ZH": "雪兰莪",
   "State_MY": "Selangor",
   "Founding_Year": 1950,
   "latlng": "3.08941°N 101.61789°E",
   "lat": "3.08941",
   "lng": "101.61789"
 },
 {
   "Name_ZH": "梳邦",
   "Name_MY": "Subang",
   "District_ZH": "八打灵",
   "District_MY": "Petaling",
   "State_ZH": "雪兰莪",
   "State_MY": "Selangor",
   "Founding_Year": 1950,
   "latlng": "3.14302°N 101.53612°E",
   "lat": "3.14302",
   "lng": "101.53612"
 },
 {
   "Name_ZH": "双溪毛糯",
   "Name_MY": "Sungai Buloh",
   "District_ZH": "八打灵",
   "District_MY": "Petaling",
   "State_ZH": "雪兰莪",
   "State_MY": "Selangor",
   "Founding_Year": 1950,
   "latlng": "3.19784°N 101.56506°E",
   "lat": "3.19784",
   "lng": "101.56506"
 },
 {
   "Name_ZH": "千百家村",
   "Name_MY": "Kampung Cempaka",
   "District_ZH": "八打灵",
   "District_MY": "Petaling",
   "State_ZH": "雪兰莪",
   "State_MY": "Selangor",
   "Founding_Year": null,
   "latlng": "3.11727°N 101.59855°E",
   "lat": "3.11727",
   "lng": "101.59855"
 },
 {
   "Name_ZH": "18 适耕庄 A 村",
   "Name_MY": "Site A, Sekinchan",
   "District_ZH": "沙白安南",
   "District_MY": "Sabak Bernam",
   "State_ZH": "雪兰莪",
   "State_MY": "Selangor",
   "Founding_Year": 1951,
   "latlng": "3.52626°N 101.142°E",
   "lat": "3.52626",
   "lng": "101.142"
 },
 {
   "Name_ZH": "19 适耕庄 B 村",
   "Name_MY": "Site B, Sekinchan",
   "District_ZH": "沙白安南",
   "District_MY": "Sabak Bernam",
   "State_ZH": "雪兰莪",
   "State_MY": "Selangor",
   "Founding_Year": 1951,
   "latlng": "3.50304°N 101.10771°E",
   "lat": "3.50304",
   "lng": "101.10771"
 },
 {
   "Name_ZH": "20 适耕庄 C 村",
   "Name_MY": "Site C, Sekinchan",
   "District_ZH": "沙白安南",
   "District_MY": "Sabak Bernam",
   "State_ZH": "雪兰莪",
   "State_MY": "Selangor",
   "Founding_Year": 1951,
   "latlng": "3.51380°N 101.10025°E",
   "lat": "3.51380",
   "lng": "101.10025"
 },
 {
   "Name_ZH": "文丁哥坝",
   "Name_MY": "Bagan Beting Kepah",
   "District_ZH": "沙白安南",
   "District_MY": "Sabak Bernam",
   "State_ZH": "雪兰莪",
   "State_MY": "Selangor",
   "Founding_Year": null,
   "latlng": "3.79013°N 100.8286°E",
   "lat": "3.79013",
   "lng": "100.8286"
 },
 {
   "Name_ZH": "乌暹",
   "Name_MY": "Bagan Nakhoda Omar (Simpang BNO)",
   "District_ZH": "沙白安南",
   "District_MY": "Sabak Bernam",
   "State_ZH": "雪兰莪",
   "State_MY": "Selangor",
   "Founding_Year": null,
   "latlng": "3.76979°N 100.87623°E",
   "lat": "3.76979",
   "lng": "100.87623"
 },
 {
   "Name_ZH": "新沟",
   "Name_MY": "Bagan Parit Baru",
   "District_ZH": "沙白安南",
   "District_MY": "Sabak Bernam",
   "State_ZH": "雪兰莪",
   "State_MY": "Selangor",
   "Founding_Year": null,
   "latlng": "3.84536°N 100.84521°E",
   "lat": "3.84536",
   "lng": "100.84521"
 },
 {
   "Name_ZH": "适耕庄海口渔村",
   "Name_MY": "Bagan Sekinchan",
   "District_ZH": "沙白安南",
   "District_MY": "Sabak Bernam",
   "State_ZH": "雪兰莪",
   "State_MY": "Selangor",
   "Founding_Year": null,
   "latlng": "3.50324°N 101.09722°E",
   "lat": "3.50324",
   "lng": "101.09722"
 },
 {
   "Name_ZH": "大港",
   "Name_MY": "Bagan Sungai Besar",
   "District_ZH": "沙白安南",
   "District_MY": "Sabak Bernam",
   "State_ZH": "雪兰莪",
   "State_MY": "Selangor",
   "Founding_Year": null,
   "latlng": "3.67160°N 100.98175°E",
   "lat": "3.67160",
   "lng": "100.98175"
 },
 {
   "Name_ZH": "双武隆",
   "Name_MY": "Bagan Sungai Burung",
   "District_ZH": "沙白安南",
   "District_MY": "Sabak Bernam",
   "State_ZH": "雪兰莪",
   "State_MY": "Selangor",
   "Founding_Year": null,
   "latlng": "3.6926°N 100.93593°E",
   "lat": "3.6926",
   "lng": "100.93593"
 },
 {
   "Name_ZH": "水柳头",
   "Name_MY": "Bagan Sungai Lang",
   "District_ZH": "沙白安南",
   "District_MY": "Sabak Bernam",
   "State_ZH": "雪兰莪",
   "State_MY": "Selangor",
   "Founding_Year": null,
   "latlng": "3.84477°N 100.82772°E",
   "lat": "3.84477",
   "lng": "100.82772"
 },
 {
   "Name_ZH": "浅顶",
   "Name_MY": "Bagan Sungai Pulai",
   "District_ZH": "沙白安南",
   "District_MY": "Sabak Bernam",
   "State_ZH": "雪兰莪",
   "State_MY": "Selangor",
   "Founding_Year": null,
   "latlng": "3.72647°N 100.91954°E",
   "lat": "3.72647",
   "lng": "100.91954"
 },
 {
   "Name_ZH": "直古鲁",
   "Name_MY": "Bagan Teluk Rhu",
   "District_ZH": "沙白安南",
   "District_MY": "Sabak Bernam",
   "State_ZH": "雪兰莪",
   "State_MY": "Selangor",
   "Founding_Year": null,
   "latlng": "3.78574°N 100.83381°E",
   "lat": "3.78574",
   "lng": "100.83381"
 },
 {
   "Name_ZH": "沙叻",
   "Name_MY": "Salak",
   "District_ZH": "雪邦",
   "District_MY": "Sepang",
   "State_ZH": "雪兰莪",
   "State_MY": "Selangor",
   "Founding_Year": 1952,
   "latlng": "2.7833°N 101.75158°E",
   "lat": "2.7833",
   "lng": "101.75158"
 },
 {
   "Name_ZH": "雪邦",
   "Name_MY": "Sepang",
   "District_ZH": "雪邦",
   "District_MY": "Sepang",
   "State_ZH": "雪兰莪",
   "State_MY": "Selangor",
   "Founding_Year": 1950,
   "latlng": "2.68731°N 101.74843°E",
   "lat": "2.68731",
   "lng": "101.74843"
 },
 {
   "Name_ZH": "龙溪",
   "Name_MY": "Dengkil",
   "District_ZH": "雪邦",
   "District_MY": "Sepang",
   "State_ZH": "雪兰莪",
   "State_MY": "Selangor",
   "Founding_Year": 1950,
   "latlng": "2.86067°N 101.67971°E",
   "lat": "2.86067",
   "lng": "101.67971"
 },
 {
   "Name_ZH": "双溪比力",
   "Name_MY": "Sungai Pelek",
   "District_ZH": "雪邦",
   "District_MY": "Sepang",
   "State_ZH": "雪兰莪",
   "State_MY": "Selangor",
   "Founding_Year": 1950,
   "latlng": "2.64212°N 101.71227°E",
   "lat": "2.64212",
   "lng": "101.71227"
 },
 {
   "Name_ZH": "一支港",
   "Name_MY": "Batu Satu",
   "District_ZH": "雪邦",
   "District_MY": "Sepang",
   "State_ZH": "雪兰莪",
   "State_MY": "Selangor",
   "Founding_Year": null,
   "latlng": "2.680839°N 101.741858°E",
   "lat": "2.680839",
   "lng": "101.741858"
 },
 {
   "Name_ZH": "安邦",
   "Name_MY": "Ampang",
   "District_ZH": "乌鲁冷岳",
   "District_MY": "Hulu Langat",
   "State_ZH": "雪兰莪",
   "State_MY": "Selangor",
   "Founding_Year": 1952,
   "latlng": "3.137343°N 101.761395°E",
   "lat": "3.137343",
   "lng": "101.761395"
 },
 {
   "Name_ZH": "无拉港",
   "Name_MY": "Balakong",
   "District_ZH": "乌鲁冷岳",
   "District_MY": "Hulu Langat",
   "State_ZH": "雪兰莪",
   "State_MY": "Selangor",
   "Founding_Year": 1950,
   "latlng": "3.028980°N 101.747309°E",
   "lat": "3.028980",
   "lng": "101.747309"
 },
 {
   "Name_ZH": "万宜",
   "Name_MY": "Bangi",
   "District_ZH": "乌鲁冷岳",
   "District_MY": "Hulu Langat",
   "State_ZH": "雪兰莪",
   "State_MY": "Selangor",
   "Founding_Year": 1952,
   "latlng": "2.902257°N 101.783686°E",
   "lat": "2.902257",
   "lng": "101.783686"
 },
 {
   "Name_ZH": "蕉赖九英里",
   "Name_MY": "Batu 9, Cheras",
   "District_ZH": "乌鲁冷岳",
   "District_MY": "Hulu Langat",
   "State_ZH": "雪兰莪",
   "State_MY": "Selangor",
   "Founding_Year": 1950,
   "latlng": "3.071862°N 101.768841°E",
   "lat": "3.071862",
   "lng": "101.768841"
 },
 {
   "Name_ZH": "蕉赖十一英里",
   "Name_MY": "Batu 11, Cheras",
   "District_ZH": "乌鲁冷岳",
   "District_MY": "Hulu Langat",
   "State_ZH": "雪兰莪",
   "State_MY": "Selangor",
   "Founding_Year": 1950,
   "latlng": "3.045718°N 101.773333°E",
   "lat": "3.045718",
   "lng": "101.773333"
 },
 {
   "Name_ZH": "呀吃十四英里",
   "Name_MY": "Batu 14，Hulu Langat",
   "District_ZH": "乌鲁冷岳",
   "District_MY": "Hulu Langat",
   "State_ZH": "雪兰莪",
   "State_MY": "Selangor",
   "Founding_Year": 1950,
   "latlng": "3.113403°N 101.814357°E",
   "lat": "3.113403",
   "lng": "101.814357"
 },
 {
   "Name_ZH": "呀吃十八英里",
   "Name_MY": "Batu 18，Hulu Langat",
   "District_ZH": "乌鲁冷岳",
   "District_MY": "Hulu Langat",
   "State_ZH": "雪兰莪",
   "State_MY": "Selangor",
   "Founding_Year": 1950,
   "latlng": "3.115660°N 101.827768°E",
   "lat": "3.115660",
   "lng": "101.827768"
 },
 {
   "Name_ZH": "士毛月",
   "Name_MY": "Semeyih",
   "District_ZH": "乌鲁冷岳",
   "District_MY": "Hulu Langat",
   "State_ZH": "雪兰莪",
   "State_MY": "Selangor",
   "Founding_Year": 1952,
   "latlng": "2.951862°N 101.842633°E",
   "lat": "2.951862",
   "lng": "101.842633"
 },
 {
   "Name_ZH": "锡米山",
   "Name_MY": "Sungai Chua",
   "District_ZH": "乌鲁冷岳",
   "District_MY": "Hulu Langat",
   "State_ZH": "雪兰莪",
   "State_MY": "Selangor",
   "Founding_Year": 1950,
   "latlng": "2.990752°N 101.774445°E",
   "lat": "2.990752",
   "lng": "101.774445"
 },
 {
   "Name_ZH": "武来岸（打仑）",
   "Name_MY": "Broga (Tarun)",
   "District_ZH": "乌鲁冷岳",
   "District_MY": "Hulu Langat",
   "State_ZH": "雪兰莪",
   "State_MY": "Selangor",
   "Founding_Year": 1950,
   "latlng": "2.938245°N 101.910494°E",
   "lat": "2.938245",
   "lng": "101.910494"
 },
 {
   "Name_ZH": "仙水港",
   "Name_MY": "Bukit Angkat",
   "District_ZH": "乌鲁冷岳",
   "District_MY": "Hulu Langat",
   "State_ZH": "雪兰莪",
   "State_MY": "Selangor",
   "Founding_Year": null,
   "latlng": "2.995948°N 101.769341°E",
   "lat": "2.995948",
   "lng": "101.769341"
 },
 {
   "Name_ZH": "关东村",
   "Name_MY": "Kwan Tung Baru",
   "District_ZH": "乌鲁冷岳",
   "District_MY": "Hulu Langat",
   "State_ZH": "雪兰莪",
   "State_MY": "Selangor",
   "Founding_Year": null,
   "latlng": "2.982850°N 101.776820°E",
   "lat": "2.982850",
   "lng": "101.776820"
 },
 {
   "Name_ZH": "热水湖",
   "Name_MY": "Air Panas",
   "District_ZH": "乌鲁雪兰莪 ",
   "District_MY": "Hulu Selangor",
   "State_ZH": "雪兰莪",
   "State_MY": "Selangor",
   "Founding_Year": 1950,
   "latlng": "3.59170°N 101.60884°E",
   "lat": "3.59170",
   "lng": "101.60884"
 },
 {
   "Name_ZH": "亚山公邦",
   "Name_MY": "Asam Kumbang，KKB",
   "District_ZH": "乌鲁雪兰莪 ",
   "District_MY": "Hulu Selangor",
   "State_ZH": "雪兰莪",
   "State_MY": "Selangor",
   "Founding_Year": 1950,
   "latlng": "3.56336°N 101.66428°E",
   "lat": "3.56336",
   "lng": "101.66428"
 },
 {
   "Name_ZH": "峇冬加里",
   "Name_MY": "Batang Kali",
   "District_ZH": "乌鲁雪兰莪 ",
   "District_MY": "Hulu Selangor",
   "State_ZH": "雪兰莪",
   "State_MY": "Selangor",
   "Founding_Year": 1950,
   "latlng": "3.46498°N 101.63937°E",
   "lat": "3.46498",
   "lng": "101.63937"
 },
 {
   "Name_ZH": "双文丹",
   "Name_MY": "Serendah",
   "District_ZH": "乌鲁雪兰莪 ",
   "District_MY": "Hulu Selangor",
   "State_ZH": "雪兰莪",
   "State_MY": "Selangor",
   "Founding_Year": 1950,
   "latlng": "3.36448°N 101.59880°E",
   "lat": "3.36448",
   "lng": "101.59880"
 },
 {
   "Name_ZH": "39 叻思",
   "Name_MY": "Rasa",
   "District_ZH": "乌鲁雪兰莪 ",
   "District_MY": "Hulu Selangor",
   "State_ZH": "雪兰莪",
   "State_MY": "Selangor",
   "Founding_Year": 1950,
   "latlng": "3.49422°N 101.63082°E",
   "lat": "3.49422",
   "lng": "101.63082"
 },
 {
   "Name_ZH": "舍江栋",
   "Name_MY": "Sejantung, Kalumpang",
   "District_ZH": "乌鲁雪兰莪 ",
   "District_MY": "Hulu Selangor",
   "State_ZH": "雪兰莪",
   "State_MY": "Selangor",
   "Founding_Year": 1950,
   "latlng": "3.63528°N 101.56994°E",
   "lat": "3.63528",
   "lng": "101.56994"
 },
 {
   "Name_ZH": "乌鲁音峇鲁",
   "Name_MY": "Ulu Yam Baru",
   "District_ZH": "乌鲁雪兰莪 ",
   "District_MY": "Hulu Selangor",
   "State_ZH": "雪兰莪",
   "State_MY": "Selangor",
   "Founding_Year": 1950,
   "latlng": "3.42198°N 101.66236°E",
   "lat": "3.42198",
   "lng": "101.66236"
 },
 {
   "Name_ZH": "乌鲁音南马",
   "Name_MY": "Ulu Yam Lama",
   "District_ZH": "乌鲁雪兰莪 ",
   "District_MY": "Hulu Selangor",
   "State_ZH": "雪兰莪",
   "State_MY": "Selangor",
   "Founding_Year": 1950,
   "latlng": "3.45405°N 101.64142°E",
   "lat": "3.45405",
   "lng": "101.64142"
 },
 {
   "Name_ZH": "哈山村",
   "Name_MY": "Taman Hassan",
   "District_ZH": "乌鲁雪兰莪 ",
   "District_MY": "Hulu Selangor",
   "State_ZH": "雪兰莪",
   "State_MY": "Selangor",
   "Founding_Year": null,
   "latlng": "3.67243°N 101.51727°E",
   "lat": "3.67243",
   "lng": "101.51727"
 },
 {
   "Name_ZH": "板厂村",
   "Name_MY": "Kilang Papan",
   "District_ZH": "乌鲁雪兰莪 ",
   "District_MY": "Hulu Selangor",
   "State_ZH": "雪兰莪",
   "State_MY": "Selangor",
   "Founding_Year": null,
   "latlng": "3.66973°N 101.53041°E",
   "lat": "3.66973",
   "lng": "101.53041"
 },
 {
   "Name_ZH": "民友路村",
   "Name_MY": "Kampung Menyuruk, Batang Kali",
   "District_ZH": "乌鲁雪兰莪 ",
   "District_MY": "Hulu Selangor",
   "State_ZH": "雪兰莪",
   "State_MY": "Selangor",
   "Founding_Year": null,
   "latlng": "3.46848°N 101.63597°E",
   "lat": "3.46848",
   "lng": "101.63597"
 },
 {
   "Name_ZH": "哈仑村",
   "Name_MY": "Kampung Datuk Harun, Serendah",
   "District_ZH": "乌鲁雪兰莪 ",
   "District_MY": "Hulu Selangor",
   "State_ZH": "雪兰莪",
   "State_MY": "Selangor",
   "Founding_Year": null,
   "latlng": "3.36742°N 101.60912°E",
   "lat": "3.36742",
   "lng": "101.60912"
 },
 {
   "Name_ZH": "柯士干村",
   "Name_MY": "Kampung Koskan, Serendah",
   "District_ZH": "乌鲁雪兰莪 ",
   "District_MY": "Hulu Selangor",
   "State_ZH": "雪兰莪",
   "State_MY": "Selangor",
   "Founding_Year": null,
   "latlng": "3.35966°N 101.56191°E",
   "lat": "3.35966",
   "lng": "101.56191"
 },
 {
   "Name_ZH": "榴莲知贝",
   "Name_MY": "Durian Tipus",
   "District_ZH": "日叻务",
   "District_MY": "Jelebu",
   "State_ZH": "森美兰",
   "State_MY": "Negeri Sembilan",
   "Founding_Year": 1950,
   "latlng": "3.11911°N 102.22212°E",
   "lat": "3.11911",
   "lng": "102.22212"
 },
 {
   "Name_ZH": "半芭新村",
   "Name_MY": "Ladang Jelebu",
   "District_ZH": "日叻务",
   "District_MY": "Jelebu",
   "State_ZH": "森美兰",
   "State_MY": "Negeri Sembilan",
   "Founding_Year": 1950,
   "latlng": "2.97497°N 102.05983°E",
   "lat": "2.97497",
   "lng": "102.05983"
 },
 {
   "Name_ZH": "葫芦顶",
   "Name_MY": "Pertang",
   "District_ZH": "日叻务",
   "District_MY": "Jelebu",
   "State_ZH": "森美兰",
   "State_MY": "Negeri Sembilan",
   "Founding_Year": 1950,
   "latlng": "2.95957°N 102.21774°E",
   "lat": "2.95957",
   "lng": "102.21774"
 },
 {
   "Name_ZH": "古打灵新村",
   "Name_MY": "Kampung Petaling",
   "District_ZH": "日叻务",
   "District_MY": "Jelebu",
   "State_ZH": "森美兰",
   "State_MY": "Negeri Sembilan",
   "Founding_Year": 1950,
   "latlng": "2.94837°N 102.05885°E",
   "lat": "2.94837",
   "lng": "102.05885"
 },
 {
   "Name_ZH": "新邦葫芦顶",
   "Name_MY": "Simpang Pertang",
   "District_ZH": "日叻务",
   "District_MY": "Jelebu",
   "State_ZH": "森美兰",
   "State_MY": "Negeri Sembilan",
   "Founding_Year": 1950,
   "latlng": "2.94292°N 102.2604°E",
   "lat": "2.94292",
   "lng": "102.2604"
 },
 {
   "Name_ZH": "双溪文都",
   "Name_MY": "Sungai Muntuh",
   "District_ZH": "日叻务",
   "District_MY": "Jelebu",
   "State_ZH": "森美兰",
   "State_MY": "Negeri Sembilan",
   "Founding_Year": 1950,
   "latlng": "3.0199°N 102.08191°E",
   "lat": "3.0199",
   "lng": "102.08191"
 },
 {
   "Name_ZH": "知知港",
   "Name_MY": "Titi",
   "District_ZH": "日叻务",
   "District_MY": "Jelebu",
   "State_ZH": "森美兰",
   "State_MY": "Negeri Sembilan",
   "Founding_Year": 1950,
   "latlng": "2.99773°N 102.07743°E",
   "lat": "2.99773",
   "lng": "102.07743"
 },
 {
   "Name_ZH": "河沙坝",
   "Name_MY": "Hosapa",
   "District_ZH": "日叻务",
   "District_MY": "Jelebu",
   "State_ZH": "森美兰",
   "State_MY": "Negeri Sembilan",
   "Founding_Year": null,
   "latlng": "2.99482°N 102.07491°E",
   "lat": "2.99482",
   "lng": "102.07491"
 },
 {
   "Name_ZH": "亚逸依淡",
   "Name_MY": "Ayer Hitam",
   "District_ZH": "仁保",
   "District_MY": "Jempol",
   "State_ZH": "森美兰",
   "State_MY": "Negeri Sembilan",
   "Founding_Year": 1961,
   "latlng": "2.92971°N 102.3777°E",
   "lat": "2.92971",
   "lng": "102.3777"
 },
 {
   "Name_ZH": "巴加峇都",
   "Name_MY": "Bakar Batu",
   "District_ZH": "仁保",
   "District_MY": "Jempol",
   "State_ZH": "森美兰",
   "State_MY": "Negeri Sembilan",
   "Founding_Year": 1950,
   "latlng": "2.80619°N 102.40394°E",
   "lat": "2.80619",
   "lng": "102.40394"
 },
 {
   "Name_ZH": "武吉庇劳",
   "Name_MY": "Bukit Pilah",
   "District_ZH": "仁保",
   "District_MY": "Jempol",
   "State_ZH": "森美兰",
   "State_MY": "Negeri Sembilan",
   "Founding_Year": 1950,
   "latlng": "2.70792°N 102.50467°E",
   "lat": "2.70792",
   "lng": "102.50467"
 },
 {
   "Name_ZH": "朱区",
   "Name_MY": "Chu Ward",
   "District_ZH": "仁保",
   "District_MY": "Jempol",
   "State_ZH": "森美兰",
   "State_MY": "Negeri Sembilan",
   "Founding_Year": 1950,
   "latlng": "2.8075°N 102.40331°E",
   "lat": "2.8075",
   "lng": "102.40331"
 },
 {
   "Name_ZH": "马身新村",
   "Name_MY": "Kampung Mahsan",
   "District_ZH": "仁保",
   "District_MY": "Jempol",
   "State_ZH": "森美兰",
   "State_MY": "Negeri Sembilan",
   "Founding_Year": 1950,
   "latlng": "2.83249°N 102.40856°E",
   "lat": "2.83249",
   "lng": "102.40856"
 },
 {
   "Name_ZH": "甘榜英达",
   "Name_MY": "Kampung Indah",
   "District_ZH": "仁保",
   "District_MY": "Jempol",
   "State_ZH": "森美兰",
   "State_MY": "Negeri Sembilan",
   "Founding_Year": 1950,
   "latlng": "2.8122°N 102.40609°E",
   "lat": "2.8122",
   "lng": "102.40609"
 },
 {
   "Name_ZH": "弄边",
   "Name_MY": "Rompin",
   "District_ZH": "仁保",
   "District_MY": "Jempol",
   "State_ZH": "森美兰",
   "State_MY": "Negeri Sembilan",
   "Founding_Year": null,
   "latlng": "2.70601°N 102.50367°E",
   "lat": "2.70601",
   "lng": "102.50367"
 },
 {
   "Name_ZH": "亚依马旺",
   "Name_MY": "Ayer Mawang",
   "District_ZH": "瓜拉庇劳",
   "District_MY": "Kuala Pilah",
   "State_ZH": "森美兰",
   "State_MY": "Negeri Sembilan",
   "Founding_Year": null,
   "latlng": "2.55856°N 102.25708°E",
   "lat": "2.55856",
   "lng": "102.25708"
 },
 {
   "Name_ZH": "武吉古鲁莪新村",
   "Name_MY": "Desa Bukit Gelugor",
   "District_ZH": "瓜拉庇劳",
   "District_MY": "Kuala Pilah",
   "State_ZH": "森美兰",
   "State_MY": "Negeri Sembilan",
   "Founding_Year": 1950,
   "latlng": "2.80199°N 102.31346°E",
   "lat": "2.80199",
   "lng": "102.31346"
 },
 {
   "Name_ZH": "冷宜",
   "Name_MY": "Dangi",
   "District_ZH": "瓜拉庇劳",
   "District_MY": "Kuala Pilah",
   "State_ZH": "森美兰",
   "State_MY": "Negeri Sembilan",
   "Founding_Year": 1950,
   "latlng": "2.64481°N 102.32115°E",
   "lat": "2.64481",
   "lng": "102.32115"
 },
 {
   "Name_ZH": "及必士10哩",
   "Name_MY": "Kepis, Batu 10",
   "District_ZH": "瓜拉庇劳",
   "District_MY": "Kuala Pilah",
   "State_ZH": "森美兰",
   "State_MY": "Negeri Sembilan",
   "Founding_Year": 1950,
   "latlng": "2.70628°N 102.36649°E",
   "lat": "2.70628",
   "lng": "102.36649"
 },
 {
   "Name_ZH": "瓜拉油麻坡",
   "Name_MY": "Kuala Jemapoh",
   "District_ZH": "瓜拉庇劳",
   "District_MY": "Kuala Pilah",
   "State_ZH": "森美兰",
   "State_MY": "Negeri Sembilan",
   "Founding_Year": 1952,
   "latlng": "2.7776°N 102.28358°E\t",
   "lat": "2.7776",
   "lng": "102.28358"
 },
 {
   "Name_ZH": "巴力丁宜",
   "Name_MY": "Parit Tinggi",
   "District_ZH": "瓜拉庇劳",
   "District_MY": "Kuala Pilah",
   "State_ZH": "森美兰",
   "State_MY": "Negeri Sembilan",
   "Founding_Year": 1950,
   "latlng": "2.78738°N 102.22218°E",
   "lat": "2.78738",
   "lng": "102.22218"
 },
 {
   "Name_ZH": "新邦浪谊",
   "Name_MY": "Simpang Dangi",
   "District_ZH": "瓜拉庇劳",
   "District_MY": "Kuala Pilah",
   "State_ZH": "森美兰",
   "State_MY": "Negeri Sembilan",
   "Founding_Year": 1958,
   "latlng": "2.63622°N 102.29066°E",
   "lat": "2.63622",
   "lng": "102.29066"
 },
 {
   "Name_ZH": "丹那美村 A 村",
   "Name_MY": "Desa Tanah Merah Site A",
   "District_ZH": "波德申",
   "District_MY": "Port Dickson",
   "State_ZH": "森美兰",
   "State_MY": "Negeri Sembilan",
   "Founding_Year": 1952,
   "latlng": "2.67861°N 101.7613°E",
   "lat": "2.67861",
   "lng": "101.7613"
 },
 {
   "Name_ZH": "丹那美村 C 村",
   "Name_MY": "Desa Tanah Merah Site C",
   "District_ZH": "波德申",
   "District_MY": "Port Dickson",
   "State_ZH": "森美兰",
   "State_MY": "Negeri Sembilan",
   "Founding_Year": 1952,
   "latlng": "2.61333°N 101.80414°E",
   "lat": "2.61333",
   "lng": "101.80414"
 },
 {
   "Name_ZH": "双溪立百新村",
   "Name_MY": "Desa Sungai Nipah",
   "District_ZH": "波德申",
   "District_MY": "Port Dickson",
   "State_ZH": "森美兰",
   "State_MY": "Negeri Sembilan",
   "Founding_Year": 1953,
   "latlng": "2.62579°N 101.7469°E",
   "lat": "2.62579",
   "lng": "101.7469"
 },
 {
   "Name_ZH": "叻务八英里新村",
   "Name_MY": "Desa Batu 8 Labu",
   "District_ZH": "芙蓉",
   "District_MY": "Seremban",
   "State_ZH": "森美兰",
   "State_MY": "Negeri Sembilan",
   "Founding_Year": 1950,
   "latlng": "2.74129°N 101.85636°E",
   "lat": "2.74129",
   "lng": "101.85636"
 },
 {
   "Name_ZH": "武来岸新村",
   "Name_MY": "Broga",
   "District_ZH": "芙蓉",
   "District_MY": "Seremban",
   "State_ZH": "森美兰",
   "State_MY": "Negeri Sembilan",
   "Founding_Year": 1950,
   "latlng": "2.9358°N 101.91117°E",
   "lat": "2.9358",
   "lng": "101.91117"
 },
 {
   "Name_ZH": "万茂新村",
   "Name_MY": "Desa Mambau",
   "District_ZH": "芙蓉",
   "District_MY": "Seremban",
   "State_ZH": "森美兰",
   "State_MY": "Negeri Sembilan",
   "Founding_Year": 1950,
   "latlng": "2.6686°N 101.91733°E",
   "lat": "2.6686",
   "lng": "101.91733"
 },
 {
   "Name_ZH": "文丁",
   "Name_MY": "Mantin",
   "District_ZH": "芙蓉",
   "District_MY": "Seremban",
   "State_ZH": "森美兰",
   "State_MY": "Negeri Sembilan",
   "Founding_Year": 1952,
   "latlng": "2.82303°N 101.89462°E",
   "lat": "2.82303",
   "lng": "101.89462"
 },
 {
   "Name_ZH": "汝来",
   "Name_MY": "Nilai",
   "District_ZH": "芙蓉",
   "District_MY": "Seremban",
   "State_ZH": "森美兰",
   "State_MY": "Negeri Sembilan",
   "Founding_Year": 1952,
   "latlng": "2.80856°N 101.80225°E",
   "lat": "2.80856",
   "lng": "101.80225"
 },
 {
   "Name_ZH": "巴音",
   "Name_MY": "Pajam",
   "District_ZH": "芙蓉",
   "District_MY": "Seremban",
   "State_ZH": "森美兰",
   "State_MY": "Negeri Sembilan",
   "Founding_Year": 1951,
   "latlng": "2.84311°N 101.84953°E",
   "lat": "2.84311",
   "lng": "101.84953"
 },
 {
   "Name_ZH": "班底",
   "Name_MY": "Pantai",
   "District_ZH": "芙蓉",
   "District_MY": "Seremban",
   "State_ZH": "森美兰",
   "State_MY": "Negeri Sembilan",
   "Founding_Year": 1951,
   "latlng": "2.78781°N 101.99628°E",
   "lat": "2.78781",
   "lng": "101.99628"
 },
 {
   "Name_ZH": "芭蕾新村",
   "Name_MY": "Desa Paroi",
   "District_ZH": "芙蓉",
   "District_MY": "Seremban",
   "State_ZH": "森美兰",
   "State_MY": "Negeri Sembilan",
   "Founding_Year": 1950,
   "latlng": "2.72345°N 102.00026°E",
   "lat": "2.72345",
   "lng": "102.00026"
 },
 {
   "Name_ZH": "拉杭新村",
   "Name_MY": "Desa Rahang",
   "District_ZH": "芙蓉",
   "District_MY": "Seremban",
   "State_ZH": "森美兰",
   "State_MY": "Negeri Sembilan",
   "Founding_Year": 1952,
   "latlng": "2.69564°N 101.96403°E",
   "lat": "2.69564",
   "lng": "101.96403"
 },
 {
   "Name_ZH": "亚沙",
   "Name_MY": "Rasah",
   "District_ZH": "芙蓉",
   "District_MY": "Seremban",
   "State_ZH": "森美兰",
   "State_MY": "Negeri Sembilan",
   "Founding_Year": 1951,
   "latlng": "2.69886°N 101.93247°E",
   "lat": "2.69886",
   "lng": "101.93247"
 },
 {
   "Name_ZH": "小甘蜜",
   "Name_MY": "Sikamat",
   "District_ZH": "芙蓉",
   "District_MY": "Seremban",
   "State_ZH": "森美兰",
   "State_MY": "Negeri Sembilan",
   "Founding_Year": 1950,
   "latlng": "2.74539°N 101.96694°E",
   "lat": "2.74539",
   "lng": "101.96694"
 },
 {
   "Name_ZH": "乌鲁峇玲珑",
   "Name_MY": "Ulu Beranang",
   "District_ZH": "芙蓉",
   "District_MY": "Seremban",
   "State_ZH": "森美兰",
   "State_MY": "Negeri Sembilan",
   "Founding_Year": 1950,
   "latlng": "2.89347°N 101.92842°E",
   "lat": "2.89347",
   "lng": "101.92842"
 },
 {
   "Name_ZH": "亚逸昆宁新村",
   "Name_MY": "Desa Ayer Kuning",
   "District_ZH": "淡边",
   "District_MY": "Tampin",
   "State_ZH": "森美兰",
   "State_MY": "Negeri Sembilan",
   "Founding_Year": 1950,
   "latlng": "2.50786°N 102.47833°E",
   "lat": "2.50786",
   "lng": "102.47833"
 },
 {
   "Name_ZH": "义乐新村",
   "Name_MY": "Desa Gedok",
   "District_ZH": "淡边",
   "District_MY": "Tampin",
   "State_ZH": "森美兰",
   "State_MY": "Negeri Sembilan",
   "Founding_Year": 1950,
   "latlng": "2.54721°N 102.42056°E",
   "lat": "2.54721",
   "lng": "102.42056"
 },
 {
   "Name_ZH": "金马士",
   "Name_MY": "Gemas",
   "District_ZH": "淡边",
   "District_MY": "Tampin",
   "State_ZH": "森美兰",
   "State_MY": "Negeri Sembilan",
   "Founding_Year": 1950,
   "latlng": "2.58542°N 102.6209°E",
   "lat": "2.58542",
   "lng": "102.6209"
 },
 {
   "Name_ZH": "淡边新村",
   "Name_MY": "Gemas",
   "District_ZH": "淡边",
   "District_MY": "Tampin",
   "State_ZH": "森美兰",
   "State_MY": "Negeri Sembilan",
   "Founding_Year": 1950,
   "latlng": "2.47817°N 102.23105°E",
   "lat": "2.47817",
   "lng": "102.23105"
 },
 {
   "Name_ZH": "林鲁",
   "Name_MY": "Lendu (Air Bemban)",
   "District_ZH": "亚罗牙也",
   "District_MY": "Alor Gajah",
   "State_ZH": "马六甲",
   "State_MY": "Melaka",
   "Founding_Year": 1950,
   "latlng": "2.35745°N 102.17105°E",
   "lat": "2.35745",
   "lng": "102.17105"
 },
 {
   "Name_ZH": "马接峇儒",
   "Name_MY": "Machap Baru",
   "District_ZH": "亚罗牙也",
   "District_MY": "Alor Gajah",
   "State_ZH": "马六甲",
   "State_MY": "Melaka",
   "Founding_Year": 1950,
   "latlng": "2.38194°N 102.33068°E",
   "lat": "2.38194",
   "lng": "102.33068"
 },
 {
   "Name_ZH": "马接翁武 （柏美）",
   "Name_MY": " Machap Umbor (Permai)",
   "District_ZH": "亚罗牙也",
   "District_MY": "Alor Gajah",
   "State_ZH": "马六甲",
   "State_MY": "Melaka",
   "Founding_Year": 1950,
   "latlng": "2.38319°N 102.2774°E",
   "lat": "2.38319",
   "lng": "102.2774"
 },
 {
   "Name_ZH": "巴也明光新村",
   "Name_MY": "Kampung Baru Paya Mengkung",
   "District_ZH": "亚罗牙也",
   "District_MY": "Alor Gajah",
   "State_ZH": "马六甲",
   "State_MY": "Melaka",
   "Founding_Year": 1949,
   "latlng": "2.34626°N 102.06725°E",
   "lat": "2.34626",
   "lng": "102.06725"
 },
 {
   "Name_ZH": "打波南宁",
   "Name_MY": "Taboh Naning",
   "District_ZH": "亚罗牙也",
   "District_MY": "Alor Gajah",
   "State_ZH": "马六甲",
   "State_MY": "Melaka",
   "Founding_Year": 1950,
   "latlng": "2.48124°N 102.18699°E",
   "lat": "2.48124",
   "lng": "102.18699"
 },
 {
   "Name_ZH": "武吉亚沙汉",
   "Name_MY": "Bukit Asahan",
   "District_ZH": "野新",
   "District_MY": "Jasin",
   "State_ZH": "马六甲",
   "State_MY": "Melaka",
   "Founding_Year": 1950,
   "latlng": "2.39414°N 102.54432°E",
   "lat": "2.39414",
   "lng": "102.54432"
 },
 {
   "Name_ZH": "武吉加东",
   "Name_MY": "Bulit Katong",
   "District_ZH": "野新",
   "District_MY": "Jasin",
   "State_ZH": "马六甲",
   "State_MY": "Melaka",
   "Founding_Year": 1950,
   "latlng": "2.32213°N 102.45915°E",
   "lat": "2.32213",
   "lng": "102.45915"
 },
 {
   "Name_ZH": "安乐新村",
   "Name_MY": "Kampung On Lok",
   "District_ZH": "野新",
   "District_MY": "Jasin",
   "State_ZH": "马六甲",
   "State_MY": "Melaka",
   "Founding_Year": 1950,
   "latlng": "2.47166°N 102.38373°E",
   "lat": "2.47166",
   "lng": "102.38373"
 },
 {
   "Name_ZH": "巴力葛利灵",
   "Name_MY": "Parit Keliling",
   "District_ZH": "野新",
   "District_MY": "Jasin",
   "State_ZH": "马六甲",
   "State_MY": "Melaka",
   "Founding_Year": 1950,
   "latlng": "2.35977°N 102.50177°E",
   "lat": "2.35977",
   "lng": "102.50177"
 },
 {
   "Name_ZH": "冯鹿峇登新村",
   "Name_MY": "Pondok Batang",
   "District_ZH": "野新",
   "District_MY": "Jasin",
   "State_ZH": "马六甲",
   "State_MY": "Melaka",
   "Founding_Year": 1950,
   "latlng": "2.3854°N 102.50989°E",
   "lat": "2.3854",
   "lng": "102.50989"
 },
 {
   "Name_ZH": "新邦木阁",
   "Name_MY": "Sempang Bekoh",
   "District_ZH": "野新",
   "District_MY": "Jasin",
   "State_ZH": "马六甲",
   "State_MY": "Melaka",
   "Founding_Year": 1950,
   "latlng": "2.35744°N 102.5121°E",
   "lat": "2.35744",
   "lng": "102.5121"
 },
 {
   "Name_ZH": "亚逸马吉",
   "Name_MY": "Air Manggis",
   "District_ZH": "野新",
   "District_MY": "Jasin",
   "State_ZH": "马六甲",
   "State_MY": "Melaka",
   "Founding_Year": null,
   "latlng": "2.28989°N 102.42792°E",
   "lat": "2.28989",
   "lng": "102.42792"
 },
 {
   "Name_ZH": "广西村",
   "Name_MY": "Kampung Kongsi",
   "District_ZH": "野新",
   "District_MY": "Jasin",
   "State_ZH": "马六甲",
   "State_MY": "Melaka",
   "Founding_Year": null,
   "latlng": "2.27572°N 102.41539°E",
   "lat": "2.27572",
   "lng": "102.41539"
 },
 {
   "Name_ZH": "安极乐",
   "Name_MY": "Ayer Keroh ",
   "District_ZH": "马六甲中央区",
   "District_MY": "Melaka Tengah",
   "State_ZH": "马六甲",
   "State_MY": "Melaka",
   "Founding_Year": 1950,
   "latlng": "2.26373°N 102.28365°E",
   "lat": "2.26373",
   "lng": "102.28365"
 },
 {
   "Name_ZH": "亚依沙叻",
   "Name_MY": "Ayer Salak",
   "District_ZH": "马六甲中央区",
   "District_MY": "Melaka Tengah",
   "State_ZH": "马六甲",
   "State_MY": "Melaka",
   "Founding_Year": 1951,
   "latlng": "2.27237°N 102.16731°E\t",
   "lat": "2.27237",
   "lng": "102.16731"
 },
 {
   "Name_ZH": "柏淡乌鲁新村",
   "Name_MY": "Bertam Ulu",
   "District_ZH": "马六甲中央区",
   "District_MY": "Melaka Tengah",
   "State_ZH": "马六甲",
   "State_MY": "Melaka",
   "Founding_Year": 1950,
   "latlng": "2.28885°N 102.19377°E\t",
   "lat": "2.28885",
   "lng": "102.19377"
 },
 {
   "Name_ZH": "武吉波浪 ",
   "Name_MY": "Bukit Beruang",
   "District_ZH": "马六甲中央区",
   "District_MY": "Melaka Tengah",
   "State_ZH": "马六甲",
   "State_MY": "Melaka",
   "Founding_Year": 1953,
   "latlng": "2.24002°N 102.27792°E",
   "lat": "2.24002",
   "lng": "102.27792"
 },
 {
   "Name_ZH": "武吉南眉",
   "Name_MY": "Bukit Rambai",
   "District_ZH": "马六甲中央区",
   "District_MY": "Melaka Tengah",
   "State_ZH": "马六甲",
   "State_MY": "Melaka",
   "Founding_Year": 1951,
   "latlng": "2.25267°N 102.18284°E\t",
   "lat": "2.25267",
   "lng": "102.18284"
 },
 {
   "Name_ZH": "双溪乌浪",
   "Name_MY": "Sungai Udang",
   "District_ZH": "马六甲中央区",
   "District_MY": "Melaka Tengah",
   "State_ZH": "马六甲",
   "State_MY": "Melaka",
   "Founding_Year": 1950,
   "latlng": "2.28414°N 102.13364°E",
   "lat": "2.28414",
   "lng": "102.13364"
 },
 {
   "Name_ZH": "丹绒米雅",
   "Name_MY": "Tanjong Minyak",
   "District_ZH": "马六甲中央区",
   "District_MY": "Melaka Tengah",
   "State_ZH": "马六甲",
   "State_MY": "Melaka",
   "Founding_Year": 1951,
   "latlng": "2.26388°N 102.19923°E",
   "lat": "2.26388",
   "lng": "102.19923"
 },
 {
   "Name_ZH": "丁赖",
   "Name_MY": "Tiang Dua",
   "District_ZH": "马六甲中央区",
   "District_MY": "Melaka Tengah",
   "State_ZH": "马六甲",
   "State_MY": "Melaka",
   "Founding_Year": 1957,
   "latlng": "2.21417°N 102.3613°E",
   "lat": "2.21417",
   "lng": "102.3613"
 },
 {
   "Name_ZH": "丹绒吉灵",
   "Name_MY": "Tanjung Keling",
   "District_ZH": "马六甲中央区",
   "District_MY": "Melaka Tengah",
   "State_ZH": "马六甲",
   "State_MY": "Melaka",
   "Founding_Year": null,
   "latlng": "2.22284°N 102.16484°E",
   "lat": "2.22284",
   "lng": "102.16484"
 },
 {
   "Name_ZH": "亚依淡",
   "Name_MY": "Ayer Hitam",
   "District_ZH": "峇株巴辖",
   "District_MY": "Batu Pahat",
   "State_ZH": "柔佛",
   "State_MY": "Johor",
   "Founding_Year": 1952,
   "latlng": "1.91817°N 103.17952°E",
   "lat": "1.91817",
   "lng": "103.17952"
 },
 {
   "Name_ZH": "新港",
   "Name_MY": "Kangkar Baharu",
   "District_ZH": "峇株巴辖",
   "District_MY": "Batu Pahat",
   "State_ZH": "柔佛",
   "State_MY": "Johor",
   "Founding_Year": 1951,
   "latlng": "2.06371°N 103.12355°E",
   "lat": "2.06371",
   "lng": "103.12355"
 },
 {
   "Name_ZH": "南利",
   "Name_MY": "Lam Lee",
   "District_ZH": "峇株巴辖",
   "District_MY": "Batu Pahat",
   "State_ZH": "柔佛",
   "State_MY": "Johor",
   "Founding_Year": 1952,
   "latlng": "2.09413°N 103.04598°E",
   "lat": "2.09413",
   "lng": "103.04598"
 },
 {
   "Name_ZH": "巴力拉惹",
   "Name_MY": "Parit Raja",
   "District_ZH": "峇株巴辖",
   "District_MY": "Batu Pahat",
   "State_ZH": "柔佛",
   "State_MY": "Johor",
   "Founding_Year": 1951,
   "latlng": "1.8648°N 103.11241°E",
   "lat": "1.8648",
   "lng": "103.11241"
 },
 {
   "Name_ZH": "巴力士隆",
   "Name_MY": "Parit Sulong",
   "District_ZH": "峇株巴辖",
   "District_MY": "Batu Pahat",
   "State_ZH": "柔佛",
   "State_MY": "Johor",
   "Founding_Year": 1951,
   "latlng": "1.8648°N 103.11241°E",
   "lat": "1.8648",
   "lng": "103.11241"
 },
 {
   "Name_ZH": "巴力也尼",
   "Name_MY": "Parit Yaani",
   "District_ZH": "峇株巴辖",
   "District_MY": "Batu Pahat",
   "State_ZH": "柔佛",
   "State_MY": "Johor",
   "Founding_Year": 1951,
   "latlng": "1.97587°N 102.88282°E",
   "lat": "1.97587",
   "lng": "102.88282"
 },
 {
   "Name_ZH": "龙引",
   "Name_MY": "Rengit",
   "District_ZH": "峇株巴辖",
   "District_MY": "Batu Pahat",
   "State_ZH": "柔佛",
   "State_MY": "Johor",
   "Founding_Year": 1952,
   "latlng": "1.95404°N 103.02586°E",
   "lat": "1.95404",
   "lng": "103.02586"
 },
 {
   "Name_ZH": "圣模那",
   "Name_MY": "Semerah",
   "District_ZH": "峇株巴辖",
   "District_MY": "Batu Pahat",
   "State_ZH": "柔佛",
   "State_MY": "Johor",
   "Founding_Year": 1952,
   "latlng": "1.88331°N 102.7825°E",
   "lat": "1.88331",
   "lng": "102.7825"
 },
 {
   "Name_ZH": "新加兰",
   "Name_MY": "Senggarang",
   "District_ZH": "峇株巴辖",
   "District_MY": "Batu Pahat",
   "State_ZH": "柔佛",
   "State_MY": "Johor",
   "Founding_Year": 1952,
   "latlng": "1.74912°N 103.0523°E",
   "lat": "1.74912",
   "lng": "103.0523"
 },
 {
   "Name_ZH": "四加亭",
   "Name_MY": "Seri Gading",
   "District_ZH": "峇株巴辖",
   "District_MY": "Batu Pahat",
   "State_ZH": "柔佛",
   "State_MY": "Johor",
   "Founding_Year": 1950,
   "latlng": "1.85416°N 103.03044°E",
   "lat": "1.85416",
   "lng": "103.03044"
 },
 {
   "Name_ZH": "铁山",
   "Name_MY": "Seri Medan",
   "District_ZH": "峇株巴辖",
   "District_MY": "Batu Pahat",
   "State_ZH": "柔佛",
   "State_MY": "Johor",
   "Founding_Year": 1950,
   "latlng": "1.98371°N 102.95638°E",
   "lat": "1.98371",
   "lng": "102.95638"
 },
 {
   "Name_ZH": "中江 ",
   "Name_MY": "Tongkang Pcchah",
   "District_ZH": "峇株巴辖",
   "District_MY": "Batu Pahat",
   "State_ZH": "柔佛",
   "State_MY": "Johor",
   "Founding_Year": 1954,
   "latlng": "1.90634°N 102.95057°E",
   "lat": "1.90634",
   "lng": "102.95057"
 },
 {
   "Name_ZH": "永平",
   "Name_MY": "Yong Peng",
   "District_ZH": "峇株巴辖",
   "District_MY": "Batu Pahat",
   "State_ZH": "柔佛",
   "State_MY": "Johor",
   "Founding_Year": 1950,
   "latlng": "2.01111°N 103.06657°E",
   "lat": "2.01111",
   "lng": "103.06657"
 },
 {
   "Name_ZH": "港脚",
   "Name_MY": "Kangkar Senanger",
   "District_ZH": "峇株巴辖",
   "District_MY": "Batu Pahat",
   "State_ZH": "柔佛",
   "State_MY": "Johor",
   "Founding_Year": null,
   "latlng": "2.02659°N 102.883°E",
   "lat": "2.02659",
   "lng": "102.883"
 },
 {
   "Name_ZH": "海口",
   "Name_MY": "Minyak Beku",
   "District_ZH": "峇株巴辖",
   "District_MY": "Batu Pahat",
   "State_ZH": "柔佛",
   "State_MY": "Johor",
   "Founding_Year": null,
   "latlng": "1.80138°N 102.90553°E",
   "lat": "1.80138",
   "lng": "102.90553"
 },
 {
   "Name_ZH": "班卒",
   "Name_MY": "Panchor",
   "District_ZH": "峇株巴辖",
   "District_MY": "Batu Pahat",
   "State_ZH": "柔佛",
   "State_MY": "Johor",
   "Founding_Year": null,
   "latlng": "1.86702°N 103.003°E",
   "lat": "1.86702",
   "lng": "103.003"
 },
 {
   "Name_ZH": "巴力务鲁",
   "Name_MY": "Parit Buloh",
   "District_ZH": "峇株巴辖",
   "District_MY": "Batu Pahat",
   "State_ZH": "柔佛",
   "State_MY": "Johor",
   "Founding_Year": null,
   "latlng": "1.88998°N 102.98936°E",
   "lat": "1.88998",
   "lng": "102.98936"
 },
 {
   "Name_ZH": "新立村",
   "Name_MY": "Sin Lik",
   "District_ZH": "峇株巴辖",
   "District_MY": "Batu Pahat",
   "State_ZH": "柔佛",
   "State_MY": "Johor",
   "Founding_Year": null,
   "latlng": "2.07092°N 103.14353°E",
   "lat": "2.07092",
   "lng": "103.14353"
 },
 {
   "Name_ZH": "峇眼/大巴力",
   "Name_MY": "Bagan/Parit Besar",
   "District_ZH": "峇株巴辖",
   "District_MY": "Batu Pahat",
   "State_ZH": "柔佛",
   "State_MY": "Johor",
   "Founding_Year": null,
   "latlng": "1.8479°N 102.85826°E",
   "lat": "1.8479",
   "lng": "102.85826"
 },
 {
   "Name_ZH": "石文丁",
   "Name_MY": "Segenting",
   "District_ZH": "峇株巴辖",
   "District_MY": "Batu Pahat",
   "State_ZH": "柔佛",
   "State_MY": "Johor",
   "Founding_Year": null,
   "latlng": "1.7845°N 102.89324°E",
   "lat": "1.7845",
   "lng": "102.89324"
 },
 {
   "Name_ZH": "亚逸文满",
   "Name_MY": "Ayer Bemban",
   "District_ZH": "新山",
   "District_MY": "Johor Bahru",
   "State_ZH": "柔佛",
   "State_MY": "Johor",
   "Founding_Year": 1950,
   "latlng": "1.69883°N 103.48466°E",
   "lat": "1.69883",
   "lng": "103.48466"
 },
 {
   "Name_ZH": "万孚",
   "Name_MY": "Ban Foo",
   "District_ZH": "新山",
   "District_MY": "Johor Bahru",
   "State_ZH": "柔佛",
   "State_MY": "Johor",
   "Founding_Year": 1950,
   "latlng": "1.56709°N 103.8538°E",
   "lat": "1.56709",
   "lng": "103.8538"
 },
 {
   "Name_ZH": "武吉峇都",
   "Name_MY": "Bukit Batu",
   "District_ZH": "新山",
   "District_MY": "Johor Bahru",
   "State_ZH": "柔佛",
   "State_MY": "Johor",
   "Founding_Year": 1950,
   "latlng": "1.73408°N 103.44379°E",
   "lat": "1.73408",
   "lng": "103.44379"
 },
 {
   "Name_ZH": "振林山",
   "Name_MY": "Gelang Patah",
   "District_ZH": "新山",
   "District_MY": "Johor Bahru",
   "State_ZH": "柔佛",
   "State_MY": "Johor",
   "Founding_Year": 1950,
   "latlng": "1.44942°N 103.58727°E",
   "lat": "1.44942",
   "lng": "103.58727"
 },
 {
   "Name_ZH": "江加埔来",
   "Name_MY": "Kangkar Pulai",
   "District_ZH": "新山",
   "District_MY": "Johor Bahru",
   "State_ZH": "柔佛",
   "State_MY": "Johor",
   "Founding_Year": 1950,
   "latlng": "1.55979°N 103.59284°E",
   "lat": "1.55979",
   "lng": "103.59284"
 },
 {
   "Name_ZH": "陈厝港",
   "Name_MY": "Kangkar Tebrau",
   "District_ZH": "新山",
   "District_MY": "Johor Bahru",
   "State_ZH": "柔佛",
   "State_MY": "Johor",
   "Founding_Year": 1951,
   "latlng": "1.5312°N 103.75577°E",
   "lat": "1.5312",
   "lng": "103.75577"
 },
 {
   "Name_ZH": "加拉巴沙威",
   "Name_MY": "Kelapa Sawit",
   "District_ZH": "新山",
   "District_MY": "Johor Bahru",
   "State_ZH": "柔佛",
   "State_MY": "Johor",
   "Founding_Year": 1950,
   "latlng": "1.67143°N 103.53051°E",
   "lat": "1.67143",
   "lng": "103.53051"
 },
 {
   "Name_ZH": "古来",
   "Name_MY": "Kulai",
   "District_ZH": "新山",
   "District_MY": "Johor Bahru",
   "State_ZH": "柔佛",
   "State_MY": "Johor",
   "Founding_Year": 1950,
   "latlng": "1.6585°N 103.6006°E",
   "lat": "1.6585",
   "lng": "103.6006"
 },
 {
   "Name_ZH": "五间店",
   "Name_MY": "Lima Kedai",
   "District_ZH": "新山",
   "District_MY": "Johor Bahru",
   "State_ZH": "柔佛",
   "State_MY": "Johor",
   "Founding_Year": 1950,
   "latlng": "1.50231°N 103.61698°E",
   "lat": "1.50231",
   "lng": "103.61698"
 },
 {
   "Name_ZH": "马西",
   "Name_MY": "Masai",
   "District_ZH": "新山",
   "District_MY": "Johor Bahru",
   "State_ZH": "柔佛",
   "State_MY": "Johor",
   "Founding_Year": 1952,
   "latlng": "1.49109°N 103.88329°E",
   "lat": "1.49109",
   "lng": "103.88329"
 },
 {
   "Name_ZH": "班兰",
   "Name_MY": "Pandan",
   "District_ZH": "新山",
   "District_MY": "Johor Bahru",
   "State_ZH": "柔佛",
   "State_MY": "Johor",
   "Founding_Year": 1950,
   "latlng": "1.52732°N 103.7667°E",
   "lat": "1.52732",
   "lng": "103.7667"
 },
 {
   "Name_ZH": "避兰东",
   "Name_MY": "Pelentong",
   "District_ZH": "新山",
   "District_MY": "Johor Bahru",
   "State_ZH": "柔佛",
   "State_MY": "Johor",
   "Founding_Year": 1950,
   "latlng": "1.52423°N 103.82266°E",
   "lat": "1.52423",
   "lng": "103.82266"
 },
 {
   "Name_ZH": "沙令",
   "Name_MY": "Saleng",
   "District_ZH": "新山",
   "District_MY": "Johor Bahru",
   "State_ZH": "柔佛",
   "State_MY": "Johor",
   "Founding_Year": 1950,
   "latlng": "1.62975°N 103.63385°E",
   "lat": "1.62975",
   "lng": "103.63385"
 },
 {
   "Name_ZH": "士年纳",
   "Name_MY": "Sedenak",
   "District_ZH": "新山",
   "District_MY": "Johor Bahru",
   "State_ZH": "柔佛",
   "State_MY": "Johor",
   "Founding_Year": 1951,
   "latlng": "1.71063°N 103.52666°E",
   "lat": "1.71063",
   "lng": "103.52666"
 },