[
  {
    "Name": "永平天保宮 (68尺濟公)",
    "Notes": "",
    "Address": "Taman Sembrong Barat, 83700 Yong Peng, Johor",
    "State": "Johor",
    "UID": "A001",
    "Latitude": 2.010124,
    "Longitude": 103.066232,
    "img": "No",
    "no_img": ""
  },
  {
    "Name": "永平天靈宮",
    "Notes": "",
    "Address": "31, Jalan Ang Moh Sam, Taman Sembrong Baru, 83700 Yong Peng, Johor",
    "State": "Johor",
    "UID": "A002",
    "Latitude": 2.0180711,
    "Longitude": 103.065743,
    "img": "Yes",
    "no_img": 2
  },
  {
    "Name": "永平天後宮-又稱媽祖廟",
    "Notes": "",
    "Address": "Taman Selatan, 83700 Yong Peng, Johor.",
    "State": "Johor",
    "UID": "A003",
    "Latitude": 2.01939,
    "Longitude": 103.062632,
    "img": "No",
    "no_img": ""
  },
  {
    "Name": "正福德宮",
    "Notes": "",
    "Address": "Jalan Aman, Taman Sembrong Baru, 83700 Yong Peng, Johor",
    "State": "Johor",
    "UID": "A004",
    "Latitude": 2.014129,
    "Longitude": 103.0671151,
    "img": "No",
    "no_img": ""
  },
  {
    "Name": "佛教圓滿蕯迦中心",
    "Notes": "",
    "Address": "Jalan Madu 1, Taman Sembrong Baru, 83700 Yong Peng, Johor, Johor",
    "State": "Johor",
    "UID": "A005",
    "Latitude": 2.0141289,
    "Longitude": 103.0659716,
    "img": "No",
    "no_img": ""
  },
  {
    "Name": "永平德教會紫安閣",
    "Notes": "",
    "Address": "83700 Yong Peng, Johor",
    "State": "Johor",
    "UID": "A006",
    "Latitude": 1.9654819,
    "Longitude": 103.0472164,
    "img": "Yes",
    "no_img": 2
  },
  {
    "Name": "Buddhist Tzu Chi Foundation Malaysia (Johor Bahru) 慈濟",
    "Notes": "",
    "Address": "3, Jalan Jaguh 1, Taman Harmoni 2, 81300 Skudai, Johor",
    "State": "Johor",
    "UID": "A007",
    "Latitude": 1.5266668,
    "Longitude": 103.6493526,
    "img": "No",
    "no_img": ""
  },
  {
    "Name": "武天宫",
    "Notes": "",
    "Address": "4, Jalan Ceria 19, Taman Nusa Indah, 81200 Johor Bahru, Johor",
    "State": "Johor",
    "UID": "A008",
    "Latitude": 1.4771876,
    "Longitude": 103.6330085,
    "img": "No",
    "no_img": ""
  },
  {
    "Name": "弥陀之家东林寺",
    "Notes": "",
    "Address": "No 18, Jalan Pertama 4, Pusat Perdagangan Danga Utama, Johor",
    "State": "Johor",
    "UID": "A009",
    "Latitude": 1.5190766,
    "Longitude": 103.678989,
    "img": "No",
    "no_img": ""
  },
  {
    "Name": "圆观堂",
    "Notes": "",
    "Address": "54, Jalan Ronggeng 19, Taman Nesa, 81300 Skudai, Johor",
    "State": "Johor",
    "UID": "A010",
    "Latitude": 1.5271407,
    "Longitude": 103.6576497,
    "img": "No",
    "no_img": ""
  },
  {
    "Name": "金刚寺",
    "Notes": "",
    "Address": "No. 2, Jalan Temenggong 9, Taman Ungku Tun Aminah, 81300 Skudai, Johor",
    "State": "Johor",
    "UID": "A011",
    "Latitude": 1.5104369,
    "Longitude": 103.653161,
    "img": "No",
    "no_img": ""
  },
  {
    "Name": "柔佛州永平趙子龍廟",
    "Notes": "",
    "Address": "5687，Jalan Ujung, 83700 Yong Peng. Johor.",
    "State": "Johor",
    "UID": "A012",
    "Latitude": 1.9654819,
    "Longitude": 103.0472164,
    "img": "No",
    "no_img": ""
  },
  {
    "Name": "永平佛教會",
    "Notes": "",
    "Address": "Taman Sri Aman, 83700 Yong Peng, Johor",
    "State": "Johor",
    "UID": "A013",
    "Latitude": 2.0214978,
    "Longitude": 103.0684453,
    "img": "No",
    "no_img": ""
  },
  {
    "Name": "善意堂 SHUNG HEE TO TEMPLE",
    "Notes": "",
    "Address": "Lot 4063, Jln Dato‘ Bentara Dalam, Kampung Kuala Sabar, 85400 Chaah, Johor",
    "State": "Johor",
    "UID": "A014",
    "Latitude": 2.245683,
    "Longitude": 103.0410442,
    "img": "No",
    "no_img": ""
  },
  {
    "Name": "法南宮",
    "Notes": "",
    "Address": "Taman Damai Jaya 1, 85400 Chaah, Johor",
    "State": "Johor",
    "UID": "A015",
    "Latitude": 2.2401134,
    "Longitude": 103.0421752,
    "img": "No",
    "no_img": ""
  },
  {
    "Name": "三合港老港腳洪仙宮 Chaah Lao Gang Jiao Hong Xian Gong",
    "Notes": "",
    "Address": "85400 Chaah, Johor",
    "State": "Johor",
    "UID": "A016",
    "Latitude": 2.249619,
    "Longitude": 103.0400849,
    "img": "No",
    "no_img": ""
  },
  {
    "Name": "慈善堂",
    "Notes": "",
    "Address": "Near 56, Jalan meng Seng, Taman Selatan, 83700, Yong Peng, Johor",
    "State": "Johor",
    "UID": "A017",
    "Latitude": 2.0152065,
    "Longitude": 103.0645303,
    "img": "No",
    "no_img": ""
  },
  {
    "Name": "璧山宮 / 水尾聖娘",
    "Notes": "",
    "Address": "Kebun Bahru, Johor",
    "State": "Johor",
    "UID": "A018",
    "Latitude": 2.391389,
    "Longitude": 102.683075,
    "img": "No",
    "no_img": ""
  },
  {
    "Name": "華人廟宇",
    "Notes": "",
    "Address": "Jalan Satu, Kebun Baharu, 85200 Jementah, Johor",
    "State": "Johor",
    "UID": "A019",
    "Latitude": 2.3917695,
    "Longitude": 102.6837358,
    "img": "No",
    "no_img": ""
  },
  {
    "Name": "雲峰宮 Yun Feng Gong",
    "Notes": "",
    "Address": "Lorong Padang, Kampung Bahru, 85200 Jementah, Johor",
    "State": "Johor",
    "UID": "A020",
    "Latitude": 2.4403059,
    "Longitude": 102.6850439,
    "img": "No",
    "no_img": ""
  },
  {
    "Name": "利民達八城殿",
    "Notes": "",
    "Address": "Lor 15, Kampung Bahru, 85200 Jementah, Johor",
    "State": "Johor",
    "UID": "A021",
    "Latitude": 2.4365697,
    "Longitude": 102.6871893,
    "img": "No",
    "no_img": ""
  },
  {
    "Name": "南海廟",
    "Notes": "",
    "Address": "Taman Jementah Jaya, 85200 Jementah, Johor",
    "State": "Johor",
    "UID": "A022",
    "Latitude": 2.4456546,
    "Longitude": 102.6883785,
    "img": "No",
    "no_img": ""
  },
  {
    "Name": "青龍亭",
    "Notes": "",
    "Address": "69, Lorong 4, Taman Jementah Jaya, 85200 Jementah, Johor",
    "State": "Johor",
    "UID": "A023",
    "Latitude": 2.44216,
    "Longitude": 102.6870258,
    "img": "No",
    "no_img": ""
  },
  {
    "Name": "昔加末余文牙華光宮",
    "Notes": "求財很靈驗，廟建在橡膠園裡面",
    "Address": "3, Jalan Muar, Kampong TanjongSengkawang, 85000 Segamat, Johor",
    "State": "Johor",
    "UID": "A024",
    "Latitude": 2.5016018,
    "Longitude": 102.8116489,
    "img": "No",
    "no_img": ""
  },
  {
    "Name": "青雲岩",
    "Notes": "",
    "Address": "5, Jalan Panglima, Taman Bendahara, 85000 Segamat, Johor",
    "State": "Johor",
    "UID": "A025",
    "Latitude": 2.5015471,
    "Longitude": 102.8121302,
    "img": "No",
    "no_img": ""
  },
  {
    "Name": "1.\t(聖王廟)Sheng Wang Temple",
    "Notes": "",
    "Address": "11-B, Jalan Muar, Kampung Chabong, 85000Segamat, Johor",
    "State": "Johor",
    "UID": "A026",
    "Latitude": 2.5017895,
    "Longitude": 102.8118358,
    "img": "No",
    "no_img": ""
  },
  {
    "Name": "昔加末大悲水九皇大帝",
    "Notes": "",
    "Address": "Jalan Quarry, Kampung Gubah, 85000 Segamat, Johor",
    "State": "Johor",
    "UID": "A027",
    "Latitude": 2.5162648,
    "Longitude": 102.8089791,
    "img": "No",
    "no_img": ""
  },
  {
    "Name": "慈雲寺 （ 十八娘娘觀音廟）",
    "Notes": "",
    "Address": "Taman Orchid, 85000 Segamat District, Johor",
    "State": "Johor",
    "UID": "A028",
    "Latitude": 2.520581,
    "Longitude": 102.8115349,
    "img": "No",
    "no_img": ""
  },
  {
    "Name": "神威鎮廟",
    "Notes": "",
    "Address": "jementah",
    "State": "Johor",
    "UID": "A029",
    "Latitude": 2.440059,
    "Longitude": 102.6851551,
    "img": "No",
    "no_img": ""
  },
  {
    "Name": "排海廟",
    "Notes": "65年的歷史",
    "Address": "253, Jalan Abdul Hamid, Bukit Siput, 85000 Segamat, Johor",
    "State": "Johor",
    "UID": "A030",
    "Latitude": 2.4861598,
    "Longitude": 102.8464631,
    "img": "No",
    "no_img": ""
  },
  {
    "Name": "青雲岩廟",
    "Notes": "",
    "Address": "11/A , Jalan Muat , Kampong Abdullah, 85000 Segamat, Johor",
    "State": "Johor",
    "UID": "A031",
    "Latitude": 2.5017895,
    "Longitude": 102.8118358,
    "img": "No",
    "no_img": ""
  },
  {
    "Name": "(聖王廟) Sheng Wang Temple",
    "Notes": "",
    "Address": "11-B, Jalan Muar, Kampung Chabong, 8500 Segamat, Johor",
    "State": "Johor",
    "UID": "A032",
    "Latitude": 2.5017895,
    "Longitude": 102.8118358,
    "img": "No",
    "no_img": ""
  },
  {
    "Name": "揚福宮",
    "Notes": "",
    "Address": "Kampung Paya Merah, 85300 Labis, Johor",
    "State": "Johor",
    "UID": "A033",
    "Latitude": 2.3954233,
    "Longitude": 103.0205724,
    "img": "No",
    "no_img": ""
  },
  {
    "Name": "柔佛州拉美士德教會紫泰閣",
    "Notes": "",
    "Address": "Lot 814, Off, Jalan Kenari 4, Taman Wawasan Sanilabis, Johor",
    "State": "Johor",
    "UID": "A034",
    "Latitude": -6.1929378,
    "Longitude": 106.8466001,
    "img": "No",
    "no_img": ""
  },
  {
    "Name": "善德壇行善社",
    "Notes": "",
    "Address": "536, Jalan Banjaran 5,Kawasan Kempas Banjaran, 81200 Johor",
    "State": "Johor",
    "UID": "A035",
    "Latitude": 1.5295883,
    "Longitude": 103.7041938,
    "img": "No",
    "no_img": ""
  },
  {
    "Name": "得教會濟賢善社",
    "Notes": "",
    "Address": "No : 318, Jalan Banjaran 7,Kawasan Kempas Banjaran,81200 Johor Bahru, Johor",
    "State": "Johor",
    "UID": "A036",
    "Latitude": 1.5249819,
    "Longitude": 103.7023326,
    "img": "No",
    "no_img": ""
  },
  {
    "Name": "城隍殿 Sin Ong Tien",
    "Notes": "",
    "Address": "Lot 4881, Jalan Banjaran 2, Kempas Baru, 81200, Johor Bahru, Johor.",
    "State": "Johor",
    "UID": "A037",
    "Latitude": 1.5334679,
    "Longitude": 103.7044099,
    "img": "No",
    "no_img": ""
  },
  {
    "Name": "濟公廟/大爺二爺府",
    "Notes": "",
    "Address": "Jalan Banjaran 10, Kempas Baru, 81200,Johor",
    "State": "Johor",
    "UID": "A038",
    "Latitude": 1.529524,
    "Longitude": 103.6996469,
    "img": "No",
    "no_img": ""
  },
  {
    "Name": "廣福廟Kempas Banjaran",
    "Notes": "",
    "Address": "Jalan Banjaran 3, Kawasan Kempas Banjaran, 81200 Johor Bahru, Johor",
    "State": "Johor",
    "UID": "A039",
    "Latitude": 1.5272363,
    "Longitude": 103.7029445,
    "img": "No",
    "no_img": ""
  },
  {
    "Name": "濟公廟",
    "Notes": "",
    "Address": "Lot 135960,Jalan Hang Tuah 31, Taman Skudai Baru, 81300, Johor",
    "State": "Johor",
    "UID": "A040",
    "Latitude": 1.5228579,
    "Longitude": 103.6577021,
    "img": "No",
    "no_img": ""
  },
  {
    "Name": "三神廟，天後聖母",
    "Notes": "有 52 年曆史",
    "Address": "Kampung Baru Pandan, 81100 Johor Bahru, Johor",
    "State": "Johor",
    "UID": "A041",
    "Latitude": 1.5271829,
    "Longitude": 103.7672964,
    "img": "No",
    "no_img": ""
  },
  {
    "Name": "Sam Siang Keng 三善宮",
    "Notes": "",
    "Address": "55, Jalan Yahya Awal, Bandar Johor Bahru, 80100 Johor Bahru, Johor",
    "State": "Johor",
    "UID": "A042",
    "Latitude": 1.4789398,
    "Longitude": 103.7467373,
    "img": "No",
    "no_img": ""
  },
  {
    "Name": "柔佛古廟",
    "Notes": "",
    "Address": "Lot 653, Jalan Trus, Bandar Johor Bahru, 80000 Johor Bahru, Johor",
    "State": "Johor",
    "UID": "A043",
    "Latitude": 1.4605951,
    "Longitude": 103.7631134,
    "img": "No",
    "no_img": ""
  },
  {
    "Name": "淡杯天後宮",
    "Notes": "",
    "Address": "7, Jalan Mempelam, Kawasan Perumahan Tampoi, 81200, Johor Bahru, Johor",
    "State": "Johor",
    "UID": "A044",
    "Latitude": 1.5026637,
    "Longitude": 103.7007216,
    "img": "No",
    "no_img": ""
  },
  {
    "Name": "新山聖蓮宮",
    "Notes": "",
    "Address": "Taman Sri Tebrau, Jalan Cokmar 5, Johor",
    "State": "Johor",
    "UID": "A045",
    "Latitude": 1.4853148,
    "Longitude": 103.7728418,
    "img": "No",
    "no_img": ""
  },
  {
    "Name": "天后宮",
    "Notes": "",
    "Address": "Jalan Keris, Sri Tebrau, Johor",
    "State": "Johor",
    "UID": "A046",
    "Latitude": 1.4873817,
    "Longitude": 103.7711979,
    "img": "Yes",
    "no_img": 1
  },
  {
    "Name": "善和堂",
    "Notes": "",
    "Address": "No 9, Jalan Tekun, Taman Maju Jaya, 80400 Johor Bahru, Johor",
    "State": "Johor",
    "UID": "A047",
    "Latitude": 1.4817005,
    "Longitude": 103.7658556,
    "img": "No",
    "no_img": ""
  },
  {
    "Name": "壹仟間大伯公廟",
    "Notes": "",
    "Address": "Jalan Persiaran Tanjung, Taman Cempaka, 81200 Johor Bahru, Johor",
    "State": "Johor",
    "UID": "A048",
    "Latitude": 1.515135,
    "Longitude": 103.703567,
    "img": "No",
    "no_img": ""
  },
  {
    "Name": "南海宮 – 40年歷史",
    "Notes": "",
    "Address": "Bukit Indah, 81200 Johor Bahru, Johor",
    "State": "Johor",
    "UID": "A049",
    "Latitude": 1.4783324,
    "Longitude": 103.6545421,
    "img": "No",
    "no_img": ""
  },
  {
    "Name": "天馬道場",
    "Notes": "天道在柔佛州最大的道場(道場後面是龍華山)",
    "Address": "Lot 4272, Jalan Perdana Selatan, Taman Bukit Perdana 2, 83000 Batu Pahat, Johor",
    "State": "Johor",
    "UID": "A050",
    "Latitude": 1.8372251,
    "Longitude": 102.9604952,
    "img": "Yes",
    "no_img": 2
  },
  {
    "Name": "普陀淨寺",
    "Notes": "根據這裡的一位女廟祝透露，此寺已有百年歷史了",
    "Address": "13, Jalan Murai, Kampung Pegawai, 83000 Batu Pahat, Johor",
    "State": "Johor",
    "UID": "A051",
    "Latitude": 1.8472539,
    "Longitude": 102.9369077,
    "img": "Yes",
    "no_img": 44
  },
  {
    "Name": "龍安廟",
    "Notes": "此廟有44年歷史",
    "Address": "23, Jalan Muar，Kampung Lubok, 83000 Batu Pahat, Johor",
    "State": "Johor",
    "UID": "A052",
    "Latitude": 1.8796549,
    "Longitude": 102.7879384,
    "img": "Yes",
    "no_img": 1
  },
  {
    "Name": "林氏宗祠天後宮",
    "Notes": "",
    "Address": "3, Jalan Fatimah, Kampung Sateh, 83000 Batu Pahat, Johor",
    "State": "Johor",
    "UID": "A053",
    "Latitude": 1.8487491,
    "Longitude": 102.9278166,
    "img": "Yes",
    "no_img": 13
  },
  {
    "Name": "媽祖廟/忠義廟/ 福興宮/城隍廟",
    "Notes": "",
    "Address": "Parit Besar Laut, Kampung Bagan, 83000, Johor",
    "State": "Johor",
    "UID": "A054",
    "Latitude": 1.8466761,
    "Longitude": 102.8526998,
    "img": "Yes",
    "no_img": 2
  },
  {
    "Name": "建南寺 (太子爺公廟)",
    "Notes": "此廟有 67 年歷史",
    "Address": "No. 402-A,, Jalan Bukit Pasir, 83000 Batu Pahat, Johor",
    "State": "Johor",
    "UID": "A055",
    "Latitude": 1.8847825,
    "Longitude": 102.9472596,
    "img": "Yes",
    "no_img": 12
  },
  {
    "Name": "覺慧禪院",
    "Notes": "",
    "Address": "Kampung Pegawai, 83000 Batu Pahat, Johor",
    "State": "Johor",
    "UID": "A056",
    "Latitude": 1.85387,
    "Longitude": 102.9256661,
    "img": "No",
    "no_img": ""
  },
  {
    "Name": "修緣廟 Penganut Buddha Xiu Yuan",
    "Notes": "",
    "Address": "Kampung Beroleh, 83000 Batu Pahat, Johor",
    "State": "Johor",
    "UID": "A057",
    "Latitude": 1.869672,
    "Longitude": 102.969365,
    "img": "Yes",
    "no_img": 41
  },
  {
    "Name": "興義殿(五付大人)- 白馬顯神威",
    "Notes": "",
    "Address": "Jalan Muar, Semerah, 83600 Semerah, Johor",
    "State": "Johor",
    "UID": "A058",
    "Latitude": 1.9022184,
    "Longitude": 102.7513366,
    "img": "No",
    "no_img": ""
  },
  {
    "Name": "青雲寺南海觀音廟",
    "Notes": "",
    "Address": "Batu 4, Jalan Kluang, Parit Iman, Batu Pahat, Johor",
    "State": "Johor",
    "UID": "A059",
    "Latitude": 1.8698423,
    "Longitude": 102.9839418,
    "img": "No",
    "no_img": ""
  },
  {
    "Name": "南山駕雲殿",
    "Notes": "",
    "Address": "Batu 5, Jalan Kluang, Johor, 83000 Batu Pahat, Johor",
    "State": "Johor",
    "UID": "A060",
    "Latitude": 1.8675685,
    "Longitude": 102.9746399,
    "img": "No",
    "no_img": ""
  },
  {
    "Name": "觀音亭",
    "Notes": "",
    "Address": "Jalan Fatimah, Kampung Pegawai, 83000 Batu Pahat, Johor.",
    "State": "Johor",
    "UID": "A061",
    "Latitude": 1.8484708,
    "Longitude": 102.9274721,
    "img": "No",
    "no_img": ""
  },
  {
    "Name": "慈航堂",
    "Notes": "此廟有 20 多年歷史",
    "Address": "Kampung Seri Menanti, Semerah, Batu  Pahat, 84150, Johor",
    "State": "Johor",
    "UID": "A062",
    "Latitude": 1.910646,
    "Longitude": 102.689554,
    "img": "No",
    "no_img": ""
  },
  {
    "Name": "麻坡紅橋復興宮",
    "Notes": "",
    "Address": "Semerah, 84150, Johor",
    "State": "Johor",
    "UID": "A063",
    "Latitude": 1.908101,
    "Longitude": 102.736526,
    "img": "No",
    "no_img": ""
  },
  {
    "Name": "玄天廟",
    "Notes": "此廟有60多年歷史",
    "Address": "Jalan Dato Yunus Utama, Lima Kedai, 81120 Johor Bahru, Johor",
    "State": "Johor",
    "UID": "A064",
    "Latitude": 1.500166,
    "Longitude": 103.614282,
    "img": "No",
    "no_img": ""
  },
  {
    "Name": "邊佳蘭 / 泰山宮",
    "Notes": "",
    "Address": "J52, Kampung Penggerang, 81600 Pengerang, Johor",
    "State": "Johor",
    "UID": "A065",
    "Latitude": 1.393035,
    "Longitude": 104.146881,
    "img": "No",
    "no_img": ""
  },
  {
    "Name": "觀音寺",
    "Notes": "",
    "Address": "Kampung Sungai Buntu, Johor",
    "State": "Johor",
    "UID": "A066",
    "Latitude": 1.344146,
    "Longitude": 104.1979421,
    "img": "No",
    "no_img": ""
  },
  {
    "Name": "釜山宮",
    "Notes": "",
    "Address": "",
    "State": "Johor",
    "UID": "A067",
    "Latitude": 0,
    "Longitude": 0,
    "img": "No",
    "no_img": ""
  },
  {
    "Name": "鳳山宮",
    "Notes": "",
    "Address": "Ma-Zu Temple , 345 , jalan Kurau 1, Kampung Sungai Rengit, 81600 Bandar Penawar, Johor",
    "State": "Johor",
    "UID": "A068",
    "Latitude": 1.3525705,
    "Longitude": 104.2197088,
    "img": "No",
    "no_img": ""
  },
  {
    "Name": "沈氏族廟",
    "Notes": "",
    "Address": "Unnam Road, Kempung Sungai Rengi , 81600 Bandar Penawar, Johor",
    "State": "Johor",
    "UID": "A069",
    "Latitude": 1.3512332,
    "Longitude": 104.2254005,
    "img": "Yes",
    "no_img": 2
  },
  {
    "Name": "夫人媽廟",
    "Notes": "",
    "Address": "Kempung Sungai Rengit , 81600 Pengerang, Johor",
    "State": "Johor",
    "UID": "A070",
    "Latitude": 1.350762,
    "Longitude": 104.2244809,
    "img": "Yes",
    "no_img": 1
  },
  {
    "Name": "寶安宮 – 四位王府廟",
    "Notes": "",
    "Address": "Jalan Kerisi, Kempung Sungai REngit , 81600 Pengerang , Johor",
    "State": "Johor",
    "UID": "A071",
    "Latitude": 1.3516627,
    "Longitude": 104.2246369,
    "img": "No",
    "no_img": ""
  },
  {
    "Name": "法主宮",
    "Notes": "",
    "Address": "Kampung sungait Rengit ,81620 Pengerang johor.",
    "State": "Johor",
    "UID": "A072",
    "Latitude": 1.350762,
    "Longitude": 104.2244809,
    "img": "No",
    "no_img": ""
  },
  {
    "Name": "五灣新鳳鳳山廟",
    "Notes": "",
    "Address": "Teluk Ramunia, 81600 Bandar penawar, Johor",
    "State": "Johor",
    "UID": "A073",
    "Latitude": 1.372823,
    "Longitude": 104.246609,
    "img": "No",
    "no_img": ""
  },
  {
    "Name": "8間廟",
    "Notes": "",
    "Address": "8 Chinnese Temple Village , 81900 bandar penawar, Johor",
    "State": "Johor",
    "UID": "A074",
    "Latitude": 1.3813798,
    "Longitude": 104.2617117,
    "img": "No",
    "no_img": ""
  },
  {
    "Name": "譚公廟TamKungTemple",
    "Notes": "",
    "Address": "35-59, Lorong 3, Taman Senai Utama, 81400 Senai, Johor",
    "State": "Johor",
    "UID": "A075",
    "Latitude": 1.6048235,
    "Longitude": 103.6450254,
    "img": "No",
    "no_img": ""
  },
  {
    "Name": "洪仙大帝廟",
    "Notes": "",
    "Address": "106, Jalan Seelong 5, Kampung Baru Seelong, 81400, Senai, Johor Bahru, , Johor",
    "State": "Johor",
    "UID": "A076",
    "Latitude": 1.6307979,
    "Longitude": 103.6939638,
    "img": "No",
    "no_img": ""
  },
  {
    "Name": "柔佛士乃濟公壇",
    "Notes": "",
    "Address": "No : LOT 6157, JALAN DASA, TAMAN DASA, 81400, SENAI, JOHOR.",
    "State": "Johor",
    "UID": "A077",
    "Latitude": 1.6081131,
    "Longitude": 103.6382597,
    "img": "No",
    "no_img": ""
  },
  {
    "Name": "士乃 觀音廟 Senai Guan Yin Ting",
    "Notes": "",
    "Address": "No : Lot 6157, Jalan Dasa, Taman Dasa, 81400 Senai, Johor",
    "State": "Johor",
    "UID": "A078",
    "Latitude": 1.6081131,
    "Longitude": 103.6382597,
    "img": "No",
    "no_img": ""
  },
  {
    "Name": "三清玉皇大帝",
    "Notes": "",
    "Address": "No : 8, Jalan Saleng, Kampung Baru Saleng, 81400 Senai, Johor",
    "State": "Johor",
    "UID": "A079",
    "Latitude": 1.629341,
    "Longitude": 103.6323196,
    "img": "No",
    "no_img": ""
  },
  {
    "Name": "士乃三山国王庙",
    "Notes": "",
    "Address": "",
    "State": "Johor",
    "UID": "A080",
    "Latitude": 0,
    "Longitude": 0,
    "img": "No",
    "no_img": ""
  },
  {
    "Name": "士乃大伯公",
    "Notes": "",
    "Address": "Taman Dasa, 81400 Senai, Johor",
    "State": "Johor",
    "UID": "A081",
    "Latitude": 1.607361,
    "Longitude": 103.6374631,
    "img": "No",
    "no_img": ""
  },
  {
    "Name": "八寶廟 大伯公",
    "Notes": "",
    "Address": "Taman Ehsan Jaya, Tebrau, Johor",
    "State": "Johor",
    "UID": "A082",
    "Latitude": 1.548463,
    "Longitude": 103.813092,
    "img": "No",
    "no_img": ""
  },
  {
    "Name": "蓮花宮 – 大，二，三爺伯",
    "Notes": "",
    "Address": "39, Jln EJ 5/1, Ehsan Jaya, Tebrau, Johor",
    "State": "Johor",
    "UID": "A083",
    "Latitude": 1.5512329,
    "Longitude": 103.8171021,
    "img": "No",
    "no_img": ""
  },
  {
    "Name": "新山儒家慈規堂",
    "Notes": "",
    "Address": "Jln Danau 1, Tmn Desa Jaya, Tebrau, Johor",
    "State": "Johor",
    "UID": "A084",
    "Latitude": 1.5552275,
    "Longitude": 103.80439,
    "img": "No",
    "no_img": ""
  },
  {
    "Name": "福德正神",
    "Notes": "華人寺廟",
    "Address": "Jalan Taban, Tebrau, Johor",
    "State": "Johor",
    "UID": "A085",
    "Latitude": 1.4926325,
    "Longitude": 103.7627811,
    "img": "No",
    "no_img": ""
  },
  {
    "Name": "三鳳宮",
    "Notes": "",
    "Address": "157, Jln Harimau, 世紀花園, Tebrau, Johor",
    "State": "Johor",
    "UID": "A086",
    "Latitude": 1.4776113,
    "Longitude": 103.7571252,
    "img": "No",
    "no_img": ""
  },
  {
    "Name": "萬佛如",
    "Notes": "住家泰國廟",
    "Address": "Jalan Taban, Tebrau, Johor",
    "State": "Johor",
    "UID": "A087",
    "Latitude": 1.4926325,
    "Longitude": 103.7627811,
    "img": "No",
    "no_img": ""
  },
  {
    "Name": "列光鎮北斗宮",
    "Notes": "",
    "Address": "2, Jalan Ara 22, Taman Desa Cemerlang, 81800 Ulu Tiram, Johor",
    "State": "Johor",
    "UID": "A088",
    "Latitude": 1.5630872,
    "Longitude": 103.8079273,
    "img": "No",
    "no_img": ""
  },
  {
    "Name": "天賜萬天官泰國廟",
    "Notes": "",
    "Address": "11, Jalan Lembing 6, Taman Puteri Wangsa, 81800 Ulu Tiram, Johor",
    "State": "Johor",
    "UID": "A089",
    "Latitude": 1.5941749,
    "Longitude": 103.7926118,
    "img": "No",
    "no_img": ""
  },
  {
    "Name": "山頂五鳳廟",
    "Notes": "",
    "Address": "22, Jalan Lembing 8, Taman Puteri Wangsa, 81800 Ulu Tiram, Johor",
    "State": "Johor",
    "UID": "A090",
    "Latitude": 1.5951219,
    "Longitude": 103.7926551,
    "img": "No",
    "no_img": ""
  },
  {
    "Name": "法輪精社",
    "Notes": "一真法界的分行",
    "Address": "1, Jalan Jenawi 13, Taman Puteri Wangsa, 81800 Ulu Tiram, Johor",
    "State": "Johor",
    "UID": "A091",
    "Latitude": 1.5945733,
    "Longitude": 103.797182,
    "img": "No",
    "no_img": ""
  },
  {
    "Name": "星君廟",
    "Notes": "",
    "Address": "33 Jalan Beladau 11 Taman Puteri Wangsa, Malaysia, Ulu Tiram Village, 81800 Johor",
    "State": "Johor",
    "UID": "A092",
    "Latitude": 1.5893297,
    "Longitude": 103.8062833,
    "img": "No",
    "no_img": ""
  },
  {
    "Name": "地南阿彌陀佛蓮社",
    "Notes": "同排還有鳳山寺，聖法堂和基督公會",
    "Address": "106 & 108, Jalan Intan, Taman Ros, 81800 Ulu Tiram, Johor",
    "State": "Johor",
    "UID": "A093",
    "Latitude": 1.5945588,
    "Longitude": 103.8183222,
    "img": "No",
    "no_img": ""
  },
  {
    "Name": "地南奧林菩提佛教會",
    "Notes": "",
    "Address": "Taman Tiram Jaya, 81800 Ulu Tiram, Johor",
    "State": "Johor",
    "UID": "A094",
    "Latitude": 1.5981531,
    "Longitude": 103.8114829,
    "img": "No",
    "no_img": ""
  },
  {
    "Name": "萬孚天後宮",
    "Notes": "",
    "Address": "52, J102, Kampung Baru Ban Foo, 81800 Ulu Tiram, Johor",
    "State": "Johor",
    "UID": "A095",
    "Latitude": 1.5676657,
    "Longitude": 103.8537562,
    "img": "No",
    "no_img": ""
  },
  {
    "Name": "萬孚協天宮",
    "Notes": "",
    "Address": "Kampung Baru Ban Foo, Johor, 81800 Ulu Tiram, Johor",
    "State": "Johor",
    "UID": "A096",
    "Latitude": 1.5672217,
    "Longitude": 103.8549591,
    "img": "No",
    "no_img": ""
  },
  {
    "Name": "法雨禪寺FA YI TEMPLE",
    "Notes": "",
    "Address": "Lot 380 Batu 13/4, Jalan Sungai Tiram, Johor",
    "State": "Johor",
    "UID": "A097",
    "Latitude": 1.601834,
    "Longitude": 103.8294842,
    "img": "No",
    "no_img": ""
  },
  {
    "Name": "柔佛雙溪地南古廟",
    "Notes": "",
    "Address": "Batu, 20, Jalan Sungai Tiram, 81800 Ulu Tiram, Johor",
    "State": "Johor",
    "UID": "A098",
    "Latitude": 1.601479,
    "Longitude": 103.8339188,
    "img": "No",
    "no_img": ""
  },
  {
    "Name": "淨業精舍 pure Karma Temple",
    "Notes": "",
    "Address": "Taman Peindustrian Cemerlang , 81800 Ulu Tiram, Johor",
    "State": "Johor",
    "UID": "A099",
    "Latitude": 1.554133,
    "Longitude": 103.822263,
    "img": "No",
    "no_img": ""
  },
  {
    "Name": "萬仙廟",
    "Notes": "",
    "Address": "Jalan Anggerik 1, Taman Kulai Utama, 81000 Kulai, Johor",
    "State": "Johor",
    "UID": "A100",
    "Latitude": 1.6653686,
    "Longitude": 103.5937773,
    "img": "No",
    "no_img": ""
  },
  {
    "Name": "法主庙 昆崙洞",
    "Notes": "",
    "Address": "525, Jalan Serunai 10, Taman Pancasila, 81400 Kulai, Johor",
    "State": "Johor",
    "UID": "A101",
    "Latitude": 1.6295173,
    "Longitude": 103.6298906,
    "img": "No",
    "no_img": ""
  },
  {
    "Name": "沙令古來区法灵壇洪仙大帝",
    "Notes": "",
    "Address": "245, Jalan Serunai 4, Taman Saleng, 81400 Senai, Johor",
    "State": "Johor",
    "UID": "A102",
    "Latitude": 1.6297258,
    "Longitude": 103.6295488,
    "img": "No",
    "no_img": ""
  },
  {
    "Name": "沙冷光明寺",
    "Notes": "店屋樓上沒有開門",
    "Address": "",
    "State": "Johor",
    "UID": "A103",
    "Latitude": 0,
    "Longitude": 0,
    "img": "No",
    "no_img": ""
  },
  {
    "Name": "古来沙岭诸葛孔明仙師八卦牌",
    "Notes": "店屋樓上，很多人去求財",
    "Address": "",
    "State": "Johor",
    "UID": "A104",
    "Latitude": 0,
    "Longitude": 0,
    "img": "No",
    "no_img": ""
  },
  {
    "Name": "五显宫 华光大帝",
    "Notes": "",
    "Address": "13, Jalan Saleng 10, Taman Saleng Indah, 81400 Kulai, Johor",
    "State": "Johor",
    "UID": "A105",
    "Latitude": 1.6297755,
    "Longitude": 103.6338498,
    "img": "No",
    "no_img": ""
  },
  {
    "Name": "花菓宮 • 大聖佛祖",
    "Notes": "",
    "Address": "Jalan Jambu 28, Taman Muhibbah, 81400 Kulai, Johor",
    "State": "Johor",
    "UID": "A106",
    "Latitude": 1.6226635,
    "Longitude": 103.6219731,
    "img": "No",
    "no_img": ""
  },
  {
    "Name": "古來真空祖師道堂",
    "Notes": "",
    "Address": "",
    "State": "Johor",
    "UID": "A107",
    "Latitude": 0,
    "Longitude": 0,
    "img": "No",
    "no_img": ""
  },
  {
    "Name": "古来沙岭新村關帝亭",
    "Notes": "",
    "Address": "",
    "State": "Johor",
    "UID": "A108",
    "Latitude": 0,
    "Longitude": 0,
    "img": "No",
    "no_img": ""
  },
  {
    "Name": "玉皇協天大帝",
    "Notes": "",
    "Address": "Johor, Kulai, Jalan Sekolah Cina  81000, Johor",
    "State": "Johor",
    "UID": "A109",
    "Latitude": 1.657988,
    "Longitude": 103.6035258,
    "img": "No",
    "no_img": ""
  },
  {
    "Name": "善莲堂（观音堂）",
    "Notes": "",
    "Address": "",
    "State": "Johor",
    "UID": "A110",
    "Latitude": 0,
    "Longitude": 0,
    "img": "No",
    "no_img": ""
  },
  {
    "Name": "真佛宗 敬佛堂",
    "Notes": "",
    "Address": "6035, Jalan Persiaran Indahpura 3, Bandar Indahpura, 81000 Kulai, Johor",
    "State": "Johor",
    "UID": "A111",
    "Latitude": 1.6545995,
    "Longitude": 103.596563,
    "img": "No",
    "no_img": ""
  },
  {
    "Name": "龍巖廟 （ 太上老君 ）",
    "Notes": "",
    "Address": "",
    "State": "Johor",
    "UID": "A112",
    "Latitude": 0,
    "Longitude": 0,
    "img": "No",
    "no_img": ""
  },
  {
    "Name": "雲山宮 / 南海慈航宫",
    "Notes": "",
    "Address": "Lorong 2, Kulai",
    "State": "Johor",
    "UID": "A113",
    "Latitude": 1.6494801,
    "Longitude": 103.6131956,
    "img": "No",
    "no_img": ""
  },
  {
    "Name": "柔佛州道教協會",
    "Notes": "",
    "Address": "No :15，Jalan Indah 3, Taman Sawit Indah, 81000 Kulai, Johor",
    "State": "Johor",
    "UID": "A114",
    "Latitude": 1.6731345,
    "Longitude": 103.5253689,
    "img": "No",
    "no_img": ""
  },
  {
    "Name": "新山噶瑪噶舉佛教會",
    "Notes": "是一間藏傳佛堂",
    "Address": "19, Jalan Molek 3/19, Taman Molek, 81100 Johor Bahru, Johor",
    "State": "Johor",
    "UID": "A115",
    "Latitude": 1.5190143,
    "Longitude": 103.7875563,
    "img": "No",
    "no_img": ""
  },
  {
    "Name": "中元天帝宮ChineseTemple",
    "Notes": "",
    "Address": "15, Jalan Bakawali 48, Johor Jaya, 81100 Johor Bahru, Johor",
    "State": "Johor",
    "UID": "A116",
    "Latitude": 1.5408575,
    "Longitude": 103.7964974,
    "img": "No",
    "no_img": ""
  },
  {
    "Name": "三合宮ChineseTemple",
    "Notes": "",
    "Address": "Jalan Dedap 30, Johor Jaya, 81100 Johor Bahru, Johor",
    "State": "Johor",
    "UID": "A117",
    "Latitude": 1.5404928,
    "Longitude": 103.7993893,
    "img": "No",
    "no_img": ""
  },
  {
    "Name": "天公壇 Taoist Temple",
    "Notes": "",
    "Address": "Taman Johor Jaya, 81100 Johor Bahru, Johor",
    "State": "Johor",
    "UID": "A118",
    "Latitude": 1.535573,
    "Longitude": 103.7978201,
    "img": "No",
    "no_img": ""
  },
  {
    "Name": "福林园济圣宫",
    "Notes": "",
    "Address": "Jalan Sagu 35, Taman Daya, 81100 Johor Bahru, Johor",
    "State": "Johor",
    "UID": "A119",
    "Latitude": 1.5487351,
    "Longitude": 103.7636737,
    "img": "No",
    "no_img": ""
  },
  {
    "Name": "阿依淡大伯公Tokong Air Hitam",
    "Notes": "",
    "Address": "Jalan Parit Haji Adnan, 82100 Ayer Baloi, Johor",
    "State": "Johor",
    "UID": "A120",
    "Latitude": 1.582082,
    "Longitude": 103.4318283,
    "img": "No",
    "no_img": ""
  },
  {
    "Name": "善才爷Nam Thien Temple",
    "Notes": "",
    "Address": "Jalan Dato Koh Thian Peng, Parit Unas, Johor, 84150 Muar, Johor",
    "State": "Johor",
    "UID": "A121",
    "Latitude": 1.9855531,
    "Longitude": 102.6008273,
    "img": "No",
    "no_img": ""
  },
  {
    "Name": "仙公山",
    "Notes": "",
    "Address": "Parit Bakar, 84200 Muar, Johor",
    "State": "Johor",
    "UID": "A122",
    "Latitude": 2.034846,
    "Longitude": 102.7364962,
    "img": "No",
    "no_img": ""
  },
  {
    "Name": "巴口真人宫",
    "Notes": "",
    "Address": "Jalan Muar, 84200 Bukit Bakri, Johor",
    "State": "Johor",
    "UID": "A123",
    "Latitude": 2.03657,
    "Longitude": 102.659988,
    "img": "No",
    "no_img": ""
  },
  {
    "Name": "白凤仙师宫",
    "Notes": "",
    "Address": "84200 Bukit Bakri, Johor",
    "State": "Johor",
    "UID": "A124",
    "Latitude": 2.041668,
    "Longitude": 102.657731,
    "img": "No",
    "no_img": ""
  },
  {
    "Name": "天安堂•准提菩萨",
    "Notes": "",
    "Address": "Taman Bakri Indah, 84200 Bukit Bakri, Johor",
    "State": "Johor",
    "UID": "A125",
    "Latitude": 2.0390669,
    "Longitude": 102.6575074,
    "img": "No",
    "no_img": ""
  },
  {
    "Name": "廻龍舘",
    "Notes": "此庙建于1946年，有74年历史",
    "Address": "Johor, Bukit Bakri, Jalan Muar, No 14 邮政编码: 84200",
    "State": "Johor",
    "UID": "A126",
    "Latitude": 2.0408434,
    "Longitude": 102.6571281,
    "img": "No",
    "no_img": ""
  },
  {
    "Name": "白马老师公庙",
    "Notes": "",
    "Address": "Jln Padang, Bukit Bakri, 84200 Bukit Bakri, Johor",
    "State": "Johor",
    "UID": "A127",
    "Latitude": 2.0428289,
    "Longitude": 102.6615577,
    "img": "No",
    "no_img": ""
  },
  {
    "Name": "吧口晋程廟",
    "Notes": "",
    "Address": "395, Jln Lempoyang, Taman Bukit Bakri, 84200 Bukit Bakri, Johor",
    "State": "Johor",
    "UID": "A128",
    "Latitude": 2.0420469,
    "Longitude": 102.6621306,
    "img": "No",
    "no_img": ""
  },
  {
    "Name": "飞来洞",
    "Notes": "建于 1955 年",
    "Address": "24, Kampung Kenangan Dato Abdullah Jaafar, 84200 Bukit Bakri, Johor",
    "State": "Johor",
    "UID": "A129",
    "Latitude": 2.0426302,
    "Longitude": 102.6514741,
    "img": "No",
    "no_img": ""
  },
  {
    "Name": "麻坡慧海净宗学会",
    "Notes": "",
    "Address": "No.5 Jalan Dato' Haji Kosai 3, Taman Dato' Haji Kosai, Jalan Bakri, Johor",
    "State": "Johor",
    "UID": "A130",
    "Latitude": 2.0450234,
    "Longitude": 102.5969683,
    "img": "No",
    "no_img": ""
  },
  {
    "Name": "麻坡天亭堂白衣娘娘",
    "Notes": "",
    "Address": "Jalan Indah 13, Taman Indah, Johor, 84000 Muar town, Johor",
    "State": "Johor",
    "UID": "A131",
    "Latitude": 2.0554738,
    "Longitude": 102.597868,
    "img": "No",
    "no_img": ""
  },
  {
    "Name": "麻坡玉封玉龙宫",
    "Notes": "",
    "Address": "Taman Sakeh Baru, 84000 Muar, Johor",
    "State": "Johor",
    "UID": "A132",
    "Latitude": 2.053784,
    "Longitude": 102.5846701,
    "img": "No",
    "no_img": ""
  },
  {
    "Name": "麻坡新奇珍宴会所",
    "Notes": "",
    "Address": "68, Jalan Sungai Abong, Taman Sakeh Baru, 84000 Muar, Johor",
    "State": "Johor",
    "UID": "A133",
    "Latitude": 2.0586497,
    "Longitude": 102.5785836,
    "img": "No",
    "no_img": ""
  },
  {
    "Name": "麻坡佛教净业寺",
    "Notes": "",
    "Address": "Jalan Sulaiman, Kampung Dato Bentara Dalam, 84000 Muar, Johor",
    "State": "Johor",
    "UID": "A134",
    "Latitude": 2.0392217,
    "Longitude": 102.5706907,
    "img": "No",
    "no_img": ""
  },
  {
    "Name": "修德善堂",
    "Notes": "",
    "Address": "No. 40, Jalan Sultan Ibrahim, Pekan Muar, 84000 Muar, Johor",
    "State": "Johor",
    "UID": "A135",
    "Latitude": 2.0373602,
    "Longitude": 102.571965,
    "img": "No",
    "no_img": ""
  },
  {
    "Name": "中水宫 Zhong Shui Gong",
    "Notes": "",
    "Address": "Kampung Dato Bentara Luar, 84000, Muar, Johor.",
    "State": "Johor",
    "UID": "A136",
    "Latitude": 2.037081,
    "Longitude": 102.5749249,
    "img": "No",
    "no_img": ""
  },
  {
    "Name": "金龍寺 Kim Leng Tze",
    "Notes": "",
    "Address": "2700, 5, Kampung Sabak Aur, 84000 Muar, Johor",
    "State": "Johor",
    "UID": "A137",
    "Latitude": 2.0798955,
    "Longitude": 102.5681176,
    "img": "No",
    "no_img": ""
  },
  {
    "Name": "慈云精舍-一(真法界公行)",
    "Notes": "",
    "Address": "Jalan Sekolah, Bukit Bakri, 84250, Bukit Bakri, Johor",
    "State": "Johor",
    "UID": "A138",
    "Latitude": 2.0435956,
    "Longitude": 102.6585334,
    "img": "No",
    "no_img": ""
  },
  {
    "Name": "麻坡天亭堂白衣娘娘",
    "Notes": "",
    "Address": "Jalan Indah 13, Taman Indah, Johor, 84000 Muar town, Johor",
    "State": "Johor",
    "UID": "A139",
    "Latitude": 2.0554738,
    "Longitude": 102.597868,
    "img": "No",
    "no_img": ""
  },
  {
    "Name": "麻坡玉封玉龙宫",
    "Notes": "",
    "Address": "Taman Sakeh Baru, 84000 Muar, Johor",
    "State": "Johor",
    "UID": "A140",
    "Latitude": 2.053784,
    "Longitude": 102.5846701,
    "img": "No",
    "no_img": ""
  },
  {
    "Name": "吧口福音堂 - 吧口福音堂",
    "Notes": "",
    "Address": "Kampung Kenangan Dato Abdullah Jaafar, 84200 Bukit Bakri, Johor",
    "State": "Johor",
    "UID": "A141",
    "Latitude": 2.04419,
    "Longitude": 102.6517349,
    "img": "No",
    "no_img": ""
  },
  {
    "Name": "麻屬班萃善寶宮",
    "Notes": "",
    "Address": "",
    "State": "Johor",
    "UID": "A142",
    "Latitude": 0,
    "Longitude": 0,
    "img": "Yes",
    "no_img": 1
  },
  {
    "Name": "玉皇上帝廟",
    "Notes": "",
    "Address": "",
    "State": "Johor",
    "UID": "A143",
    "Latitude": 0,
    "Longitude": 0,
    "img": "No",
    "no_img": ""
  },
  {
    "Name": "玉皇高上帝廟",
    "Notes": "",
    "Address": "",
    "State": "Johor",
    "UID": "A144",
    "Latitude": 0,
    "Longitude": 0,
    "img": "No",
    "no_img": ""
  },
  {
    "Name": "城隍殿",
    "Notes": "",
    "Address": "",
    "State": "Johor",
    "UID": "A145",
    "Latitude": 0,
    "Longitude": 0,
    "img": "No",
    "no_img": ""
  },
  {
    "Name": "柔佛州麻坡班卒靈安殿麻坡河",
    "Notes": "",
    "Address": "",
    "State": "Johor",
    "UID": "A146",
    "Latitude": 0,
    "Longitude": 0,
    "img": "No",
    "no_img": ""
  },
  {
    "Name": "玉檺林宮",
    "Notes": "",
    "Address": "218, Jalan Poh Ai, 84700 Gerisek, Johor",
    "State": "Johor",
    "UID": "A147",
    "Latitude": 2.2115889,
    "Longitude": 102.6575364,
    "img": "No",
    "no_img": ""
  },
  {
    "Name": "聖姑廟",
    "Notes": "",
    "Address": "Bukit Gambir, 84700 Bukit Gambir, Johor",
    "State": "Johor",
    "UID": "A148",
    "Latitude": 2.212505,
    "Longitude": 102.6543938,
    "img": "Yes",
    "no_img": 32
  },
  {
    "Name": "天雲寺 / 永春烏鬚觀音",
    "Notes": "",
    "Address": "84700, Jln Sengkang, 84700 Gerisek, Johor",
    "State": "Johor",
    "UID": "A149",
    "Latitude": 2.2462489,
    "Longitude": 102.6690262,
    "img": "No",
    "no_img": ""
  },
  {
    "Name": "侯爺符 / 天波楊門",
    "Notes": "",
    "Address": "Jalan Sengkang, 84700 Gerisek, Johor",
    "State": "Johor",
    "UID": "A150",
    "Latitude": 2.2462489,
    "Longitude": 102.6690262,
    "img": "No",
    "no_img": ""
  },
  {
    "Name": "比亞南佛寺",
    "Notes": "",
    "Address": "Tangkak, Unnamed Road, Kampung Tanjong Batu 15, 84900 Tangkak Joh, Johor",
    "State": "Johor",
    "UID": "A151",
    "Latitude": 2.2554645,
    "Longitude": 102.5444354,
    "img": "Yes",
    "no_img": 1
  },
  {
    "Name": "東甲龍福堂(LongFu Temple)",
    "Notes": "",
    "Address": "Jln Sialang, Kampung Tanjung Batu, 84900 Tangkak, Johor",
    "State": "Johor",
    "UID": "A152",
    "Latitude": 2.268864,
    "Longitude": 102.534583,
    "img": "No",
    "no_img": ""
  },
  {
    "Name": "福泉宫善财爷张公圣君庙",
    "Notes": "",
    "Address": "15, Jalan Sentosa 2, Taman Sentosa, 84900 Tangkak, Johor",
    "State": "Johor",
    "UID": "A153",
    "Latitude": 2.275999,
    "Longitude": 102.5394925,
    "img": "No",
    "no_img": ""
  },
  {
    "Name": "大老爷(聖靈宫)",
    "Notes": "此庙有 48 年历史",
    "Address": "Taman Sentosa, 84900 Tangkak, Johor",
    "State": "Johor",
    "UID": "A154",
    "Latitude": 2.272364,
    "Longitude": 102.5384191,
    "img": "No",
    "no_img": ""
  },
  {
    "Name": "茧云宫",
    "Notes": "此廟有 124 年曆史/ 三聖宮",
    "Address": "Jalan Padang Lalang, Kampung Padang Lalang, 84900 Tangkak, Johor",
    "State": "Johor",
    "UID": "A155",
    "Latitude": 2.2712655,
    "Longitude": 102.5450202,
    "img": "No",
    "no_img": ""
  },
  {
    "Name": "武吉港脚天后宫",
    "Notes": "",
    "Address": "Kampung Parit Pelampong, 84300 Sungai Mati, Johor",
    "State": "Johor",
    "UID": "A156",
    "Latitude": 2.171105,
    "Longitude": 102.5576521,
    "img": "No",
    "no_img": ""
  },
  {
    "Name": "實廊南海觀音廟",
    "Notes": "",
    "Address": "Jln Serom 4 Hilir, 84400 Sungai Mati, Johor",
    "State": "Johor",
    "UID": "A157",
    "Latitude": 2.1658943,
    "Longitude": 102.5916288,
    "img": "No",
    "no_img": ""
  },
  {
    "Name": "古灵殿",
    "Notes": "此廟建於 1967 年",
    "Address": "Jalan Paip, Kampung Pantai Layang, 84400 Sungai Mati, Johor",
    "State": "Johor",
    "UID": "A158",
    "Latitude": 2.0812318,
    "Longitude": 102.5789739,
    "img": "No",
    "no_img": ""
  },
  {
    "Name": "麻坡南海飞来观音菩萨",
    "Notes": "",
    "Address": "104, Jalan Maharani, Taman Sri Emas, 84000 Muar, Johor",
    "State": "Johor",
    "UID": "A159",
    "Latitude": 2.0496819,
    "Longitude": 102.5693822,
    "img": "No",
    "no_img": ""
  },
  {
    "Name": "麻坡粤东古庙",
    "Notes": "",
    "Address": "84000, Johor",
    "State": "Johor",
    "UID": "A160",
    "Latitude": 2.0359456,
    "Longitude": 102.5986597,
    "img": "No",
    "no_img": ""
  },
  {
    "Name": "麻坡天春堂",
    "Notes": "此廟 80 多年",
    "Address": "32, Jalan Bakri, 84000 Muar, Johor",
    "State": "Johor",
    "UID": "A161",
    "Latitude": 2.0484219,
    "Longitude": 102.5815728,
    "img": "No",
    "no_img": ""
  },
  {
    "Name": "Ching San Miao Temple 青山庙",
    "Notes": "",
    "Address": "107, Jalan Ismail, Sabak Awor, 84000 Muar, Johor",
    "State": "Johor",
    "UID": "A162",
    "Latitude": 2.0691462,
    "Longitude": 102.5650693,
    "img": "No",
    "no_img": ""
  },
  {
    "Name": "黄老仙师慈天宫",
    "Notes": "",
    "Address": "84000 Muar, Johor",
    "State": "Johor",
    "UID": "A163",
    "Latitude": 2.0359456,
    "Longitude": 102.5986597,
    "img": "No",
    "no_img": ""
  },
  {
    "Name": "麻坡大悲林",
    "Notes": "",
    "Address": "Taman Muar, 84000 Muar, Johor",
    "State": "Johor",
    "UID": "A164",
    "Latitude": 2.077203,
    "Longitude": 102.5741221,
    "img": "No",
    "no_img": ""
  },
  {
    "Name": "新加望城隍庙",
    "Notes": "",
    "Address": "Taman Desa, 84000 Muar, Johor",
    "State": "Johor",
    "UID": "A165",
    "Latitude": 2.067003,
    "Longitude": 102.5922938,
    "img": "Yes",
    "no_img": 7
  },
  {
    "Name": "欽巡池府王爺-大人公崎頭館",
    "Notes": "",
    "Address": "Jalan Ong Siong, 84900 Tangkak, Johor.",
    "State": "Johor",
    "UID": "A166",
    "Latitude": 2.2742655,
    "Longitude": 102.5410671,
    "img": "No",
    "no_img": ""
  },
  {
    "Name": "天惠觀音堂",
    "Notes": "",
    "Address": "Jalan Abdul Rahman, Taman Khalidi Baru, 84000, Muar, Johor.",
    "State": "Johor",
    "UID": "A167",
    "Latitude": 2.037626,
    "Longitude": 102.561529,
    "img": "No",
    "no_img": ""
  },
  {
    "Name": "保零殿",
    "Notes": "",
    "Address": "Pagoh, 84600 Pagoh, Johor",
    "State": "Johor",
    "UID": "A168",
    "Latitude": 2.149223,
    "Longitude": 102.7721509,
    "img": "No",
    "no_img": ""
  },
  {
    "Name": "巴莪南天庙",
    "Notes": "",
    "Address": "Pagoh, 84600 Pagoh, Johor",
    "State": "Johor",
    "UID": "A169",
    "Latitude": 2.149223,
    "Longitude": 102.7721509,
    "img": "No",
    "no_img": ""
  },
  {
    "Name": "麻坡巴莪老港圣明庙",
    "Notes": "",
    "Address": "Kampung Paya Pagoh, 84600 Pagoh, Johor",
    "State": "Johor",
    "UID": "A170",
    "Latitude": 2.166633,
    "Longitude": 102.7579169,
    "img": "No",
    "no_img": ""
  },
  {
    "Name": "圣君殿",
    "Notes": "",
    "Address": "Taman Sri Pagoh, 84600 Pagoh, Johor",
    "State": "Johor",
    "UID": "A171",
    "Latitude": 2.1421255,
    "Longitude": 102.7746619,
    "img": "No",
    "no_img": ""
  },
  {
    "Name": "巴莪南天庙",
    "Notes": "",
    "Address": "Pagoh, 84600 Pagoh, Johor",
    "State": "Johor",
    "UID": "A172",
    "Latitude": 2.149223,
    "Longitude": 102.7721509,
    "img": "No",
    "no_img": ""
  },
  {
    "Name": "飛來洞",
    "Notes": "",
    "Address": "Jalan Balai Raya, Taman Bukit Pasir, 84300 Bukit Pasir, Johor",
    "State": "Johor",
    "UID": "A173",
    "Latitude": 2.0996518,
    "Longitude": 102.638599,
    "img": "No",
    "no_img": ""
  },
  {
    "Name": "头条福寿宫老庙",
    "Notes": "（ 70年 老廟 ）1946 年建立",
    "Address": "84300 Bukit Pasir, Johor",
    "State": "Johor",
    "UID": "A174",
    "Latitude": 2.1013592,
    "Longitude": 102.6376601,
    "img": "No",
    "no_img": ""
  },
  {
    "Name": "顺平官",
    "Notes": "",
    "Address": "3, Jln Kemuning 6, Taman Bukit Pasir, 84300 Bukit Pasir, Johor",
    "State": "Johor",
    "UID": "A175",
    "Latitude": 2.1048316,
    "Longitude": 102.6391753,
    "img": "No",
    "no_img": ""
  },
  {
    "Name": "玄順殿",
    "Notes": "",
    "Address": "JJ13/, ,Block B, 4, Jalan Tepi 1, 84300 Bukit Pasir, Johor",
    "State": "Johor",
    "UID": "A176",
    "Latitude": 2.1025049,
    "Longitude": 102.6375125,
    "img": "No",
    "no_img": ""
  },
  {
    "Name": "古樹宮",
    "Notes": "",
    "Address": "",
    "State": "Johor",
    "UID": "A177",
    "Latitude": 0,
    "Longitude": 0,
    "img": "No",
    "no_img": ""
  },
  {
    "Name": "禅清殿",
    "Notes": "",
    "Address": "Unnamed Road, 84000, 84000, Johor",
    "State": "Johor",
    "UID": "A178",
    "Latitude": 2.0538575,
    "Longitude": 102.5680727,
    "img": "No",
    "no_img": ""
  },
  {
    "Name": "慧觉殿",
    "Notes": "",
    "Address": "Temple of Ji Gong 183, Jln Merah 8, 84000 Muar, Johor",
    "State": "Johor",
    "UID": "A179",
    "Latitude": 2.0674204,
    "Longitude": 102.5996946,
    "img": "No",
    "no_img": ""
  },
  {
    "Name": "龍山嚴",
    "Notes": "",
    "Address": "Jalan Temenggong Ahmad, Taman Parit Bakar Indah, Johor, 84010 Muar",
    "State": "Johor",
    "UID": "A180",
    "Latitude": 2.004447,
    "Longitude": 102.6046674,
    "img": "No",
    "no_img": ""
  },
  {
    "Name": "翠美古庙",
    "Notes": "",
    "Address": "Chinese Temple, 84150 Parit Jawa, Johor",
    "State": "Johor",
    "UID": "A181",
    "Latitude": 1.9509244,
    "Longitude": 102.6340253,
    "img": "No",
    "no_img": ""
  },
  {
    "Name": "清水祖師",
    "Notes": "",
    "Address": "Chinese Temple, 84150 Parit Jawa, Johor",
    "State": "Johor",
    "UID": "A182",
    "Latitude": 1.9509244,
    "Longitude": 102.6340253,
    "img": "No",
    "no_img": ""
  },
  {
    "Name": "一真法界 Yap Chan Fatt Kai Temple,",
    "Notes": "",
    "Address": "No192 , Jalan Tapah, Skudai.",
    "State": "Johor",
    "UID": "A183",
    "Latitude": 1.5382064,
    "Longitude": 103.6568801,
    "img": "No",
    "no_img": ""
  },
  {
    "Name": "鬼谷仙師",
    "Notes": "",
    "Address": "Kampung Ungku Mohsin Jalan Tampoi, Johor",
    "State": "Johor",
    "UID": "A184",
    "Latitude": 1.5146841,
    "Longitude": 103.7374557,
    "img": "No",
    "no_img": ""
  },
  {
    "Name": "樂符宮",
    "Notes": "",
    "Address": "Jalan Riang 22, Taman Gembira",
    "State": "Johor",
    "UID": "A185",
    "Latitude": 3.0823794,
    "Longitude": 101.6785917,
    "img": "No",
    "no_img": ""
  },
  {
    "Name": "洪仙宮",
    "Notes": "",
    "Address": "B85, Jalan Indah 5/14, Taman Bukit indah, 81200 Johor Bahru",
    "State": "Johor",
    "UID": "A186",
    "Latitude": 1.483253,
    "Longitude": 103.6434183,
    "img": "No",
    "no_img": ""
  },
  {
    "Name": "水尾聖娘",
    "Notes": "62年歷史 / 皇后黃梨場第一間廟",
    "Address": "Jalan Tun Teja, Skudai, 81300 Johor Bahru",
    "State": "Johor",
    "UID": "A187",
    "Latitude": 1.5248347,
    "Longitude": 103.6668347,
    "img": "No",
    "no_img": ""
  },
  {
    "Name": "福德廟",
    "Notes": "",
    "Address": "120, Jalan Seri Orkid 15, Taman Seri Orkid, 81300 Skudai, Johor",
    "State": "Johor",
    "UID": "A188",
    "Latitude": 1.5112238,
    "Longitude": 103.6424215,
    "img": "No",
    "no_img": ""
  },
  {
    "Name": "天樂宮神廟",
    "Notes": "",
    "Address": "Taman Selesa Jaya, 81300 Skudai, Johor",
    "State": "Johor",
    "UID": "A189",
    "Latitude": 1.489736,
    "Longitude": 103.634924,
    "img": "No",
    "no_img": ""
  },
  {
    "Name": "大學城關帝廟 Guan Ti Temple Taman U",
    "Notes": "",
    "Address": "PTD ： 62501, Jalan Kejayaan 8, Taman Universiti, 81300 Skudai, Johor",
    "State": "Johor",
    "UID": "A190",
    "Latitude": 1.5295636,
    "Longitude": 103.6272827,
    "img": "No",
    "no_img": ""
  },
  {
    "Name": "二郎神廟",
    "Notes": "",
    "Address": "Jalan Kebangsaan 29, Taman Universiti, 81300 Skudai, Johor",
    "State": "Johor",
    "UID": "A191",
    "Latitude": 1.5330556,
    "Longitude": 103.629994,
    "img": "No",
    "no_img": ""
  },
  {
    "Name": "鰲峰宮， 保生大帝",
    "Notes": "",
    "Address": "Taman Sutera Utama , 81300 Skudai, Johor",
    "State": "Johor",
    "UID": "A192",
    "Latitude": 1.512862,
    "Longitude": 103.664862,
    "img": "No",
    "no_img": ""
  },
  {
    "Name": "拿督公廟",
    "Notes": "",
    "Address": "Jalan Tun Teja, Skudai 81300 Johor Bahru, Johor",
    "State": "Johor",
    "UID": "A193",
    "Latitude": 1.5248347,
    "Longitude": 103.6668347,
    "img": "No",
    "no_img": ""
  },
  {
    "Name": "洪仙大帝",
    "Notes": "",
    "Address": "60-55 , Jalan Tun Teja, Skudai 81300 Johor Bahru, Johor",
    "State": "Johor",
    "UID": "A194",
    "Latitude": 1.5225426,
    "Longitude": 103.670205,
    "img": "No",
    "no_img": ""
  },
  {
    "Name": "皇后八里半乾坤宮仙師公，鬼谷子先師廟",
    "Notes": "",
    "Address": "",
    "State": "Johor",
    "UID": "A195",
    "Latitude": 0,
    "Longitude": 0,
    "img": "No",
    "no_img": ""
  },
  {
    "Name": "三山國王廟",
    "Notes": "",
    "Address": "46, Jalan Jambu, Kampung Melayu, Kangkar Pulai, 81100 , Johor",
    "State": "Johor",
    "UID": "A196",
    "Latitude": 1.5580953,
    "Longitude": 103.5932376,
    "img": "No",
    "no_img": ""
  },
  {
    "Name": "皇后花园法主公宫",
    "Notes": "",
    "Address": "Jalan Bentara 9, Taman Ungku Tun Aminah, 81300 Skudai, Johor",
    "State": "Johor",
    "UID": "A197",
    "Latitude": 1.5168339,
    "Longitude": 103.6610933,
    "img": "No",
    "no_img": ""
  },
  {
    "Name": "士古来玉旨敕封三教中佛殿",
    "Notes": "",
    "Address": "29, Jalan Impian Emas 22, Taman Impian Emas, 81300 Skudai, Johor",
    "State": "Johor",
    "UID": "A198",
    "Latitude": 1.5360012,
    "Longitude": 103.6720518,
    "img": "No",
    "no_img": ""
  },
  {
    "Name": "圆观堂",
    "Notes": "",
    "Address": "54, Jalan Ronggeng 19, Taman Nesa, 81300 Skudai, Johor.",
    "State": "Johor",
    "UID": "A199",
    "Latitude": 1.5271407,
    "Longitude": 103.6576497,
    "img": "No",
    "no_img": ""
  },
  {
    "Name": "武天宫 Wu Tian Gong",
    "Notes": "",
    "Address": "4, Jalan Ceria 19, Taman Nusa Indah, 81200 Johor Bahru, Johor",
    "State": "Johor",
    "UID": "A200",
    "Latitude": 1.4771876,
    "Longitude": 103.6330085,
    "img": "No",
    "no_img": ""
  },
  {
    "Name": "慈濟 Buddhist Tzu Chi Foundation Malaysia (Johor Bahru)",
    "Notes": "",
    "Address": "3, Jalan Jaguh 1, Taman Harmoni 2, 81300 Skudai, Johor",
    "State": "Johor",
    "UID": "A201",
    "Latitude": 1.5266668,
    "Longitude": 103.6493526,
    "img": "No",
    "no_img": ""
  },
  {
    "Name": "Buddhist Tzu Chi Foundation Malaysia (Johor Bahru) 慈濟",
    "Notes": "",
    "Address": "3, Jalan Jaguh 1, Taman Harmoni 2, 81300 Skudai, Johor",
    "State": "Johor",
    "UID": "A202",
    "Latitude": 1.5266668,
    "Longitude": 103.6493526,
    "img": "No",
    "no_img": ""
  },
  {
    "Name": "武天宫",
    "Notes": "",
    "Address": "4, Jalan Ceria 19, Taman Nusa Indah, 81200 Johor Bahru, Johor",
    "State": "Johor",
    "UID": "A203",
    "Latitude": 1.4771876,
    "Longitude": 103.6330085,
    "img": "No",
    "no_img": ""
  },
  {
    "Name": "弥陀之家东林寺",
    "Notes": "",
    "Address": "No 18, Jalan Pertama 4, Pusat Perdagangan Danga Utama, Johor",
    "State": "Johor",
    "UID": "A204",
    "Latitude": 1.5190766,
    "Longitude": 103.678989,
    "img": "No",
    "no_img": ""
  },
  {
    "Name": "圆观堂",
    "Notes": "",
    "Address": "54, Jalan Ronggeng 19, Taman Nesa, 81300 Skudai, Johor",
    "State": "Johor",
    "UID": "A205",
    "Latitude": 1.5271407,
    "Longitude": 103.6576497,
    "img": "No",
    "no_img": ""
  },
  {
    "Name": "金刚寺",
    "Notes": "",
    "Address": "No. 2, Jalan Temenggong 9, Taman Ungku Tun Aminah, 81300 Skudai, Johor",
    "State": "Johor",
    "UID": "A206",
    "Latitude": 1.5104369,
    "Longitude": 103.653161,
    "img": "No",
    "no_img": ""
  },
  {
    "Name": "仙靈廟",
    "Notes": "",
    "Address": "Jementah",
    "State": "Johor",
    "UID": "A207",
    "Latitude": 2.440059,
    "Longitude": 102.6851551,
    "img": "No",
    "no_img": ""
  },
  {
    "Name": "皇后花园法主公宫",
    "Notes": "",
    "Address": "Jalan Bentara 9, Taman Ungku Tun Aminah, 81300 Skudai, Johor",
    "State": "Johor",
    "UID": "A208",
    "Latitude": 1.5168339,
    "Longitude": 103.6610933,
    "img": "No",
    "no_img": ""
  },
  {
    "Name": "慈濟",
    "Notes": "",
    "Address": "3, Jalan Jaguh 1, Taman Harmoni 2, 81300 Skudai, Johor",
    "State": "Johor",
    "UID": "A209",
    "Latitude": 1.5266668,
    "Longitude": 103.6493526,
    "img": "No",
    "no_img": ""
  },
  {
    "Name": "武天宫 Wu Tian Gong",
    "Notes": "",
    "Address": "4, Jalan Ceria 19, Taman Nusa Indah, 81200 Johor Bahru, Johor",
    "State": "Johor",
    "UID": "A210",
    "Latitude": 1.4771876,
    "Longitude": 103.6330085,
    "img": "No",
    "no_img": ""
  },
  {
    "Name": "圆观堂",
    "Notes": "",
    "Address": "54, Jalan Ronggeng 19, Taman Nesa, 81300 Skudai, Johor.",
    "State": "Johor",
    "UID": "A211",
    "Latitude": 1.5271407,
    "Longitude": 103.6576497,
    "img": "No",
    "no_img": ""
  },
  {
    "Name": "士古来玉旨敕封三教中佛殿",
    "Notes": "",
    "Address": "29, Jalan Impian Emas 22, Taman Impian Emas, 81300 Skudai, Johor",
    "State": "Johor",
    "UID": "A212",
    "Latitude": 1.5360012,
    "Longitude": 103.6720518,
    "img": "No",
    "no_img": ""
  },
  {
    "Name": "金刚寺",
    "Notes": "此庙有 20 多年历史",
    "Address": "No. 2, Jalan Temenggong 9, Taman Ungku Tun Aminah, 81300 Skudai,",
    "State": "Johor",
    "UID": "A213",
    "Latitude": 1.5104369,
    "Longitude": 103.653161,
    "img": "No",
    "no_img": ""
  },
  {
    "Name": "西陽伯公宮",
    "Notes": "有百多年歷史",
    "Address": "Lorong B-8, Pekan Nenas, Johor",
    "State": "Johor",
    "UID": "A214",
    "Latitude": 1.510691,
    "Longitude": 103.513365,
    "img": "No",
    "no_img": ""
  },
  {
    "Name": "吳爺宮",
    "Notes": "1953 建立， 有 67年的歷史",
    "Address": "Lorong B-5, Pekan Nenas, Johor.",
    "State": "Johor",
    "UID": "A215",
    "Latitude": 1.5082304,
    "Longitude": 103.5159703,
    "img": "No",
    "no_img": ""
  },
  {
    "Name": "聖德廟",
    "Notes": "",
    "Address": "510, Lorong C-5, Taman Sri Kiambang 81500 pekan Nenas , Johor",
    "State": "Johor",
    "UID": "A216",
    "Latitude": 1.5121632,
    "Longitude": 103.5101092,
    "img": "No",
    "no_img": ""
  },
  {
    "Name": "而南伯公廟",
    "Notes": "70年歷史",
    "Address": "458- 463, Lorong C-2, Taman Seri, Damanasara , 81500 Pekan Nenas, Johor",
    "State": "Johor",
    "UID": "A217",
    "Latitude": 1.510328,
    "Longitude": 103.508364,
    "img": "No",
    "no_img": ""
  },
  {
    "Name": "中國佈道會北干那那聖道堂",
    "Notes": "",
    "Address": "Lorong B-2, Pekan Nenas , 81500 Pekan Nenas, Johor",
    "State": "Johor",
    "UID": "A218",
    "Latitude": 1.509871,
    "Longitude": 103.51315,
    "img": "No",
    "no_img": ""
  },
  {
    "Name": "修本堂 ulu Choh",
    "Notes": "",
    "Address": "81500 Pekan Nenas, Johor",
    "State": "Johor",
    "UID": "A219",
    "Latitude": 1.507599,
    "Longitude": 103.512533,
    "img": "No",
    "no_img": ""
  },
  {
    "Name": "忠義堂",
    "Notes": "",
    "Address": "Pekan Nenas , 81500 Pekan Nenas, Johor",
    "State": "Johor",
    "UID": "A220",
    "Latitude": 1.507599,
    "Longitude": 103.512533,
    "img": "No",
    "no_img": ""
  },
  {
    "Name": "慈庵廟大伯公",
    "Notes": "",
    "Address": "Jalan Tanjung Kupang, Ulu Choh, 81500 Pekan Nenas, Johor",
    "State": "Johor",
    "UID": "A221",
    "Latitude": 1.5196895,
    "Longitude": 103.5538383,
    "img": "No",
    "no_img": ""
  },
  {
    "Name": "保聖宮",
    "Notes": "",
    "Address": "Jalan Ulu Choh, Kampung Ulu Choh, 81500 , Pekan Nenas, Johor",
    "State": "Johor",
    "UID": "A222",
    "Latitude": 1.5273041,
    "Longitude": 103.5442844,
    "img": "No",
    "no_img": ""
  },
  {
    "Name": "光明寺",
    "Notes": "",
    "Address": "80-78, Jalan Kobis , Kampung Ulu Choh, 81500, Pekan Nenas, Johor",
    "State": "Johor",
    "UID": "A223",
    "Latitude": 1.5239208,
    "Longitude": 103.5412196,
    "img": "No",
    "no_img": ""
  },
  {
    "Name": "大善寺 （ 店屋庙）",
    "Notes": "",
    "Address": "15, Jalan SS 1/1, Taman Sri Saujana 2, 81900 Kota Tinggi, Johor",
    "State": "Johor",
    "UID": "A224",
    "Latitude": 1.6743626,
    "Longitude": 103.8526022,
    "img": "No",
    "no_img": ""
  },
  {
    "Name": "Thekchen Choling Kota Tinggi大乘禅寺哥打丁宜禅修中心",
    "Notes": "",
    "Address": "Lot 691 kampung Tai Hong, Johor",
    "State": "Johor",
    "UID": "A225",
    "Latitude": 1.7384913,
    "Longitude": 103.8557982,
    "img": "No",
    "no_img": ""
  },
  {
    "Name": "天聖宮 – kota tinggi",
    "Notes": "",
    "Address": "kampung Tai Hong, Johor",
    "State": "Johor",
    "UID": "A226",
    "Latitude": 1.732962,
    "Longitude": 103.8599009,
    "img": "No",
    "no_img": ""
  },
  {
    "Name": "哥打丁宜善導精舍",
    "Notes": "",
    "Address": "35, Jalan Melati 1, Taman Melati Putih, 81900 Kota Tinggi, Johor",
    "State": "Johor",
    "UID": "A227",
    "Latitude": 1.7226945,
    "Longitude": 103.8856923,
    "img": "No",
    "no_img": ""
  },
  {
    "Name": "哥打丁宜龍望關帝廟",
    "Notes": "",
    "Address": "Jalan Melati 1, Taman Melati Putih, 81900 Kota Tinggi, Johor",
    "State": "Johor",
    "UID": "A228",
    "Latitude": 1.72306,
    "Longitude": 103.886156,
    "img": "No",
    "no_img": ""
  },
  {
    "Name": "Fattus 金山谷法渡寺",
    "Notes": "",
    "Address": "Taman Kota Merdesa, 81900 Kota Tinggi, Johor",
    "State": "Johor",
    "UID": "A229",
    "Latitude": 1.724927,
    "Longitude": 103.8852511,
    "img": "No",
    "no_img": ""
  },
  {
    "Name": "萬法堂 Kampung Tembioh",
    "Notes": "",
    "Address": "",
    "State": "Johor",
    "UID": "A230",
    "Latitude": 0,
    "Longitude": 0,
    "img": "No",
    "no_img": ""
  },
  {
    "Name": "聖旺宮黃大仙Kampung Tembioh",
    "Notes": "",
    "Address": "",
    "State": "Johor",
    "UID": "A231",
    "Latitude": 0,
    "Longitude": 0,
    "img": "No",
    "no_img": ""
  },
  {
    "Name": "天鳳廟 / 哪吒蓮花三太子",
    "Notes": "",
    "Address": "27, Jalan Kampung Tembioh, Kampung Tembioh, 81900 Kota Tinggi,",
    "State": "Johor",
    "UID": "A232",
    "Latitude": 1.726322,
    "Longitude": 103.90467,
    "img": "No",
    "no_img": ""
  },
  {
    "Name": "明山宮 / 觀音 / 關公",
    "Notes": "",
    "Address": "Kampung Tembioh,",
    "State": "Johor",
    "UID": "A233",
    "Latitude": 1.726238,
    "Longitude": 103.905634,
    "img": "No",
    "no_img": ""
  },
  {
    "Name": "哥打丁宜德教会紫登阁",
    "Notes": "",
    "Address": "No.1, Jalan Abdulah, Pekan Kota Tinggi, 81900 Kota Tinggi, Johor",
    "State": "Johor",
    "UID": "A234",
    "Latitude": 1.731432,
    "Longitude": 103.900601,
    "img": "No",
    "no_img": ""
  },
  {
    "Name": "潮州八邑會館",
    "Notes": "",
    "Address": "",
    "State": "Johor",
    "UID": "A235",
    "Latitude": 0,
    "Longitude": 0,
    "img": "No",
    "no_img": ""
  },
  {
    "Name": "峝主庙 • 侯王爷",
    "Notes": "",
    "Address": "Teluk Sengat, 81900 Ayer Tawar, Johor",
    "State": "Johor",
    "UID": "A236",
    "Latitude": 1.56247,
    "Longitude": 104.0312149,
    "img": "No",
    "no_img": ""
  },
  {
    "Name": "南亚港龙潭古庙",
    "Notes": "",
    "Address": "Teluk Sengat, 81900 Ayer Tawar, Johor",
    "State": "Johor",
    "UID": "A237",
    "Latitude": 1.56247,
    "Longitude": 104.0312149,
    "img": "No",
    "no_img": ""
  },
  {
    "Name": "东勇庙",
    "Notes": "",
    "Address": "Jalan Senangin, 81900 Tanjung Sedeli, Johor",
    "State": "Johor",
    "UID": "A238",
    "Latitude": 1.9264555,
    "Longitude": 104.1237765,
    "img": "No",
    "no_img": ""
  },
  {
    "Name": "三寶壇 San Bao Temple",
    "Notes": "",
    "Address": "San Bao Temple, Lor 1, kampong Jalan Seesun, 86300 Renggam, Johor",
    "State": "Johor",
    "UID": "A239",
    "Latitude": 1.8888734,
    "Longitude": 103.4032392,
    "img": "No",
    "no_img": ""
  },
  {
    "Name": "令金天後宮",
    "Notes": "",
    "Address": "",
    "State": "Johor",
    "UID": "A240",
    "Latitude": 0,
    "Longitude": 0,
    "img": "No",
    "no_img": ""
  },
  {
    "Name": "令金大伯公",
    "Notes": "",
    "Address": "",
    "State": "Johor",
    "UID": "A241",
    "Latitude": 0,
    "Longitude": 0,
    "img": "No",
    "no_img": ""
  },
  {
    "Name": "梨山老母廟 Li Shan Lao Mu Temple",
    "Notes": "上乩的女士感應很多仙佛降臨她的家",
    "Address": "",
    "State": "Johor",
    "UID": "A242",
    "Latitude": 0,
    "Longitude": 0,
    "img": "No",
    "no_img": ""
  },
  {
    "Name": "",
    "Notes": "",
    "Address": "4, Lor 2, Rengam, 86300 Renggam, Johor",
    "State": "Johor",
    "UID": "A243",
    "Latitude": 1.8893415,
    "Longitude": 103.4020948,
    "img": "No",
    "no_img": ""
  },
  {
    "Name": "令金睡佛寺 （ 住家）",
    "Notes": "",
    "Address": "Jln 10, Rengam, 86300 Renggam, Johor",
    "State": "Johor",
    "UID": "A244",
    "Latitude": 1.8889825,
    "Longitude": 103.3979941,
    "img": "No",
    "no_img": ""
  },
  {
    "Name": "令金新村老觀音廟",
    "Notes": "",
    "Address": "2, Jalan 5, Rengam, 86300 Renggam, Johor",
    "State": "Johor",
    "UID": "A245",
    "Latitude": 1.8906779,
    "Longitude": 103.3976231,
    "img": "No",
    "no_img": ""
  },
  {
    "Name": "新邦令金濟公壇",
    "Notes": "",
    "Address": "42 jalan pineapple, 86200 Simpang Renggam, Johor",
    "State": "Johor",
    "UID": "A246",
    "Latitude": 1.82733,
    "Longitude": 103.308655,
    "img": "No",
    "no_img": ""
  },
  {
    "Name": "新邦令金德教會紫濡閣",
    "Notes": "",
    "Address": "Taman Suria, 86200 Simpang Renggam, Johor",
    "State": "Johor",
    "UID": "A247",
    "Latitude": 1.8140437,
    "Longitude": 103.3190256,
    "img": "No",
    "no_img": ""
  },
  {
    "Name": "新邦令金陸洲园靈顯廟",
    "Notes": "陸州黃梨園 6500英畝",
    "Address": "",
    "State": "Johor",
    "UID": "A248",
    "Latitude": 0,
    "Longitude": 0,
    "img": "No",
    "no_img": ""
  },
  {
    "Name": "雲龍宮",
    "Notes": "",
    "Address": "Jalan Bakawali, Kampung Simpang Renggam, 86200 Simpang Renggam, Johor",
    "State": "Johor",
    "UID": "A249",
    "Latitude": 1.8281066,
    "Longitude": 103.3057238,
    "img": "No",
    "no_img": ""
  },
  {
    "Name": "天福寺",
    "Notes": "",
    "Address": "Simpang Renggam, 86200 Simpang Renggam, Johor",
    "State": "Johor",
    "UID": "A250",
    "Latitude": 1.8394506,
    "Longitude": 103.3356272,
    "img": "No",
    "no_img": ""
  },
  {
    "Name": "慈善堂",
    "Notes": "",
    "Address": "Simpang Renggam, 86200 Simpang Renggam, Johor",
    "State": "Johor",
    "UID": "A251",
    "Latitude": 1.8394506,
    "Longitude": 103.3356272,
    "img": "No",
    "no_img": ""
  },
  {
    "Name": "SJK(C) Machap",
    "Notes": "小學旁邊有一間廟（ 拜石頭 ）",
    "Address": "Kampung Machap, 86200 Simpang Renggam, Johor",
    "State": "Johor",
    "UID": "A252",
    "Latitude": 1.8851738,
    "Longitude": 103.263462,
    "img": "No",
    "no_img": ""
  },
  {
    "Name": "嗎什濟寶堂",
    "Notes": "",
    "Address": "Lot 6506, Jln Bunga Raya, Taman sri Machap86200 Simpang Renggam, Johor",
    "State": "Johor",
    "UID": "A253",
    "Latitude": 1.8226017,
    "Longitude": 103.3107374,
    "img": "No",
    "no_img": ""
  },
  {
    "Name": "九天玄女廟",
    "Notes": "",
    "Address": "",
    "State": "Johor",
    "UID": "A254",
    "Latitude": 0,
    "Longitude": 0,
    "img": "No",
    "no_img": ""
  },
  {
    "Name": "崑崙洞法主公",
    "Notes": "",
    "Address": "Jln Besar, 86200 Simpang Renggam, Johor",
    "State": "Johor",
    "UID": "A255",
    "Latitude": 1.82286,
    "Longitude": 103.3145328,
    "img": "No",
    "no_img": ""
  },
  {
    "Name": "Melaka Buddhist Lodge (Chee Sze Lin) 佛教居士林",
    "Notes": "",
    "Address": "C-1158, Pekan Klebang, 75250 Melaka",
    "State": "Melaka",
    "UID": "A256",
    "Latitude": 2.2072227,
    "Longitude": 102.2185335,
    "img": "No",
    "no_img": ""
  },
  {
    "Name": "青龙宫 Selandar Cheng Leong Keng",
    "Notes": "淡边青龙宫位于森甲交界之小镇-普罗士邦，一九六十三年建。",
    "Address": "Pekan Selandar, 77500 Selandar, Melaka",
    "State": "Melaka",
    "UID": "A257",
    "Latitude": 2.3899952,
    "Longitude": 102.3793231,
    "img": "No",
    "no_img": ""
  },
  {
    "Name": "增龍會館Tsen Lung Fui Kon",
    "Notes": "",
    "Address": "",
    "State": "Melaka",
    "UID": "A258",
    "Latitude": 0,
    "Longitude": 0,
    "img": "No",
    "no_img": ""
  },
  {
    "Name": "三多廟 San Duo Temple / 三宝井",
    "Notes": "",
    "Address": "41, Jalan Tukang Besi, 75200 Melaka",
    "State": "Melaka",
    "UID": "A259",
    "Latitude": 2.1961819,
    "Longitude": 102.2481727,
    "img": "No",
    "no_img": ""
  },
  {
    "Name": "马六甲三宝山",
    "Notes": "",
    "Address": "Jalan Puteri Hang Li Poh, Bukit Cina, 75100 Melaka",
    "State": "Melaka",
    "UID": "A260",
    "Latitude": 2.198584,
    "Longitude": 102.257366,
    "img": "No",
    "no_img": ""
  },
  {
    "Name": "宁宜苏拜城堡（Kota Bukit Supai Kuala Linggi / Fort Supai)",
    "Notes": "",
    "Address": "Jalan Kampung Teluk Perun, Kampung Kuala Linggi, Melaka",
    "State": "Melaka",
    "UID": "A261",
    "Latitude": 2.386972,
    "Longitude": 101.9688581,
    "img": "No",
    "no_img": ""
  },
  {
    "Name": "马六甲圣保罗教堂",
    "Notes": "",
    "Address": "",
    "State": "Melaka",
    "UID": "A262",
    "Latitude": 0,
    "Longitude": 0,
    "img": "No",
    "no_img": ""
  },
  {
    "Name": "马六甲海峡清真寺",
    "Notes": "",
    "Address": "",
    "State": "Melaka",
    "UID": "A263",
    "Latitude": 0,
    "Longitude": 0,
    "img": "No",
    "no_img": ""
  },
  {
    "Name": "青云亭 Cheng Hoon Teng Temple   2017 年",
    "Notes": "",
    "Address": "25, Jalan Tokong, Kampung Dua, 75200 Melaka",
    "State": "Melaka",
    "UID": "A264",
    "Latitude": 2.1974982,
    "Longitude": 102.2468323,
    "img": "No",
    "no_img": ""
  },
  {
    "Name": "Kwan Yin Tang Temple 观音堂",
    "Notes": "",
    "Address": "133, Jalan Hang Jebat, 75200 Melaka",
    "State": "Melaka",
    "UID": "A265",
    "Latitude": 2.1978152,
    "Longitude": 102.2452498,
    "img": "No",
    "no_img": ""
  },
  {
    "Name": "Xiang Lin Si Temple",
    "Notes": "2017年",
    "Address": "Jalan Tokong, Kampung Dua, 75200 Melaka",
    "State": "Melaka",
    "UID": "A266",
    "Latitude": 2.1977665,
    "Longitude": 102.2467132,
    "img": "No",
    "no_img": ""
  },
  {
    "Name": "Chee Teong Beow Temple 慈忠庙 / 黄老仙师",
    "Notes": "",
    "Address": "No. 46, Jalan Tun Perak, 75300, Bachang, Melaka, 75300",
    "State": "Melaka",
    "UID": "A267",
    "Latitude": 2.2119908,
    "Longitude": 102.2413598,
    "img": "No",
    "no_img": ""
  }
]