{
"type": "FeatureCollection",
"name": "Category_2",
"crs": { "type": "name", "properties": { "name": "urn:ogc:def:crs:OGC:1.3:CRS84" } },
"features": [
{ "type": "Feature", "properties": { "Name_CH": "吉玻州双弄华人公冢理事会", "Name_ML": "JawatankuasaTanah Perkuburan Orang-Orang Kuala Sanglang, Kedah\/Perlis", "Name_EN": null, "Location": "1178,1179 dan 1180 (Asal Lot 1081 & 1095) Negeri Perlis, Mukim Sanglang, Simpang Sanglang.", "Longitude": 100.1982971, "Latitude": 6.282643, "Region": "Perlis", "Category": "慈善福利", "PageNumber": "40" }, "geometry": { "type": "Point", "coordinates": [ 100.1983, 6.2826, 100.1983 ] } },
{ "type": "Feature", "properties": { "Name_CH": "玻州十字港，新港公冢", "Name_ML": "Kubur China (Wan On)", "Name_EN": null, "Location": "Kuala Sungai Baru 02700 Simpang Empat, Kayang, Perlis.", "Longitude": 100.1659619, "Latitude": 6.334916, "Region": "Perlis", "Category": "慈善福利", "PageNumber": "40" }, "geometry": { "type": "Point", "coordinates": [ 100.166, 6.3349, 100.166 ] } },
{ "type": "Feature", "properties": { "Name_CH": "万和公冢", "Name_ML": "Perkuburan Wan Ho", "Name_EN": null, "Location": "Batu 1, Jalan Tambun Tulang, Simpang Empat, Kayang, Perlis.", "Longitude": 100.2488782, "Latitude": 6.38486, "Region": "Perlis", "Category": "慈善福利", "PageNumber": "40" }, "geometry": { "type": "Point", "coordinates": [ 100.2489, 6.3849, 100.2489 ] } },
{ "type": "Feature", "properties": { "Name_CH": "玻州港口广万源公冢", "Name_ML": "Tanah Kubur Cho Kong Wan Teng (Orang Cina Mukim Kuala Perlis)", "Name_EN": null, "Location": "Kampung Bukit Putih 02000 Kuala Perlis, Perlis.", "Longitude": 100.1306779, "Latitude": 6.397886, "Region": "Perlis", "Category": "慈善福利", "PageNumber": "40" }, "geometry": { "type": "Point", "coordinates": [ 100.1307, 6.3979, 100.1307 ] } },
{ "type": "Feature", "properties": { "Name_CH": "玻璃市华人公冢理事会", "Name_ML": "Persatuan Perkuburan Orang-Orang Tionghwa Perlis", "Name_EN": "Perlis Chinese Public Cemetery Committee", "Location": "7, Jalan Indra Kayangan, 01000 Kangar, Perlis.", "Longitude": 100.193518, "Latitude": 6.438261, "Region": "Perlis", "Category": "慈善福利", "PageNumber": "40" }, "geometry": { "type": "Point", "coordinates": [ 100.1935, 6.4383, 100.1935 ] } },
{ "type": "Feature", "properties": { "Name_CH": "亚娄及新路公冢", "Name_ML": "Perkuburan Cina Arau \/ Pauh (Awan)", "Name_EN": null, "Location": "Batu 11\/2, Jalan Pauhz Kurong Anai, Perlis.", "Longitude": 100.310621, "Latitude": 6.439435, "Region": "Perlis", "Category": "慈善福利", "PageNumber": "40" }, "geometry": { "type": "Point", "coordinates": [ 100.3106, 6.4394, 100.3106 ] } },
{ "type": "Feature", "properties": { "Name_CH": "玻州加基武吉长江寮义务消防队", "Name_ML": "Bomba Sukarela Pekan Sayur Kaki Bukit, Perlis", "Name_EN": null, "Location": "No.12, Pekan Sayur Kaki Bukit, Perlis.", "Longitude": 100.2127371, "Latitude": 6.6427383, "Region": "Perlis", "Category": "慈善福利", "PageNumber": "40" }, "geometry": { "type": "Point", "coordinates": [ 100.2127, 6.6427, 100.2127 ] } },
{ "type": "Feature", "properties": { "Name_CH": "知知丁宜区小园主合作社", "Name_ML": "Koperasi Pekebun-Pekebun Kecil Mukim Titi Tinggi", "Name_EN": null, "Location": "115, Pekan Baru, 02200 Kaki Bukit Perlis.", "Longitude": 100.208075, "Latitude": 6.644254, "Region": "Perlis", "Category": "慈善福利", "PageNumber": "40" }, "geometry": { "type": "Point", "coordinates": [ 100.2081, 6.6443, 100.2081 ] } }
]
}
