{"type": "FeatureCollection", "name": "region_6", "crs": {"type": "name", "properties": {"name": "urn:ogc:def:crs:OGC:1.3:CRS84"}}, "features": [{"type": "Feature", "properties": {"Name_CH": "\u6d6e\u7f57\u4ea4\u6021\u798f\u5efa\u4f1a\u9986", "Name_ML": "Pulau Langkawi Hokkien Association", "Name_EN": null, "Location": "217, Taman Langkawai, Mukim Kuahz 07000 Pulau Langkawi, Kedah.", "Region": "Kedah", "Category": "\u5730\u7f18", "PageNumber": 41, "Country": "Malaysia", "latitude": 6.35, "longitude": 99.8}, "geometry": {"type": "Point", "coordinates": [99.8, 6.35]}}, {"type": "Feature", "properties": {"Name_CH": "\u6d6e\u7f57\u4ea4\u6021\u6d77\u5357\u4f1a\u9986", "Name_ML": "Persatuan Hainan Langkawi Kedah", "Name_EN": null, "Location": "1 Pekan Kuah, 07000 Langkawi, Kedah.", "Region": "Kedah", "Category": "\u5730\u7f18", "PageNumber": 41, "Country": "Malaysia", "latitude": 6.333158, "longitude": 99.861234}, "geometry": {"type": "Point", "coordinates": [99.861234, 6.333158]}}, {"type": "Feature", "properties": {"Name_CH": "\u5409\u73bb\u798f\u8386\u4ed9\u540c\u4e61\u4f1a", "Name_ML": "Kedah / Perlis Hock Phor Sean Association", "Name_EN": null, "Location": "40, Jalan Putra, 05100 Alor Star, Kedah.", "Region": "Kedah", "Category": "\u5730\u7f18", "PageNumber": 41, "Country": "Malaysia", "latitude": 6.123256, "longitude": 100.3621919}, "geometry": {"type": "Point", "coordinates": [100.3621919, 6.123256]}}, {"type": "Feature", "properties": {"Name_CH": "\u5409\u73bb\u6d77\u5357\u4f1a\u9986", "Name_ML": "Persatuan Hainan Kedah / Perlis", "Name_EN": "Hainan Association, Kedah And Perlis", "Location": "36, Jalan Putra, 05100 Alor Setar, Kedah.", "Region": "Kedah", "Category": "\u5730\u7f18", "PageNumber": 41, "Country": "Malaysia", "latitude": 6.1228432, "longitude": 100.3631808}, "geometry": {"type": "Point", "coordinates": [100.3631808, 6.1228432]}}, {"type": "Feature", "properties": {"Name_CH": "\u5409\u73bb\u6d77\u5357\u4f1a\u9986", "Name_ML": "Persatuan Hainan Kedah / Perlis", "Name_EN": "Hainan Association, Kedah And Perlis", "Location": "36, Jalan Putra, 05100 Alor Setar, Kedah.", "Region": "Kedah", "Category": "\u5730\u7f18", "PageNumber": 41, "Country": "Malaysia", "latitude": 6.1228432, "longitude": 100.3631808}, "geometry": {"type": "Point", "coordinates": [100.3631808, 6.1228432]}}, {"type": "Feature", "properties": {"Name_CH": "\u5409\u73bb\u60e0\u5b89\u516c\u4f1a", "Name_ML": "Persatuan Hui Aun Kedah / Perlis", "Name_EN": null, "Location": "51. KLM. Kampong Perak, 05100 Alor Star, Kedah.  ", "Region": "Kedah", "Category": "\u5730\u7f18", "PageNumber": 41, "Country": "Malaysia", "latitude": 6.1221261, "longitude": 100.3625921}, "geometry": {"type": "Point", "coordinates": [100.3625921, 6.1221261]}}, {"type": "Feature", "properties": {"Name_CH": "\u5409\u73bb\u6f6e\u5dde\u4f1a\u9986", "Name_ML": "Persatuan Teochew Kedah / Perlis", "Name_EN": null, "Location": "27-B, Lebuhraya Darul Aman, 05000 Alor Setar, Kedah.", "Region": "Kedah", "Category": "\u5730\u7f18", "PageNumber": 41, "Country": "Malaysia", "latitude": 6.1225038, "longitude": 100.3670486}, "geometry": {"type": "Point", "coordinates": [100.3670486, 6.1225038]}}, {"type": "Feature", "properties": {"Name_CH": "\u5409\u6253\u5dde\u534e\u4eba\u5927\u4f1a\u5802", "Name_ML": "Dewan Perhimpunan Cina Keda", "Name_EN": "Kedah Chinese Assembly Hall", "Location": "8, Jalan Tanjung Bendahara, 05300 Alor Setae Kedah.", "Region": "Kedah", "Category": "\u7efc\u5408", "PageNumber": 41, "Country": "Malaysia", "latitude": 6.1013326, "longitude": 100.3732432}, "geometry": {"type": "Point", "coordinates": [100.3732432, 6.1013326]}}, {"type": "Feature", "properties": {"Name_CH": "\u5409\u73bb\u60e0\u5dde\u4f1a\u9986", "Name_ML": "Persatuan Fui Chiu Kedah/Perlis Chen & Association", "Name_EN": null, "Location": "68 Komplek Alor Malai Batu 2, Jalang Langgar, 054460 Alor Setar, Kedah.", "Region": "Kedah", "Category": "\u5730\u7f18", "PageNumber": 41, "Country": "Malaysia", "latitude": 6.1290649, "longitude": 100.3860396}, "geometry": {"type": "Point", "coordinates": [100.3860396, 6.1290649]}}, {"type": "Feature", "properties": {"Name_CH": "\u5409\u73bb\u5e7f\u897f\u4f1a\u9986", "Name_ML": "Perdatuan Kwang Sai Association", "Name_EN": null, "Location": "1 Jalan Petani, Sungai Petani, Kedah.", "Region": "Kedah", "Category": "\u5730\u7f18", "PageNumber": 41, "Country": "Malaysia", "latitude": 5.651338, "longitude": 100.515887}, "geometry": {"type": "Point", "coordinates": [100.515887, 5.651338]}}, {"type": "Feature", "properties": {"Name_CH": "\u53cc\u6eaa\u5927\u5e74\u534e\u4eba\u6ce8\u518c\u793e\u56e2\u8054\u5408\u4f1a", "Name_ML": "Gabungan Persatuan Orang-Orang China", "Name_EN": "Sungai Petani Kedah", "Location": "21 Jalan Merbok, 08000 Sungai Petani, Kedah.", "Region": "Kedah", "Category": "\u7efc\u5408", "PageNumber": 41, "Country": "Malaysia", "latitude": 5.6404689, "longitude": 100.486279}, "geometry": {"type": "Point", "coordinates": [100.486279, 5.6404689]}}, {"type": "Feature", "properties": {"Name_CH": "\u5409\u73bb\u664b\u6c5f\u4f1a\u9986", "Name_ML": "Persatuan Chin Kang Kedah/Perlis", "Name_EN": null, "Location": "3B,C Tingkat 1, Jalan Gangsa, Seberang Jalan Putra, 05150 Alor Star, Kedah.", "Region": "Kedah", "Category": "\u5730\u7f18", "PageNumber": 42, "Country": "Malaysia", "latitude": 6.1265935, "longitude": 100.3581289}, "geometry": {"type": "Point", "coordinates": [100.3581289, 6.1265935]}}, {"type": "Feature", "properties": {"Name_CH": "\u5409\u73bb\u5357\u5b89\u4f1a\u9986", "Name_ML": "Persatuan Nan Ann Kedah/Perlis", "Name_EN": "The Nan Ann Association Kedah/Perlis", "Location": "169-D, Jalan Putra 05100 Alor Star, Kedah.", "Region": "Kedah", "Category": "\u5730\u7f18", "PageNumber": 42, "Country": "Malaysia", "latitude": 6.1239428, "longitude": 100.3605645}, "geometry": {"type": "Point", "coordinates": [100.3605645, 6.1239428]}}, {"type": "Feature", "properties": {"Name_CH": "\u5409\u6253\u4e2d\u5c71\u516c\u4f1a", "Name_ML": "Persatuan Chung Sun", "Name_EN": "Chung Sun Association", "Location": "65, Jalan Putra 05100, Alor Star, Kedah.", "Region": "Kedah", "Category": "\u5730\u7f18", "PageNumber": 42, "Country": "Malaysia", "latitude": 6.1229942, "longitude": 100.3628097}, "geometry": {"type": "Point", "coordinates": [100.3628097, 6.1229942]}}, {"type": "Feature", "properties": {"Name_CH": "\u5409\u6253\u6c38\u5927\u4f1a\u9986", "Name_ML": "Persatuan Yoon Thai", "Name_EN": "Yoon Thai Association", "Location": "99, Pekan China, 05000 Alor Setar, Kedah.", "Region": "Kedah", "Category": "\u5730\u7f18", "PageNumber": 42, "Country": "Malaysia", "latitude": 6.1164462, "longitude": 100.3629895}, "geometry": {"type": "Point", "coordinates": [100.3629895, 6.1164462]}}, {"type": "Feature", "properties": {"Name_CH": "\u5409\u6253\u6f33\u6cc9\u516c\u6240", "Name_ML": "Kedah Chang Chuan Kong Sor", "Name_EN": null, "Location": "190, Jalan Penjara Lama, 05000 Alor Star, Kedah.", "Region": "Kedah", "Category": "\u5730\u7f18", "PageNumber": 42, "Country": "Malaysia", "latitude": 6.117623, "longitude": 100.3640173}, "geometry": {"type": "Point", "coordinates": [100.3640173, 6.117623]}}, {"type": "Feature", "properties": {"Name_CH": "\u5409\u6253\u798f\u5efa\u516c\u4f1a", "Name_ML": "Persatuan Hokkien Kedah", "Name_EN": "Kedah Hokkien Association", "Location": "189-191, (Tingkat Satu), Jalan Penjara Lama, 05000 Alor Star, Kedah.", "Region": "Kedah", "Category": "\u5730\u7f18", "PageNumber": 42, "Country": "Malaysia", "latitude": 6.1167846, "longitude": 100.3653949}, "geometry": {"type": "Point", "coordinates": [100.3653949, 6.1167846]}}, {"type": "Feature", "properties": {"Name_CH": "\u5409\u6253\u5ba2\u5bb6\u516c\u4f1a", "Name_ML": "Persatuan Hakka Kedah", "Name_EN": null, "Location": "2-B , Jalan Kampong Perak, 05100 Alor Star, Kedah.", "Region": "Kedah", "Category": "\u5730\u7f18", "PageNumber": 42, "Country": "Malaysia", "latitude": 6.1210698, "longitude": 100.3646997}, "geometry": {"type": "Point", "coordinates": [100.3646997, 6.1210698]}}, {"type": "Feature", "properties": {"Name_CH": "\u5409\u73bb\u53f0\u5c71\u4f1a\u9986", "Name_ML": "Persatuan Orang Orang Toishan Kedah / Perlis Toishan Association Kedah And Perlis", "Name_EN": null, "Location": "2-C, Kampong Baru, 05000 Alor Star, Kedah.", "Region": "Kedah", "Category": "\u5730\u7f18", "PageNumber": 42, "Country": "Malaysia", "latitude": 6.1218631, "longitude": 100.3675918}, "geometry": {"type": "Point", "coordinates": [100.3675918, 6.1218631]}}, {"type": "Feature", "properties": {"Name_CH": "\u5409\u6253\u5e7f\u4e1c\u66a8\u6c40\u5dde\u4f1a\u9986", "Name_ML": "Persatuan Kwangtung & Tengchow Kedah", "Name_EN": null, "Location": "24-A, Jalan Pengkalan Kapal 05000 Alor Setae Kedah.", "Region": "Kedah", "Category": "\u5730\u7f18", "PageNumber": 42, "Country": "Malaysia", "latitude": 6.1144405, "longitude": 100.3670365}, "geometry": {"type": "Point", "coordinates": [100.3670365, 6.1144405]}}, {"type": "Feature", "properties": {"Name_CH": "\u5409\u73bb\u9f99\u7b54\u540c\u4e61\u4f1a", "Name_ML": "Persatuan Lungyen Kedah / Perlis", "Name_EN": null, "Location": "750, Lebuhraya Darul Aman, 05000 Alor Setar, Kedah.", "Region": "Kedah", "Category": "\u5730\u7f18", "PageNumber": 42, "Country": "Malaysia", "latitude": 6.1317004, "longitude": 100.3683117}, "geometry": {"type": "Point", "coordinates": [100.3683117, 6.1317004]}}, {"type": "Feature", "properties": {"Name_CH": "\u5409\u6253\u5dde\u798f\u5dde\u4f1a\u9986", "Name_ML": "Persatuan Foochow Kedah", "Name_EN": "Kedah Foochow Association", "Location": "785, Jalan Langgar, 05460 Alor Star, Kedah.", "Region": "Kedah", "Category": "\u5730\u7f18", "PageNumber": 42, "Country": "Malaysia", "latitude": 6.1173582, "longitude": 100.3730704}, "geometry": {"type": "Point", "coordinates": [100.3730704, 6.1173582]}}, {"type": "Feature", "properties": {"Name_CH": "\u5409\u5357\u798f\u5efa\u516c\u4f1a", "Name_ML": "Persatuan Hokkien Kedah Selatan", "Name_EN": "South Kedah Hokkien Association", "Location": "291, Jalan Pasar, 09000 Kulim, Kedah.", "Region": "Kedah", "Category": "\u5730\u7f18", "PageNumber": 42, "Country": "Malaysia", "latitude": 5.3694705, "longitude": 100.5556366}, "geometry": {"type": "Point", "coordinates": [100.5556366, 5.3694705]}}, {"type": "Feature", "properties": {"Name_CH": "\u5409\u5357\u743c\u5d16\u540c\u4e61\u4f1a", "Name_ML": "Pert Thye Guang (Ong Si Choong Soo) Kedah/Perlis", "Name_EN": null, "Location": "70-L/M Taman Mahawangsa Seberang, Jalan Alor Setar, 05150 Kedah.", "Region": "Kedah", "Category": "\u5730\u7f18", "PageNumber": 43, "Country": "Malaysia", "latitude": 6.1428582, "longitude": 100.3311919}, "geometry": {"type": "Point", "coordinates": [100.3311919, 6.1428582]}}, {"type": "Feature", "properties": {"Name_CH": "\u5409\u73bb\u5173\u6c0f\u5ef6\u9675\u5802", "Name_ML": "Pertubuhan Keturunan Goh' s(Ean Leng Tong)", "Name_EN": "Kedah Perlis", "Location": "50 Taman Thean Peng Seberang, Jalan Putra, 05150 Alor Setae Kedah.", "Region": "Kedah", "Category": "\u8840\u7f18", "PageNumber": 43, "Country": "Malaysia", "latitude": 6.13352, "longitude": 100.3441771}, "geometry": {"type": "Point", "coordinates": [100.3441771, 6.13352]}}, {"type": "Feature", "properties": {"Name_CH": "\u5409\u73bb\u5609\u5e94\u4f1a\u9986", "Name_ML": "Persatuan Kah Yin Kedah/Perlis", "Name_EN": "Kedah Perlis Kah Yin Association", "Location": "115, Jalan Langgar, 05460, Alor Star, Kedah.", "Region": "Kedah", "Category": "\u5730\u7f18", "PageNumber": 43, "Country": "Malaysia", "latitude": 6.1169556, "longitude": 100.3707448}, "geometry": {"type": "Point", "coordinates": [100.3707448, 6.1169556]}}, {"type": "Feature", "properties": {"Name_CH": "\u5409\u73bb\u6c5f\u590f\u5802\u9ec4\u6c0f\u5b97\u7960", "Name_ML": "Persatuan Kang Har Tong (Ooi Si Chong Soo) Kedah / Perlis", "Name_EN": null, "Location": "10-G, Jalan Datuk Syed Omar, Seberang, Jalan Putra, 05150 Alor Setar, Kedah.", "Region": "Kedah", "Category": "\u8840\u7f18", "PageNumber": 43, "Country": "Malaysia", "latitude": 6.1247778, "longitude": 100.3854258}, "geometry": {"type": "Point", "coordinates": [100.3854258, 6.1247778]}}, {"type": "Feature", "properties": {"Name_CH": "\u5409\u4e2d\u5ba2\u5bb6\u516c\u4f1a", "Name_ML": "Persatuan Hakka Kedah Tengah", "Name_EN": null, "Location": "20 Jalan Merbok, 08000 Sungai Petani, Kedah.", "Region": "Kedah", "Category": "\u5730\u7f18", "PageNumber": 43, "Country": "Malaysia", "latitude": 5.6404679, "longitude": 100.486228}, "geometry": {"type": "Point", "coordinates": [100.486228, 5.6404679]}}, {"type": "Feature", "properties": {"Name_CH": "\u5409\u4e2d\u798f\u5efa\u4f1a\u9986", "Name_ML": "Hokkien Association Central Kedah", "Name_EN": null, "Location": "1G, 1st Floor, Jalan Kampung Baru, 08000 Sungai Petani, Kedah.", "Region": "Kedah", "Category": "\u5730\u7f18", "PageNumber": 43, "Country": "Malaysia", "latitude": 5.635983, "longitude": 100.486348}, "geometry": {"type": "Point", "coordinates": [100.486348, 5.635983]}}, {"type": "Feature", "properties": {"Name_CH": "\u5409\u5357\u5609\u5e94\u4e94\u5c5e\u540c\u4e61\u4f1a", "Name_ML": "Persatuan Kah Yin Kedah Selatan", "Name_EN": null, "Location": "52, Jalan Raya, 09000 Kulim, Kedah.", "Region": "Kedah", "Category": "\u5730\u7f18", "PageNumber": 43, "Country": "Malaysia", "latitude": 5.366648, "longitude": 100.5539893}, "geometry": {"type": "Point", "coordinates": [100.5539893, 5.366648]}}, {"type": "Feature", "properties": {"Name_CH": "\u5409\u5c5e\u9ad8\u5dde\u4f1a\u9986", "Name_ML": "Kedah Koh Chow Wooi Koon", "Name_EN": null, "Location": "287-M, Jalan Aman ,09000 Kulim, Kedah.", "Region": "Kedah", "Category": "\u5730\u7f18", "PageNumber": 43, "Country": "Malaysia", "latitude": 5.370651, "longitude": 100.554537}, "geometry": {"type": "Point", "coordinates": [100.554537, 5.370651]}}, {"type": "Feature", "properties": {"Name_CH": "\u5409\u5357\u5e7f\u60e0\u8087\u4f1a\u9986", "Name_ML": "Persatuan Kwong Wai Slew Kedah Selatan", "Name_EN": null, "Location": "30, Jalan Raya, 09000 Kulim, Kedah.", "Region": "Kedah", "Category": "\u5730\u7f18", "PageNumber": 43, "Country": "Malaysia", "latitude": 5.368179, "longitude": 100.5551418}, "geometry": {"type": "Point", "coordinates": [100.5551418, 5.368179]}}, {"type": "Feature", "properties": {"Name_CH": "\u5409\u5357\u97e9\u6c5f\u516c\u4f1a", "Name_ML": "Persatuan Hang Kang Kedah Selatan ", "Name_EN": null, "Location": "29 Jalan Ray, Kulim, Kedah.", "Region": "Kedah", "Category": "\u5730\u7f18", "PageNumber": 43, "Country": "Malaysia", "latitude": 5.3680671, "longitude": 100.5552646}, "geometry": {"type": "Point", "coordinates": [100.5552646, 5.3680671]}}, {"type": "Feature", "properties": {"Name_CH": "\u5409\u5357\u5ba2\u5bb6\u516c\u4f1a", "Name_ML": "Persatuan Kaum Orang-Orang Hakka Kedah Selatan", "Name_EN": "South Kedah Hakka Community Association", "Location": "1125-1126, Lorong Belibis 1/1, Taman Tunku Putra, 09000 Kulim, Kedah.", "Region": "Kedah", "Category": "\u5730\u7f18", "PageNumber": 43, "Country": "Malaysia", "latitude": 5.3736648, "longitude": 100.5582809}, "geometry": {"type": "Point", "coordinates": [100.5582809, 5.3736648]}}, {"type": "Feature", "properties": {"Name_CH": "\u5409\u73bb\u738b\u6c0f\u592a\u539f\u5802", "Name_ML": "Pertubuhan Thye Guan Tong (Ong Si Chong Soo)", "Name_EN": "Kedah / Perlis", "Location": "70-L & 70-M, Taman Mahawangsa, Seberang Jalan Putra, 05150 Alor Setar, Kedah,", "Region": "Kedah", "Category": "\u8840\u7f18", "PageNumber": 44, "Country": "Malaysia", "latitude": 6.1200058, "longitude": 100.3594005}, "geometry": {"type": "Point", "coordinates": [100.3594005, 6.1200058]}}, {"type": "Feature", "properties": {"Name_CH": "\u5409\u73bb\u8c22\u6c0f\u5b97\u4eb2\u4f1a", "Name_ML": "Persatuan Cheah Kedah/Perlis", "Name_EN": null, "Location": "23 Tingkat 1, Jalan Tunku Yaakub, Alor Setar, Kedah.", "Region": "Kedah", "Category": "\u8840\u7f18", "PageNumber": 44, "Country": "Malaysia", "latitude": 6.1170733, "longitude": 100.3626123}, "geometry": {"type": "Point", "coordinates": [100.3626123, 6.1170733]}}, {"type": "Feature", "properties": {"Name_CH": "\u5409\u73bb\u5218\u5173\u5f20\u8d75\u53e4\u57ce\u4f1a", "Name_ML": "Persatuan Liu Guan Zhang Zhao Gu Cheng Hui", "Name_EN": "Kedah / Perlis", "Location": "168, Lebuhraya Sultan Abdul Halim, 05400 Alor Star, Kedah.", "Region": "Kedah", "Category": "\u8840\u7f18", "PageNumber": 44, "Country": "Malaysia", "latitude": 6.086113, "longitude": 100.3631093}, "geometry": {"type": "Point", "coordinates": [100.3631093, 6.086113]}}, {"type": "Feature", "properties": {"Name_CH": "\u5409\u73bb\u65bd\u6c0f\u516c\u4f1a", "Name_ML": "Persatuan See Kedah/Perlias", "Name_EN": null, "Location": "173-B Taman Sri Tandop, Jalan Lencong Barat Alor Setar, Kedah.", "Region": "Kedah", "Category": "\u8840\u7f18", "PageNumber": 44, "Country": "Malaysia", "latitude": 6.0730443, "longitude": 100.3635728}, "geometry": {"type": "Point", "coordinates": [100.3635728, 6.0730443]}}, {"type": "Feature", "properties": {"Name_CH": "\u5409\u73bb\u56db\u7f8e\u5802\u5e84\u6c0f\u5b97\u7960", "Name_ML": "Pertubuhan Soo Bee Tong Ch' ng Si Chong Soo Kedah Dan Perlis(1992)", "Name_EN": null, "Location": "111 Jalan Pekan Melayu, Alor Setar, Kedah.", "Region": "Kedah", "Category": "\u8840\u7f18", "PageNumber": 44, "Country": "Malaysia", "latitude": 6.1172796, "longitude": 100.3650621}, "geometry": {"type": "Point", "coordinates": [100.3650621, 6.1172796]}}, {"type": "Feature", "properties": {"Name_CH": "\u5409\u73bb\u5b59\u6c0f\u5b97\u7960", "Name_ML": "Persatuan Suku Kaum Soon Shi Zong Ci Kedah/Perlis", "Name_EN": "Indera Kayangan", "Location": "99 Jalan Kundor, 05400 Alor Setar, Kedah. ", "Region": "Kedah", "Category": "\u8840\u7f18", "PageNumber": 44, "Country": "Malaysia", "latitude": 6.093843, "longitude": 100.3673455}, "geometry": {"type": "Point", "coordinates": [100.3673455, 6.093843]}}, {"type": "Feature", "properties": {"Name_CH": "\u5409\u73bb\u8f9b\u67ef\u8521\u5b97\u7960", "Name_ML": "Sin Quah Chuah Chong Soo, Kedah / Perlis", "Name_EN": null, "Location": "737, Lebuh Raya Darulaman 05100, Alor Setar, Kedah.", "Region": "Kedah", "Category": "\u8840\u7f18", "PageNumber": 44, "Country": "Malaysia", "latitude": 6.1317004, "longitude": 100.3683117}, "geometry": {"type": "Point", "coordinates": [100.3683117, 6.1317004]}}, {"type": "Feature", "properties": {"Name_CH": "\u5409\u73bb\u6881\u6c0f\u5b97\u4eb2\u4f1a", "Name_ML": "Persatuan Kebajikan Liang Kedah / Perlis,", "Name_EN": null, "Location": "2536 Tingkat 1, Kompleks Pumpang, Pekan Pumpong, 05250 Alor Setar, Kedah.", "Region": "Kedah", "Category": "\u8840\u7f18", "PageNumber": 44, "Country": "Malaysia", "latitude": 6.1357614, "longitude": 100.36952}, "geometry": {"type": "Point", "coordinates": [100.36952, 6.1357614]}}, {"type": "Feature", "properties": {"Name_CH": "\u5409\u73bb\u9647\u897f\u5802", "Name_ML": "Persatuan Leong Say Tong Kedah/Perlis", "Name_EN": null, "Location": "6 Lorong Suka Ramai, Bakar Bata, 05100 Alor Star, Kedah.", "Region": "Kedah", "Category": "\u8840\u7f18", "PageNumber": 44, "Country": "Malaysia", "latitude": 6.137731, "longitude": 100.3703394}, "geometry": {"type": "Point", "coordinates": [100.3703394, 6.137731]}}, {"type": "Feature", "properties": {"Name_CH": "\u5409\u73bb\u9f99\u5c71\u5802\u66fe\u6c0f\u516c\u4f1a", "Name_ML": "Persatuan Loong Sun Tong Kedah/Perlis", "Name_EN": null, "Location": "192 Batu 5, Taman Bersatu Simpang Empat, Alor Setar, Kedah.", "Region": "Kedah", "Category": "\u8840\u7f18", "PageNumber": 44, "Country": "Malaysia", "latitude": 6.043171, "longitude": 100.38073}, "geometry": {"type": "Point", "coordinates": [100.38073, 6.043171]}}, {"type": "Feature", "properties": {"Name_CH": "\u5409\u73bb\u82cf\u8bb8\u8fde\u5b97\u7960", "Name_ML": "Persatuan Saw Khaw Lean Kedah / Perlis", "Name_EN": null, "Location": "88, Batu 6, Simpang Empat, 06650 Alor Star, Kedah.", "Region": "Kedah", "Category": "\u8840\u7f18", "PageNumber": 44, "Country": "Malaysia", "latitude": 6.02434, "longitude": 100.3832921}, "geometry": {"type": "Point", "coordinates": [100.3832921, 6.02434]}}, {"type": "Feature", "properties": {"Name_CH": "\u5409\u73bb\u7f1d\u4e1a\u516c\u4f1a", "Name_ML": "Persatuan Tukang-Tukang Jahit Negeri Kedah /Perlis", "Name_EN": null, "Location": "82, Seberang Jalan Putra 05150 Alor Setar, Kedah.", "Region": "Kedah", "Category": "\u4e1a\u7f18", "PageNumber": 45, "Country": "Malaysia", "latitude": 6.128609, "longitude": 100.3503911}, "geometry": {"type": "Point", "coordinates": [100.3503911, 6.128609]}}, {"type": "Feature", "properties": {"Name_CH": "\u5409\u73bb\u90d1\u6c0f\u82f1\u9633\u5802", "Name_ML": "Persatuan The Si Eng Eong Tong Kedah, Perak", "Name_EN": null, "Location": "33,  Jalan Biru 2, Kg Berjaya Sag Jalan Putra, 05150 A/S Kedah.", "Region": "Kedah", "Category": "\u8840\u7f18", "PageNumber": 45, "Country": "Malaysia", "latitude": 6.1246006, "longitude": 100.3559783}, "geometry": {"type": "Point", "coordinates": [100.3559783, 6.1246006]}}, {"type": "Feature", "properties": {"Name_CH": "\u5409\u73bb\u7535\u5355\u8f66\u6c7d\u8f66\u5546\u66a8\u94f6\u4e1a\u516c\u4f1a", "Name_ML": "Persatuan Peniaga Kenderaan Bermotor / Kereta Terpakai Dan Kewangan", "Name_EN": null, "Location": "307, Jalan Tengah, Off Jalan Putra, 05100 Alor Setar, Kedah.", "Region": "Kedah", "Category": "\u4e1a\u7f18", "PageNumber": 45, "Country": "Malaysia", "latitude": 6.1251562, "longitude": 100.3624267}, "geometry": {"type": "Point", "coordinates": [100.3624267, 6.1251562]}}, {"type": "Feature", "properties": {"Name_CH": "\u5409\u6253\u4e5d\u9f99\u5802\u6797\u59d3\u516c\u4f1a", "Name_ML": "Persatuan Um Kew Leong Tong Kedah Darul Aman  ", "Name_EN": "Lim Association Kew Leong Tong", "Location": "4-A, Kampong Perak, 05100 Alor Setar, Kedah.", "Region": "Kedah", "Category": "\u8840\u7f18", "PageNumber": 45, "Country": "Malaysia", "latitude": 6.121473, "longitude": 100.363888}, "geometry": {"type": "Point", "coordinates": [100.363888, 6.121473]}}, {"type": "Feature", "properties": {"Name_CH": "\u5409\u73bb\u5e84\u4e25\u540c\u5b97\u4f1a", "Name_ML": "Persatuan Zhuang/Yam Kedah Dan Perlis", "Name_EN": null, "Location": "4, Tingkat 2, Taman Selesa, Simpang Kuala, 05400 Alor Setan Kedah.", "Region": "Kedah", "Category": "\u8840\u7f18", "PageNumber": 45, "Country": "Malaysia", "latitude": 6.0961657, "longitude": 100.3640476}, "geometry": {"type": "Point", "coordinates": [100.3640476, 6.0961657]}}, {"type": "Feature", "properties": {"Name_CH": "\u5409\u6253\u5609\u548c\u4ff1\u4e50\u90e8", "Name_ML": "Kelab Rekrasi Kah Who Kedah", "Name_EN": null, "Location": "73-B, Tingkat 2, Komplek Jalan Nagor, 05000 Alor Star, Kedah.", "Region": "Kedah", "Category": "\u8840\u7f18", "PageNumber": 45, "Country": "Malaysia", "latitude": 6.1169404, "longitude": 100.3680364}, "geometry": {"type": "Point", "coordinates": [100.3680364, 6.1169404]}}, {"type": "Feature", "properties": {"Name_CH": "\u5409\u73bb\u9648\u6c0f\u9896\u5ddd\u5802", "Name_ML": "Tan Si Eng Chuan Tong Kedah Perlis", "Name_EN": null, "Location": "666-B, Lorong Tangki Limbong Kapal, 05000 Alor Star, Kedah.", "Region": "Kedah", "Category": "\u8840\u7f18", "PageNumber": 45, "Country": "Malaysia", "latitude": 6.1122861, "longitude": 100.367487}, "geometry": {"type": "Point", "coordinates": [100.367487, 6.1122861]}}, {"type": "Feature", "properties": {"Name_CH": "\u5409\u5317\u534e\u4eba\u6469\u591a\u5de5\u4eba\u516c\u4f1a", "Name_ML": null, "Name_EN": "North Kedah Chinese Motor Workers Association", "Location": "8 Jalan Kanchut, Alor Setar, Kedah.", "Region": "Kedah", "Category": "\u4e1a\u7f18", "PageNumber": 45, "Country": "Malaysia", "latitude": 6.132848, "longitude": 100.3683421}, "geometry": {"type": "Point", "coordinates": [100.3683421, 6.132848]}}, {"type": "Feature", "properties": {"Name_CH": "\u5409\u4e2d\u674e\u6c0f\u5b97\u4eb2\u4f1a", "Name_ML": "Pertubuhan Lee Sih Chong Soo Kedah Tengah", "Name_EN": null, "Location": "5, Hadapan Sek. Men. Che Tom, Jalan Bakar Arang, 08000 Sungai Petani, Kedah.", "Region": "Kedah", "Category": "\u8840\u7f18", "PageNumber": 45, "Country": "Malaysia", "latitude": 5.6233449, "longitude": 100.478342}, "geometry": {"type": "Point", "coordinates": [100.478342, 5.6233449]}}, {"type": "Feature", "properties": {"Name_CH": "\u5409\u73bb\u5f53\u5546\u516c\u4f1a", "Name_ML": "Pertubuhan Pengusaha Pajak Gadai Kedah ", "Name_EN": null, "Location": "1 Jalan Petani, Sungai Petani, Kedah.", "Region": "Kedah", "Category": "\u4e1a\u7f18", "PageNumber": 45, "Country": "Malaysia", "latitude": 5.651338, "longitude": 100.515887}, "geometry": {"type": "Point", "coordinates": [100.515887, 5.651338]}}, {"type": "Feature", "properties": {"Name_CH": "\u5409\u4e2d\u6797\u6c0f\u5b97\u7960", "Name_ML": "Persatuan Um See Chong Soo", "Name_EN": null, "Location": "5-G Jalan Kampong Baru 08000, Sungai Petani, Kedah.", "Region": "Kedah", "Category": "\u8840\u7f18", "PageNumber": 45, "Country": "Malaysia", "latitude": 5.6378644, "longitude": 100.4884533}, "geometry": {"type": "Point", "coordinates": [100.4884533, 5.6378644]}}, {"type": "Feature", "properties": {"Name_CH": "\u5409\u4e2d\u5fe0\u987a\u4e16\u5bb6", "Name_ML": "Tiong Soon See Kah Kedah Tengah", "Name_EN": null, "Location": "739-B, Jalan Bakar Sampah, 08000 Sungai Petani, Kedah.", "Region": "Kedah", "Category": "\u8840\u7f18", "PageNumber": 45, "Country": "Malaysia", "latitude": 5.6364846, "longitude": 100.4990311}, "geometry": {"type": "Point", "coordinates": [100.4990311, 5.6364846]}}, {"type": "Feature", "properties": {"Name_CH": "\u5409\u73bb\u673a\u68b0\u53ca\u8f66\u8f86\u96f6\u4ef6\u5546\u4f1a", "Name_ML": null, "Name_EN": "Kedah Perlis Spare Parts Dealers Association", "Location": "25, 1st Floor, Seberang Jalan Putra, 05150 Alor Star, Kedah.", "Region": "Kedah", "Category": "\u4e1a\u7f18", "PageNumber": 46, "Country": "Malaysia", "latitude": 6.128609, "longitude": 100.3503911}, "geometry": {"type": "Point", "coordinates": [100.3503911, 6.128609]}}, {"type": "Feature", "properties": {"Name_CH": "\u5409\u6253\u534e\u5deb\u7c73\u8f83\u516c\u4f1a", "Name_ML": "Persatuan Pengilang-Pengilang Beras Cina Melayu Kedah.", "Name_EN": null, "Location": "121-A&B, Seberang Jalan Putra, 05150 Alor Setar, Kedah.", "Region": "Kedah", "Category": "\u4e1a\u7f18", "PageNumber": 46, "Country": "Malaysia", "latitude": 6.128609, "longitude": 100.3503911}, "geometry": {"type": "Point", "coordinates": [100.3503911, 6.128609]}}, {"type": "Feature", "properties": {"Name_CH": "\u5409\u6253\u534e\u5546\u5496\u5561\u516c\u4f1a", "Name_ML": "Persatuan Kedai-Kedai Kopi China Kedah", "Name_EN": "Kedah Chinese Shopkeepers Association", "Location": "169 E & F, Jalan Putra 05100 Alor Star, Kedah.", "Region": "Kedah", "Category": "\u4e1a\u7f18", "PageNumber": 46, "Country": "Malaysia", "latitude": 6.1268221, "longitude": 100.3537412}, "geometry": {"type": "Point", "coordinates": [100.3537412, 6.1268221]}}, {"type": "Feature", "properties": {"Name_CH": "\u5409\u6253\u5c60\u4e1a\u516c\u4f1a", "Name_ML": null, "Name_EN": "Persatuan Peniaga Dan Penyembelih Babi Kedah", "Location": "20-A, Taman Berjaya, Jalan Pengawal, 05050 Alor Star, Kedah.", "Region": "Kedah", "Category": "\u4e1a\u7f18", "PageNumber": 46, "Country": "Malaysia", "latitude": 6.102755, "longitude": 100.3543042}, "geometry": {"type": "Point", "coordinates": [100.3543042, 6.102755]}}, {"type": "Feature", "properties": {"Name_CH": "\u5409\u73bb\u6c7d\u8f66\u4fee\u7406\u5de5\u5546\u516c\u4f1a", "Name_ML": null, "Name_EN": "Persatuan Auto Mobil Workshop Kedah / Perlis", "Location": "212 C, Medan Putra, Sbg Jalan Putra, 05150 Alor Setar Kedah.", "Region": "Kedah", "Category": "\u4e1a\u7f18", "PageNumber": 46, "Country": "Malaysia", "latitude": 6.1268221, "longitude": 100.3537412}, "geometry": {"type": "Point", "coordinates": [100.3537412, 6.1268221]}}, {"type": "Feature", "properties": {"Name_CH": "\u5409\u6253\u83dc\u4e1a\u516c\u4f1a", "Name_ML": "Persatuan Peniaga-Peniaga Sayur Negeri Kedah", "Name_EN": null, "Location": "S15 Pasar Pemborong Sayur Syarikat Saudagar-Saudagar Ikan (K) Sdn. Bhd. Sbg, Jalan Putra, Alor Setar, Kedah.", "Region": "Kedah", "Category": "\u4e1a\u7f18", "PageNumber": 46, "Country": "Malaysia", "latitude": 6.1273853, "longitude": 100.3590375}, "geometry": {"type": "Point", "coordinates": [100.3590375, 6.1273853]}}, {"type": "Feature", "properties": {"Name_CH": "\u5409\u6253\u4ec0\u8d27\u5546\u516c\u4f1a", "Name_ML": "Persatuan Peniaga Am Kedah", "Name_EN": "Kedah General Merchants' Association", "Location": "2190, 1st Floor, Lorong Kemuning Seberang Perak, 05400 Alor Star, Kedah.", "Region": "Kedah", "Category": "\u4e1a\u7f18", "PageNumber": 46, "Country": "Malaysia", "latitude": 6.11448, "longitude": 100.3611063}, "geometry": {"type": "Point", "coordinates": [100.3611063, 6.11448]}}, {"type": "Feature", "properties": {"Name_CH": "\u5409\u73bb\u91d1\u94bb\u73e0\u5b9d\u516c\u4f1a", "Name_ML": "Persatuan Perniagaan Emas Dan Permata Kedah / Perlis", "Name_EN": null, "Location": "2203-K Tingkat Satu, Seberang Perak, 05050 Alor Setar, Kedah.", "Region": "Kedah", "Category": "\u4e1a\u7f18", "PageNumber": 46, "Country": "Malaysia", "latitude": 6.1142862, "longitude": 100.3612779}, "geometry": {"type": "Point", "coordinates": [100.3612779, 6.1142862]}}, {"type": "Feature", "properties": {"Name_CH": "\u5409\u73bb\u7c73\u8f83\u516c\u4f1a", "Name_ML": "Persatuan Pengilang-Pengilang Beras", "Name_EN": "Kedah & Perlis Kedah & Perlis Rice Millers Association", "Location": "400 (2nd) Floor, Jalan Pintu Sepuluh, 05000 Alor Setar, Kedah.", "Region": "Kedah", "Category": "\u4e1a\u7f18", "PageNumber": 46, "Country": "Malaysia", "latitude": 6.1246185, "longitude": 100.3643907}, "geometry": {"type": "Point", "coordinates": [100.3643907, 6.1246185]}}, {"type": "Feature", "properties": {"Name_CH": "\u5409\u6253\u534e\u4eba\u751f\u679c\u540c\u4e1a\u516c\u4f1a", "Name_ML": null, "Name_EN": "Kedah Chinese Furniture Association", "Location": "72-B, Jalan Nagor, 05000 Alor Setar, Kedah.", "Region": "Kedah", "Category": "\u4e1a\u7f18", "PageNumber": 46, "Country": "Malaysia", "latitude": 6.1169404, "longitude": 100.3680364}, "geometry": {"type": "Point", "coordinates": [100.3680364, 6.1169404]}}, {"type": "Feature", "properties": {"Name_CH": "\u5409\u73bb\u6444\u5f71\u516c\u4f1a", "Name_ML": null, "Name_EN": "The Kedah Perlis Photo Graphers Association", "Location": "A-17, Jalan Saga Ria, Taman Saga, 05400 Alor Setar, Kedah.", "Region": "Kedah", "Category": "\u4e1a\u7f18", "PageNumber": 46, "Country": "Malaysia", "latitude": 6.092517, "longitude": 100.380731}, "geometry": {"type": "Point", "coordinates": [100.380731, 6.092517]}}, {"type": "Feature", "properties": {"Name_CH": "\u5409\u73bb\u5bb6\u7535\u5546\u516c\u4f1a", "Name_ML": "Persatuan Peniaga Alat-Alat Elektrikal Dometik Kedah / Perlis", "Name_EN": null, "Location": "186, Tingkat 2, Shahab Perdana, Jalan Shahab Perdana 5, Jalan Sultanah Sembungan, 05350 Alor Star, Kedah.", "Region": "Kedah", "Category": "\u4e1a\u7f18", "PageNumber": 46, "Country": "Malaysia", "latitude": 6.1400601, "longitude": 100.3885712}, "geometry": {"type": "Point", "coordinates": [100.3885712, 6.1400601]}}, {"type": "Feature", "properties": {"Name_CH": "\u5409\u6253\u9c7c\u5546\u516c\u4f1a", "Name_ML": null, "Name_EN": "Kedah Fish Merchants Association", "Location": "37-R, Seberang Jalan Putra, 05150 Alor Setar, Kedah.", "Region": "Kedah", "Category": "\u4e1a\u7f18", "PageNumber": 47, "Country": "Malaysia", "latitude": 6.128609, "longitude": 100.3503911}, "geometry": {"type": "Point", "coordinates": [100.3503911, 6.128609]}}, {"type": "Feature", "properties": {"Name_CH": "\u5409\u6253\u5dde\u62d6\u8f66\u53ca\u4fee\u8f66\u516c\u4f1a", "Name_ML": "Persatuan Pemilik Kereta Penunda Dan Membaiki", "Name_EN": null, "Location": "4A, Baru 2, Seberang Jalan Putra Mergong, 05150 Alor Setar, Kedah.", "Region": "Kedah", "Category": "\u4e1a\u7f18", "PageNumber": 47, "Country": "Malaysia", "latitude": 6.128609, "longitude": 100.3503911}, "geometry": {"type": "Point", "coordinates": [100.3503911, 6.128609]}}, {"type": "Feature", "properties": {"Name_CH": "\u5409\u6253\u5dde\u4fee\u8f66\u516c\u4f1a", "Name_ML": "Persatuan Pemilik Bengkel Kenderaan Negeri Kedah", "Name_EN": null, "Location": "4A, Batu 2, Seberang Jalan Putra, Mergong, 05150 Alor Setar, Kedah.", "Region": "Kedah", "Category": "\u4e1a\u7f18", "PageNumber": 47, "Country": "Malaysia", "latitude": 6.1236845, "longitude": 100.3571593}, "geometry": {"type": "Point", "coordinates": [100.3571593, 6.1236845]}}, {"type": "Feature", "properties": {"Name_CH": "\u5409\u6253\u5dde\u679d\u804c\u6587\u51ed\u516c\u4f1a", "Name_ML": "Persatuan Pemilik Sijil Kemahiran Malaysia Negeri Keda", "Name_EN": null, "Location": "4A, Batu 2, Seberang Jalan Putra, Mergong, 05150 Alor Setar, Kedah.", "Region": "Kedah", "Category": "\u4e1a\u7f18", "PageNumber": 47, "Country": "Malaysia", "latitude": 6.1236845, "longitude": 100.3571593}, "geometry": {"type": "Point", "coordinates": [100.3571593, 6.1236845]}}, {"type": "Feature", "properties": {"Name_CH": "\u5409\u6253\u5dde\u5bb6\u79c1\u540c\u4e1a\u516c\u4f1a", "Name_ML": "Persatuan Pembuat-Pembuat Dan Peniaga-Peniaga Perabot Negeri Kedah", "Name_EN": null, "Location": "228 &229 (Tingkat Atas), Kawasan Perusahaan Tandop Baru, 05050 Alor Star, Kedah.", "Region": "Kedah", "Category": "\u4e1a\u7f18", "PageNumber": 47, "Country": "Malaysia", "latitude": 6.0811629, "longitude": 100.3617197}, "geometry": {"type": "Point", "coordinates": [100.3617197, 6.0811629]}}, {"type": "Feature", "properties": {"Name_CH": "\u5409\u6253\u5c0f\u8d29\u5546\u4e1a\u516c\u4f1a", "Name_ML": "Persatuan Penjaja-Penjaja Kedah", "Name_EN": null, "Location": "51, S&T,  Jalan Kampong Perak, 05100 Alor Setar, Kedah.", "Region": "Kedah", "Category": "\u4e1a\u7f18", "PageNumber": 47, "Country": "Malaysia", "latitude": 6.1221261, "longitude": 100.3625921}, "geometry": {"type": "Point", "coordinates": [100.3625921, 6.1221261]}}, {"type": "Feature", "properties": {"Name_CH": "\u5409\u7901\u5efa\u7b51\u5546\u66a8\u5efa\u7b51\u6750\u6599\u5546\u516c\u4f1a", "Name_ML": "Persatuan Pemborong-Pemborong Dan Pembekal- Pembekal Barang-Barang Bangunan Kedah", "Name_EN": null, "Location": "169-A&B, Jalan Kampong Perak, 05100 Alor Star, Kedah.", "Region": "Kedah", "Category": "\u4e1a\u7f18", "PageNumber": 47, "Country": "Malaysia", "latitude": 6.1221261, "longitude": 100.3625921}, "geometry": {"type": "Point", "coordinates": [100.3625921, 6.1221261]}}, {"type": "Feature", "properties": {"Name_CH": "\u5409\u6253\u5dde\u7c73\u5546\u516c\u4f1a", "Name_ML": "Pertubuhan Peniaga-Peniaga Bekas Negeri Kedah", "Name_EN": null, "Location": "46-A, Kompleks Sukan Muazam Shah, Lebuhraya Sulfan Abdul Halim, 05400 Alor Star, Kedah.", "Region": "Kedah", "Category": "\u4e1a\u7f18", "PageNumber": 47, "Country": "Malaysia", "latitude": 6.108518, "longitude": 100.364369}, "geometry": {"type": "Point", "coordinates": [100.364369, 6.108518]}}, {"type": "Feature", "properties": {"Name_CH": "\u5409\u6253\u4e2d\u534e\u5de5\u5546\u603b\u4f1a", "Name_ML": "Dewan Peniangaan Dan Perindustrian Tiong Hua", "Name_EN": "Kedah Chinese Chamber Of Commerce Industry", "Location": "749, 1st Floor, Lebuhraya Darul Aman, 05100 Alor Star, Kedah.", "Region": "Kedah", "Category": "\u4e1a\u7f18", "PageNumber": 47, "Country": "Malaysia", "latitude": 6.1302589, "longitude": 100.3680132}, "geometry": {"type": "Point", "coordinates": [100.3680132, 6.1302589]}}, {"type": "Feature", "properties": {"Name_CH": "\u5409\u4e2d\u5496\u5561\u516c\u4f1a", "Name_ML": "Persatuan Pemilik Kedai Kopi Kedah Tengah ", "Name_EN": "Central Kedah Coffee Shop Owners' Association", "Location": "6, Jalan Petri, 08000 Sungai Petani, Kedah.", "Region": "Kedah", "Category": "\u4e1a\u7f18", "PageNumber": 47, "Country": "Malaysia", "latitude": 5.6400474, "longitude": 100.4861749}, "geometry": {"type": "Point", "coordinates": [100.4861749, 5.6400474]}}, {"type": "Feature", "properties": {"Name_CH": "\u5409\u6253\u5dde\u67f4\u70ad\u5546\u516c\u4f1a", "Name_ML": "Persatuan Peniagaan Kayu Api & Arang Negeri Kedah", "Name_EN": null, "Location": "13-C Taman Aman Kg. Baru, 08000 Sungai Petani, Johor.", "Region": "Kedah", "Category": "\u4e1a\u7f18", "PageNumber": 47, "Country": "Malaysia", "latitude": 5.635228, "longitude": 100.479776}, "geometry": {"type": "Point", "coordinates": [100.479776, 5.635228]}}, {"type": "Feature", "properties": {"Name_CH": "\u5409\u4e2d\u5c0f\u8d29\u5546\u4e1a\u516c\u4f1a", "Name_ML": "Persatuan Panjaja-Panjaja Kedah Tengah", "Name_EN": null, "Location": "55-N, Jalan Sekarat 08000 Sungai Petani, Kedah.", "Region": "Kedah", "Category": "\u4e1a\u7f18", "PageNumber": 47, "Country": "Malaysia", "latitude": 5.636401, "longitude": 100.4877883}, "geometry": {"type": "Point", "coordinates": [100.4877883, 5.636401]}}, {"type": "Feature", "properties": {"Name_CH": "\u5409\u5dde\u5b66\u751f\u8f66\u516c\u4f1a", "Name_ML": "Persatuan Operator Bas Bas Sekolah Negeri Kedah", "Name_EN": null, "Location": "2500(Tingkat1) Kompleks Tunku Yaacob, Jalan Lebuhraya Darulaman, 05100 Alor Star, Kedah.", "Region": "Kedah", "Category": "\u4e1a\u7f18", "PageNumber": 48, "Country": "Malaysia", "latitude": 6.1396618, "longitude": 100.3704683}, "geometry": {"type": "Point", "coordinates": [100.3704683, 6.1396618]}}, {"type": "Feature", "properties": {"Name_CH": "\u5409\u73bb\u65e5\u95f4\u5e08\u8bad\u540c\u5b66\u4f1a", "Name_ML": "Persatuan Guru-Guru Lepasan DTC Kedah Perlis", "Name_EN": null, "Location": "180, Taman Sri Ampang, Jalan Kenanga 11 05050 Alor Star, Kedah.", "Region": "Kedah", "Category": "\u6587\u6559", "PageNumber": 48, "Country": "Malaysia", "latitude": 6.1071718, "longitude": 100.3390124}, "geometry": {"type": "Point", "coordinates": [100.3390124, 6.1071718]}}, {"type": "Feature", "properties": {"Name_CH": "\u4e9a\u7f57\u58eb\u6253\u5efa\u9020\u4e1a", "Name_ML": "Kin Cho Hong Alor Setar", "Name_EN": null, "Location": "3, Jalan Tunku Abdul Rahman Putra, (Jalan Putra), 05100 Alor Star, Kedah.", "Region": "Kedah", "Category": "\u4e1a\u7f18", "PageNumber": 48, "Country": "Malaysia", "latitude": 6.123038, "longitude": 100.3602481}, "geometry": {"type": "Point", "coordinates": [100.3602481, 6.123038]}}, {"type": "Feature", "properties": {"Name_CH": "\u5409\u5317\u534e\u6821\u6559\u5e08\u516c\u4f1a", "Name_ML": "Persatuan Guru-Guru Sekolah Cina Kedah Utara", "Name_EN": "North Kedah Chinese School Teachers Association", "Location": "25B, Jalan Alor Semadom, 05250 Alor Setar, Kedah.", "Region": "Kedah", "Category": "\u6587\u6559", "PageNumber": 48, "Country": "Malaysia", "latitude": 6.1409117, "longitude": 100.3765324}, "geometry": {"type": "Point", "coordinates": [100.3765324, 6.1409117]}}, {"type": "Feature", "properties": {"Name_CH": "\u6811\u80f6\u5546\u516c\u4f1a(\u53e4\u90a6\u5df4\u7d20)", "Name_ML": "Persatuan Peniaga-Peniaga Getah Kubang Pasu Kedah", "Name_EN": null, "Location": "854 Jalan Masjid, Kubang Pasu, Kedah.", "Region": "Kedah", "Category": "\u4e1a\u7f18", "PageNumber": 48, "Country": "Malaysia", "latitude": 6.37261, "longitude": 100.4370188}, "geometry": {"type": "Point", "coordinates": [100.4370188, 6.37261]}}, {"type": "Feature", "properties": {"Name_CH": "\u5409\u73bb\u6821\u957f\u804c\u5de5\u4f1a", "Name_ML": "KKGGBM Cawangan Kedah / Perlis", "Name_EN": null, "Location": "SJK(C) Sin Min A, Jalan Pegawai, 08000 Sungai Petani, Kedah.", "Region": "Kedah", "Category": "\u6587\u6559", "PageNumber": 48, "Country": "Malaysia", "latitude": 5.652962, "longitude": 100.4852662}, "geometry": {"type": "Point", "coordinates": [100.4852662, 5.652962]}}, {"type": "Feature", "properties": {"Name_CH": "\u5409\u73bb\u7559\u53f0\u540c\u5b66\u4f1a", "Name_ML": "Persatuan Siswazah-Siswazah Taiwan Kedah Perlis", "Name_EN": null, "Location": "1, Lorong 23, Taman Patani Jaya, 08000 Sungai Petani Kedah.", "Region": "Kedah", "Category": "\u6587\u6559", "PageNumber": 48, "Country": "Malaysia", "latitude": 5.6294811, "longitude": 100.4885642}, "geometry": {"type": "Point", "coordinates": [100.4885642, 5.6294811]}}, {"type": "Feature", "properties": {"Name_CH": "\u6f6e\u5546\u516c\u4f1a", "Name_ML": "Persatuan Saudagar-Saudagar Teochew Sungai Petani", "Name_EN": null, "Location": "136-C, Taman Bersatu, 08000 Sungai Petani, Kedah.", "Region": "Kedah", "Category": "\u4e1a\u7f18", "PageNumber": 48, "Country": "Malaysia", "latitude": 5.6372309, "longitude": 100.4917894}, "geometry": {"type": "Point", "coordinates": [100.4917894, 5.6372309]}}, {"type": "Feature", "properties": {"Name_CH": "\u53cc\u6eaa\u5927\u5e74\u5efa\u9020\u884c", "Name_ML": "Persatuan Kin Cho Hong", "Name_EN": null, "Location": "584, Jalan Kuala Ketil, 08000 Sungai Petani, Kedah.", "Region": "Kedah", "Category": "\u4e1a\u7f18", "PageNumber": 48, "Country": "Malaysia", "latitude": 5.6392999, "longitude": 100.492513}, "geometry": {"type": "Point", "coordinates": [100.492513, 5.6392999]}}, {"type": "Feature", "properties": {"Name_CH": "\u5409\u4e2d\u4e2d\u534e\u5de5\u5546\u8054\u5408\u4f1a", "Name_ML": "Persatuan Perniagaan & Perindustrian Cina Kedah Tengah ", "Name_EN": "The Chinese Chamber Of Commerce&Industry Of Central Kedah", "Location": "143, 1st Floor, Jalan Kelab Cinta Sayang, Taman Ria Jaya, 08000 Sungai Petani, Kedah.", "Region": "Kedah", "Category": "\u4e1a\u7f18", "PageNumber": 48, "Country": "Malaysia", "latitude": 5.653908, "longitude": 100.5147897}, "geometry": {"type": "Point", "coordinates": [100.5147897, 5.653908]}}, {"type": "Feature", "properties": {"Name_CH": "\u5357\u5409\u6253\u4e2d\u534e\u5546\u4f1a", "Name_ML": "Dewan Perniagaan Tionghoa Kedah Selatan", "Name_EN": "South Kedah Chinese Chamber Of Commerce", "Location": "1190, Lorong Bebilis 1/1, Taman Tunku Putra, 09000 Kulim, Kedah.", "Region": "Kedah", "Category": "\u4e1a\u7f18", "PageNumber": 48, "Country": "Malaysia", "latitude": 5.3730578, "longitude": 100.5579599}, "geometry": {"type": "Point", "coordinates": [100.5579599, 5.3730578]}}, {"type": "Feature", "properties": {"Name_CH": "\u5409\u73bb\u7a2e\u7075\u6821\u53cb\u4f1a", "Name_ML": "Persatuan Alumni ChungLing, Kedah/Perlis", "Name_EN": null, "Location": "7-A, Lorong Lintang, 05200 Alor Star, Kedah.", "Region": "Kedah", "Category": "\u6587\u6559", "PageNumber": 49, "Country": "Malaysia", "latitude": 6.1197617, "longitude": 100.373623}, "geometry": {"type": "Point", "coordinates": [100.373623, 6.1197617]}}, {"type": "Feature", "properties": {"Name_CH": "\u5409\u6253\u5341\u5b57\u6e2f\u76ca\u6c11\u6821\u53cb\u4f1a", "Name_ML": "Persatuan Murid-Murid Tua Yih Min", "Name_EN": null, "Location": "295, Taman Orkid Simpang Empat, 06650 Alor Star, Kedah.", "Region": "Kedah", "Category": "\u6587\u6559", "PageNumber": 49, "Country": "Malaysia", "latitude": 6.0215714, "longitude": 100.3712411}, "geometry": {"type": "Point", "coordinates": [100.3712411, 6.0215714]}}, {"type": "Feature", "properties": {"Name_CH": "\u5409\u6253\u534e\u6821\u8463\u8054\u4f1a", "Name_ML": "Persatuan Lembaga-Lembaga Pengurus Sekolah Cina Keday", "Name_EN": "United Chinese School Comm, Associtaion of Kedah", "Location": "D/A Sekolah Menengah Persendirian Sin Min No 1, Jalan Alor Mengkudu, 05400 Alor Setar, Johor.", "Region": "Kedah", "Category": "\u6587\u6559", "PageNumber": 49, "Country": "Malaysia", "latitude": 6.0916141, "longitude": 100.3862633}, "geometry": {"type": "Point", "coordinates": [100.3862633, 6.0916141]}}, {"type": "Feature", "properties": {"Name_CH": "\u5409\u6253\u7af9\u57ce\u660e\u65b0\u6821\u53cb\u4f1a", "Name_ML": "Persatuan Bekas Murid Sekolah Min Sin Kota Sarang Semut Alor Star", "Name_EN": null, "Location": "SRJK(C) Min Sin Kota Sarang Semut, 06800 Alor Star, Kedah.", "Region": "Kedah", "Category": "\u6587\u6559", "PageNumber": 49, "Country": "Malaysia", "latitude": 5.9738175, "longitude": 100.4021419}, "geometry": {"type": "Point", "coordinates": [100.4021419, 5.9738175]}}, {"type": "Feature", "properties": {"Name_CH": "\u5409\u4e2d\u534e\u6821\u6559\u5e08\u4f1a", "Name_ML": "Persatuan Guru-Guru Sek Cina Kedah Tengah", "Name_EN": null, "Location": "SJK(C) TaiTong, Taman Kempas Sg. Pasir, 08000 Sungai Petani, Kedah.", "Region": "Kedah", "Category": "\u6587\u6559", "PageNumber": 49, "Country": "Malaysia", "latitude": 5.594456, "longitude": 100.4788202}, "geometry": {"type": "Point", "coordinates": [100.4788202, 5.594456]}}, {"type": "Feature", "properties": {"Name_CH": "\u5409\u6253\u53cc\u6eaa\u5927\u5e74\u65b0\u6c11\u6821\u53cb\u4f1a", "Name_ML": "Persatuan Murid Murid Tua Sin Min Sungai Petani Kedah", "Name_EN": null, "Location": "10, Jalan Merbok, 08000 Sungai Petani, Kedah.", "Region": "Kedah", "Category": "\u6587\u6559", "PageNumber": 49, "Country": "Malaysia", "latitude": 5.6403972, "longitude": 100.4853758}, "geometry": {"type": "Point", "coordinates": [100.4853758, 5.6403972]}}, {"type": "Feature", "properties": {"Name_CH": "\u5409\u5927\u97e9\u6c5f\u6821\u53cb\u4f1a", "Name_ML": "Persatuan Bekas Murid Han Chiang Kedah", "Name_EN": "Penang Han Chiang School Ex-Pupils'  Kedah Association", "Location": "46(3/F) Jalan Pengkalan, Taman Pekan Baru, 08000 Sungai Petani, Kedah.", "Region": "Kedah", "Category": "\u6587\u6559", "PageNumber": 49, "Country": "Malaysia", "latitude": 5.641611, "longitude": 100.4875089}, "geometry": {"type": "Point", "coordinates": [100.4875089, 5.641611]}}, {"type": "Feature", "properties": {"Name_CH": "\u5409\u5357\u9c81\u4e43\u534e\u6c11\u6821\u53cb\u4f1a", "Name_ML": "Persatuan Bekas Murid-Murid Sekolah Hwa Min, Lunas Kedah", "Name_EN": null, "Location": "285, Tingkat Atas, Jalan Desa Makmur 3, Taman Desa Makmur, 09600 Lunas, Kedah.", "Region": "Kedah", "Category": "\u6587\u6559", "PageNumber": 49, "Country": "Malaysia", "latitude": 5.4339333, "longitude": 100.5400449}, "geometry": {"type": "Point", "coordinates": [100.5400449, 5.4339333]}}, {"type": "Feature", "properties": {"Name_CH": "\u5409\u6253\u534e\u6821\u6821\u53cb\u4f1a\u8054\u5408\u4f1a", "Name_ML": "Gabungan Persatuan-Persatuan Bekas Palajar Sekolah Negeri Kedah", "Name_EN": null, "Location": "271, Taman Keranji 2, 09000 Kulim, Kedah.", "Region": "Kedah", "Category": "\u6587\u6559", "PageNumber": 49, "Country": "Malaysia", "latitude": 5.3674, "longitude": 100.5421735}, "geometry": {"type": "Point", "coordinates": [100.5421735, 5.3674]}}, {"type": "Feature", "properties": {"Name_CH": "\u5409\u5357\u89c9\u6c11\u6821\u53cb\u4f1a .", "Name_ML": "Persatuan Murid-Murid Lepasan Sekolah Chio Min, Kedah Selatan", "Name_EN": null, "Location": "271 Taman Keranji 2, 09000 Kulim, Kedah.", "Region": "Kedah", "Category": "\u6587\u6559", "PageNumber": 49, "Country": "Malaysia", "latitude": 5.3674, "longitude": 100.5421735}, "geometry": {"type": "Point", "coordinates": [100.5421735, 5.3674]}}, {"type": "Feature", "properties": {"Name_CH": "\u5409\u5357\u534e\u6821\u6559\u5e08\u516c\u4f1a", "Name_ML": "Persatuan Guru-Guru Sekolah Cina Kedah Selatan", "Name_EN": null, "Location": "D/A SJK(C) Chio Min B' , 09000 Kulim, Kedah. ", "Region": "Kedah", "Category": "\u6587\u6559", "PageNumber": 49, "Country": "Malaysia", "latitude": 5.3732881, "longitude": 100.5498415}, "geometry": {"type": "Point", "coordinates": [100.5498415, 5.3732881]}}, {"type": "Feature", "properties": {"Name_CH": "\u5409\u6253\u6ce2\u5404\u5148\u90a3\u540c\u80b2\u6821\u53cb\u4f1a", "Name_ML": "Persatuan Murid-AAurid Tua SRJK (C) Tong Yuh PokokSena Kedah", "Name_EN": null, "Location": "181A, Lorong 4 Kiri, 06400 Pokok Sena, Kedah.", "Region": "Kedah", "Category": "\u6587\u6559", "PageNumber": 49, "Country": "Malaysia", "latitude": 6.1423043, "longitude": 100.6674299}, "geometry": {"type": "Point", "coordinates": [100.6674299, 6.1423043]}}, {"type": "Feature", "properties": {"Name_CH": "\u4e9a\u7f57\u58eb\u6253\u65b0\u6c11\u6821\u53cb\u4f1a", "Name_ML": "Persatuan Murid-Murid Tua Sin Min", "Name_EN": null, "Location": "C/O Weng Yick Brothers Furniture . 55Q, Jalan Telok Wanjah, 05200 Alor Setar, Kedah.", "Region": "Kedah", "Category": "\u6587\u6559", "PageNumber": 50, "Country": "Malaysia", "latitude": 6.1193363, "longitude": 100.3677167}, "geometry": {"type": "Point", "coordinates": [100.3677167, 6.1193363]}}, {"type": "Feature", "properties": {"Name_CH": "\u4e9a\u7f57\u58eb\u6253\u5e73\u6c11\u6821\u53cb\u4f1a", "Name_ML": "Persatuan Murid-Murid Tua Peng Min", "Name_EN": null, "Location": "Sekolah RJK (C) Peng Min Bee Bee Park, 05400 Alor Setar, Kedah.", "Region": "Kedah", "Category": "\u6587\u6559", "PageNumber": 50, "Country": "Malaysia", "latitude": 6.0950874, "longitude": 100.3655428}, "geometry": {"type": "Point", "coordinates": [100.3655428, 6.0950874]}}, {"type": "Feature", "properties": {"Name_CH": "\u4e9a\u7f57\u58eb\u6253\u6ec2\u6ec2\u6821\u53cb\u4f1a", "Name_ML": "Persatuan Bekas Pelajar SJK (C) Pumpong\nSekolah Jenis Kebangsaan (C) Pumpong", "Name_EN": null, "Location": "Jalan Bakar Bata, 05250 Alor Star, Kedah.", "Region": "Kedah", "Category": "\u6587\u6559", "PageNumber": 50, "Country": "Malaysia", "latitude": 6.137731, "longitude": 100.3703394}, "geometry": {"type": "Point", "coordinates": [100.3703394, 6.137731]}}, {"type": "Feature", "properties": {"Name_CH": "\u4e9a\u7f57\u58eb\u6253\u5409\u534e\u6821\u53cb\u4f1a", "Name_ML": "Persatuan Murid-Murid Tua Keat Hwa", "Name_EN": null, "Location": "1785, Jalan Telok Wanjah, 05200 Alor Star, Kedah.", "Region": "Kedah", "Category": "\u6587\u6559", "PageNumber": 50, "Country": "Malaysia", "latitude": 6.1220088, "longitude": 100.3783886}, "geometry": {"type": "Point", "coordinates": [100.3783886, 6.1220088]}}, {"type": "Feature", "properties": {"Name_CH": "\u4e9a\u7f57\u58eb\u6253\u542f\u667a\u6821\u53cb\u4f1a", "Name_ML": "Persatuan Bekas Pelajar SRJK (C) Kee Chee", "Name_EN": null, "Location": "Batu 2, Jalan Langgar, 05460 Alor Setar, Kedah.", "Region": "Kedah", "Category": "\u6587\u6559", "PageNumber": 50, "Country": "Malaysia", "latitude": 6.116709, "longitude": 100.3657786}, "geometry": {"type": "Point", "coordinates": [100.3657786, 6.116709]}}, {"type": "Feature", "properties": {"Name_CH": "\u65e5\u5f97\u62c9\u4e2d\u534e\u6821\u53cb\u4f1a", "Name_ML": "Persatuan Murid-Murid Tua SRJK (C) Chung Hwa Jitra Kedah", "Name_EN": null, "Location": "26, Taman Jitra, Kedah.", "Region": "Kedah", "Category": "\u6587\u6559", "PageNumber": 50, "Country": "Malaysia", "latitude": 6.2598848, "longitude": 100.4257769}, "geometry": {"type": "Point", "coordinates": [100.4257769, 6.2598848]}}, {"type": "Feature", "properties": {"Name_CH": "\u53cc\u6eaa\u5927\u5e74\u65b0\u6c11\u6821\u53cb\u4f1a", "Name_ML": "Persatuan Murid Tua Sin Min Sungai Petani Kedah", "Name_EN": null, "Location": "10 Jalan Merbok Sungai Petani, Kedah.", "Region": "Kedah", "Category": "\u6587\u6559", "PageNumber": 50, "Country": "Malaysia", "latitude": 5.6403972, "longitude": 100.4853758}, "geometry": {"type": "Point", "coordinates": [100.4853758, 5.6403972]}}, {"type": "Feature", "properties": {"Name_CH": "\u79fb\u98ce\u5267\u793e", "Name_ML": "Persatuan Drama Yee Fong Sungai Petani Kedah", "Name_EN": null, "Location": "33, Jalan Dewa, 08000 Sungai Petani, Kedah.", "Region": "Kedah", "Category": "\u6587\u6559", "PageNumber": 50, "Country": "Malaysia", "latitude": 5.6407362, "longitude": 100.4878141}, "geometry": {"type": "Point", "coordinates": [100.4878141, 5.6407362]}}, {"type": "Feature", "properties": {"Name_CH": "\u65b0\u5149\u6821\u53cb\u4f1a", "Name_ML": "Persatuan Murid-Murid Tua Sin Kwang Sungai Petani Kedah", "Name_EN": null, "Location": "118, Lorong 1/9, Taman Sri Wang, 08000 Sungai Petani, Kedah.", "Region": "Kedah", "Category": "\u6587\u6559", "PageNumber": 50, "Country": "Malaysia", "latitude": 5.618637, "longitude": 100.499183}, "geometry": {"type": "Point", "coordinates": [100.499183, 5.618637]}}, {"type": "Feature", "properties": {"Name_CH": "\u53cc\u6eaa\u5927\u5e74\u4e8c\u6761\u77f3\u660e\u5fb7\u5b66\u6821\u6821\u53cb\u4f1a", "Name_ML": "Persatuan Murid-Murid Tua Min Terk", "Name_EN": null, "Location": "930-B, Batu Dua, Jalan Kuala Ketil, 08000 Sungai Petani, Kedah.", "Region": "Kedah", "Category": "\u6587\u6559", "PageNumber": 50, "Country": "Malaysia", "latitude": 5.6320398, "longitude": 100.5210863}, "geometry": {"type": "Point", "coordinates": [100.5210863, 5.6320398]}}, {"type": "Feature", "properties": {"Name_CH": "\u5c1a\u6b63\u6821\u53cb\u4f1a", "Name_ML": "Persatuan Murid-Murid Tua Sekolah Shang Ching Pandang Serai Kedah", "Name_EN": null, "Location": "LC 36 Jalan Lunas, Padang Serai, Kedah.", "Region": "Kedah", "Category": "\u6587\u6559", "PageNumber": 50, "Country": "Malaysia", "latitude": 5.511538, "longitude": 100.554122}, "geometry": {"type": "Point", "coordinates": [100.554122, 5.511538]}}, {"type": "Feature", "properties": {"Name_CH": "\u52a0\u62c9\u5cb8\u5e75\u660e\u6821\u53cb\u4f1a", "Name_ML": "Persatuan Bekas Murid-Murid SekKhai Min Karangan Kedah", "Name_EN": null, "Location": "40, Pekan Karangan, 09700 Karangan, Kedah.", "Region": "Kedah", "Category": "\u6587\u6559", "PageNumber": 50, "Country": "Malaysia", "latitude": 5.4205609, "longitude": 100.6674156}, "geometry": {"type": "Point", "coordinates": [100.6674156, 5.4205609]}}, {"type": "Feature", "properties": {"Name_CH": "\u5409\u6253\u5fb7\u6559\u4f1a\u6d4e\u9633\u9601", "Name_ML": null, "Name_EN": "Chee Yang Kor Moral Uplifting Society Kedah", "Location": "2035, Tongkang Yard, Off Jalan Kota Tanah, 05050 Alor Setar, Kedah.", "Region": "Kedah", "Category": "\u5b97\u6559", "PageNumber": 51, "Country": "Malaysia", "latitude": 6.1166699, "longitude": 100.3543595}, "geometry": {"type": "Point", "coordinates": [100.3543595, 6.1166699]}}, {"type": "Feature", "properties": {"Name_CH": "\u5409\u6253\u6597\u6bcd\u5bab\u4e5d\u7687\u5927\u5e1d\u5e99", "Name_ML": "Persatuan Penganut Tow Boo Keong Kiu Ong Tai Tay Kedah", "Name_EN": null, "Location": "Lot 1124 Jalan Bangsa, Seberang Jalan Putra, 05150 Alor Setar, Kedah.", "Region": "Kedah", "Category": "\u5b97\u6559", "PageNumber": 51, "Country": "Malaysia", "latitude": 6.128609, "longitude": 100.3503911}, "geometry": {"type": "Point", "coordinates": [100.3503911, 6.128609]}}, {"type": "Feature", "properties": {"Name_CH": "\u5409\u6253\u4f5b\u5b66\u9662", "Name_ML": "Persatuan Buddhist Kedah", "Name_EN": "Kedah Buddhist Association", "Location": "1961-A, Jalan Telok Wanjah, 05200 Alor Star, Kedah.", "Region": "Kedah", "Category": "\u5b97\u6559", "PageNumber": 51, "Country": "Malaysia", "latitude": 6.1220088, "longitude": 100.3783886}, "geometry": {"type": "Point", "coordinates": [100.3783886, 6.1220088]}}, {"type": "Feature", "properties": {"Name_CH": "\u534e\u73b2\u80b2\u667a\u6821\u53cb\u4f1a", "Name_ML": "Persatuan Bekas Pelajar Sekolah Yeok Chee Baling Kedah", "Name_EN": null, "Location": "W(LBB-36), Jalan Shariff, 09000 Baling, Kedah.", "Region": "Kedah", "Category": "\u6587\u6559", "PageNumber": 51, "Country": "Malaysia", "latitude": 6.1259431, "longitude": 100.3823483}, "geometry": {"type": "Point", "coordinates": [100.3823483, 6.1259431]}}, {"type": "Feature", "properties": {"Name_CH": "\u534e\u73b2\u5fb7\u6559\u4f1a\u7d2b\u534e\u9601", "Name_ML": "Persatuan Pendidikan Akhlak Chee Wah Kor Baling Kedah", "Name_EN": null, "Location": "33-A, Jalan Shariff, 09100 Baling, Kedah.", "Region": "Kedah", "Category": "\u5b97\u6559", "PageNumber": 51, "Country": "Malaysia", "latitude": 6.1259431, "longitude": 100.3823483}, "geometry": {"type": "Point", "coordinates": [100.3823483, 6.1259431]}}, {"type": "Feature", "properties": {"Name_CH": "\u5ce8\u5360\u5fc5\u529b\u4f5b\u6559\u4f1a", "Name_ML": "Persatuan Ugama Buddha Guar Chempedak Guruk Kedah", "Name_EN": null, "Location": "1 Taman Sri Wangsa, Gua Chempedak, Gurun, Kedah.", "Region": "Kedah", "Category": "\u5b97\u6559", "PageNumber": 51, "Country": "Malaysia", "latitude": 5.8511967, "longitude": 100.4608421}, "geometry": {"type": "Point", "coordinates": [100.4608421, 5.8511967]}}, {"type": "Feature", "properties": {"Name_CH": "\u6ce2\u5404\u5148\u90a3\u4f5b\u6559\u4f1a", "Name_ML": "Persatuan Buddhist Pokok Sena", "Name_EN": "Pokok Sena Buddhist Association", "Location": "139-A, Lorong 6, Kampung Baru, 06400 Pokok Sena, Kedah.", "Region": "Kedah", "Category": "\u5b97\u6559", "PageNumber": 51, "Country": "Malaysia", "latitude": 5.967229, "longitude": 100.57118}, "geometry": {"type": "Point", "coordinates": [100.57118, 5.967229]}}, {"type": "Feature", "properties": {"Name_CH": "\u6cd5\u4e3b\u516c\u795e\u5e99", "Name_ML": "Pertubuhan Penganut Huat Szu Kong Sungai Petani Keda", "Name_EN": null, "Location": "2210, Lorong Mak Yong 1, Taman Ria Jya, 08000 Sungai Petani, Kedah.", "Region": "Kedah", "Category": "\u5b97\u6559", "PageNumber": 51, "Country": "Malaysia", "latitude": 5.6472535, "longitude": 100.5130143}, "geometry": {"type": "Point", "coordinates": [100.5130143, 5.6472535]}}, {"type": "Feature", "properties": {"Name_CH": "\u4e8c\u6761\u77f3\u4e09\u5c71\u56fd\u738b\u5584\u4fe1\u4f1a", "Name_ML": "Pertubuhan Penganut-Penganut San Shan Guo Wang, Batu 2, Sungai Petani", "Name_EN": null, "Location": "721, Batu Dua, 08000 Sungai Petani Kedah.", "Region": "Kedah", "Category": "\u5b97\u6559", "PageNumber": 51, "Country": "Malaysia", "latitude": 5.6316696, "longitude": 100.5187571}, "geometry": {"type": "Point", "coordinates": [100.5187571, 5.6316696]}}, {"type": "Feature", "properties": {"Name_CH": "\u5409\u6253\u83aa\u4ed1\u5fb7\u6559\u4f1a\u7d2b\u6d25\u9601", "Name_ML": null, "Name_EN": "Chee Chin Kok Moral Uplifting Society", "Location": "33-A, Jalan Jeniang, 08300 Gurun, Kedah.", "Region": "Kedah", "Category": "\u5b97\u6559", "PageNumber": 51, "Country": "Malaysia", "latitude": 5.8135621, "longitude": 100.5410291}, "geometry": {"type": "Point", "coordinates": [100.5410291, 5.8135621]}}, {"type": "Feature", "properties": {"Name_CH": "\u897f\u5cad\u5b66\u6821\u6821\u53cb\u4f1a", "Name_ML": "Persatuan Bekas Murid Sekolah Cina Serdang, Kedah", "Name_EN": null, "Location": "85, Jalan Pecah Batu, 09800 Serdang, Kedah.", "Region": "Kedah", "Category": "\u6587\u6559", "PageNumber": 51, "Country": "Malaysia", "latitude": 5.2124135, "longitude": 100.6150351}, "geometry": {"type": "Point", "coordinates": [100.6150351, 5.2124135]}}, {"type": "Feature", "properties": {"Name_CH": "\u5409\u6253\u6d6e\u7f57\u4ea4\u6021\u5fb7\u6559\u4f1a\u7d2b\u6587\u9601", "Name_ML": "Persatuan Pendidikan Akhlak Chee Boon Kor ", "Name_EN": null, "Location": "58, Pokok Asam, 07000 Pulau Langkawi, Kedah.", "Region": "Kedah", "Category": "\u5b97\u6559", "PageNumber": 52, "Country": "Malaysia", "latitude": 6.327751, "longitude": 99.8386501}, "geometry": {"type": "Point", "coordinates": [99.8386501, 6.327751]}}, {"type": "Feature", "properties": {"Name_CH": "\u5409\u6253\u4e9a\u7f57\u58eb\u6253\u8517\u82ad\u9752\u5c71\u4f6c\u7956\u53e4\u5e99", "Name_ML": "Persatuan Pengurusan Tokong Chin Sun Low Chor", "Name_EN": null, "Location": "15-M Kampong Kilang Tebu, Tembak Bunga, 05050 Alor Star, Kedah.", "Region": "Kedah", "Category": "\u5b97\u6559", "PageNumber": 52, "Country": "Malaysia", "latitude": 6.1021074, "longitude": 100.3409292}, "geometry": {"type": "Point", "coordinates": [100.3409292, 6.1021074]}}, {"type": "Feature", "properties": {"Name_CH": "\u5409\u6253\u5e7f\u798f\u5bab", "Name_ML": "Kong Hock Keong", "Name_EN": null, "Location": "233-Pengkalan Kundor, 05400 Alor Star, Kedah.", "Region": "Kedah", "Category": "\u5b97\u6559", "PageNumber": 52, "Country": "Malaysia", "latitude": 6.077681, "longitude": 100.3532281}, "geometry": {"type": "Point", "coordinates": [100.3532281, 6.077681]}}, {"type": "Feature", "properties": {"Name_CH": "\u5409\u7901\u5723\u6559\u4f1a", "Name_ML": "Persatuan Sin Kow Hooi Alor Setar Kedah", "Name_EN": null, "Location": "52/53 Batu 2, Jalan Langgar, 05100 Alor Setar, Kedah.", "Region": "Kedah", "Category": "\u5b97\u6559", "PageNumber": 52, "Country": "Malaysia", "latitude": 6.1166729, "longitude": 100.3657282}, "geometry": {"type": "Point", "coordinates": [100.3657282, 6.1166729]}}, {"type": "Feature", "properties": {"Name_CH": "\u5409\u6253\u6a1f\u4ed1\u4f5b\u6559\u4f1a", "Name_ML": "Persatuan Buddist Changlun", "Name_EN": "Changlun Buddhist Association", "Location": "87, Taman Changlun, Jalan Sintok, 06010 Changlun, Kedah.", "Region": "Kedah", "Category": "\u5b97\u6559", "PageNumber": 52, "Country": "Malaysia", "latitude": 6.4051588, "longitude": 100.2131962}, "geometry": {"type": "Point", "coordinates": [100.2131962, 6.4051588]}}, {"type": "Feature", "properties": {"Name_CH": "\u5409\u6253\u53cc\u6eaa\u5927\u5e74\u7518\u8fb9\u56ed\u6597\u6bcd\u5bab\u7406\u4e8b\u4f1a", "Name_ML": "Pertubuhan Penganut Agama Buddha Dou Mu Gong Jiu Hwang Da Ti. Kampung Kean Peng. Sg Petani, Kedah", "Name_EN": null, "Location": "516, Kampung Kean Peng, Pekan Lama, 08000 Sungai Petani, Kedah.", "Region": "Kedah", "Category": "\u5b97\u6559", "PageNumber": 52, "Country": "Malaysia", "latitude": 5.6181488, "longitude": 100.5529298}, "geometry": {"type": "Point", "coordinates": [100.5529298, 5.6181488]}}, {"type": "Feature", "properties": {"Name_CH": "\u5409\u6253\u6a1f\u4ed1\u666e\u6551\u5bfa", "Name_ML": "Pertubuhan Penganut Ajaran Phoo Kiu Se", "Name_EN": null, "Location": "Tokong Phoo Kiu Se, Jalan Sintol, 06010 Changlun, Kedah.", "Region": "Kedah", "Category": "\u5b97\u6559", "PageNumber": 52, "Country": "Malaysia", "latitude": 6.4162552, "longitude": 100.5183622}, "geometry": {"type": "Point", "coordinates": [100.5183622, 6.4162552]}}, {"type": "Feature", "properties": {"Name_CH": "\u5409\u5357\u4e09\u5df4\u592e\u5e7f\u798f\u5bab", "Name_ML": "Jawatankuasa Pengurusan Tokong Kwong Hock Keong, junjong", "Name_EN": "The Committee Of Management Of Kwong Hock Keong, Junjong", "Location": "139, Pekan Junjong, 09000 Kulim, Kedah.", "Region": "Kedah", "Category": "\u5b97\u6559", "PageNumber": 52, "Country": "Malaysia", "latitude": 5.2997054, "longitude": 100.5370695}, "geometry": {"type": "Point", "coordinates": [100.5370695, 5.2997054]}}, {"type": "Feature", "properties": {"Name_CH": "\u5409\u5357\u5fb7\u6559\u4f1a\u7d2b\u7ff0\u9601", "Name_ML": null, "Name_EN": "Chee Han Kor Moral Uplifting Society South Kedah", "Location": "358, Kelang Sago, 09000 Kulim, Kedah.", "Region": "Kedah", "Category": "\u5b97\u6559", "PageNumber": 52, "Country": "Malaysia", "latitude": 5.3736567, "longitude": 100.5512471}, "geometry": {"type": "Point", "coordinates": [100.5512471, 5.3736567]}}, {"type": "Feature", "properties": {"Name_CH": "\u5409\u5357\u5df4\u4e1c\u8272\u6d77\u5fb7\u6559\u4f1a\u7d2b\u5929\u9601", "Name_ML": null, "Name_EN": "Chee Thean Hkor Moral Uplifting Society", "Location": "Jalan Baling, 09400 Padang Serai, Kedah.", "Region": "Kedah", "Category": "\u5b97\u6559", "PageNumber": 52, "Country": "Malaysia", "latitude": 5.510874, "longitude": 100.5651849}, "geometry": {"type": "Point", "coordinates": [100.5651849, 5.510874]}}, {"type": "Feature", "properties": {"Name_CH": "\u5409\u6253\u534e\u73b2\u5fb7\u6559\u4f1a\u7d2b\u534e\u9601", "Name_ML": "Persatuan Pendidikan Akhlak Chee Wan Kor", "Name_EN": null, "Location": "33-A, Jalan Shariff, 90100 Baling, Kedah.", "Region": "Kedah", "Category": "\u5b97\u6559", "PageNumber": 52, "Country": "Malaysia", "latitude": 6.1259431, "longitude": 100.3823483}, "geometry": {"type": "Point", "coordinates": [100.3823483, 6.1259431]}}, {"type": "Feature", "properties": {"Name_CH": "\u5409\u5357\u53f8\u5357\u9a6c\u5fb7\u6559\u4f1a\u632f\u6210\u9601", "Name_ML": "Persatuan Amal Chin Shen Khor", "Name_EN": null, "Location": "77, Jalan Raya, 09810 Selama, Kedah.", "Region": "Kedah", "Category": "\u5b97\u6559", "PageNumber": 52, "Country": "Malaysia", "latitude": 5.231285, "longitude": 100.6745879}, "geometry": {"type": "Point", "coordinates": [100.6745879, 5.231285]}}, {"type": "Feature", "properties": {"Name_CH": "\u9a6c\u6765\u897f\u4e9a\u521b\u4ef7\u4f1a\u5409\u6253\u5dde\u5206\u4f1a", "Name_ML": "Persatuan Soka Gakkai Malaysia (Cawangan Kedah)", "Name_EN": null, "Location": "55, Komplek Alor Malal Batu 2, Jalan Langgar, 05460 Alor Setar, Kedah.", "Region": "Kedah", "Category": "\u5b97\u6559", "PageNumber": 53, "Country": "Malaysia", "latitude": 6.1263811, "longitude": 100.3855847}, "geometry": {"type": "Point", "coordinates": [100.3855847, 6.1263811]}}, {"type": "Feature", "properties": {"Name_CH": "\u65e5\u5f97\u62c9\u7075\u5174\u5e99", "Name_ML": "Rumah Berhala Leng Heng Meow", "Name_EN": "Leng Heng Meow Temple", "Location": "Jalan Dato Seri Osman Aroff, 06000 Jitra, Kedah.", "Region": "Kedah", "Category": "\u5b97\u6559", "PageNumber": 53, "Country": "Malaysia", "latitude": 6.2555782, "longitude": 100.428257}, "geometry": {"type": "Point", "coordinates": [100.428257, 6.2555782]}}, {"type": "Feature", "properties": {"Name_CH": "\u5409\u4e2d\u53cc\u6eaa\u5927\u5e74\u5fb7\u6559\u4f1a\u7d2b\u4fee\u9601", "Name_ML": null, "Name_EN": "Chee Siew Kok Moral Uplifting Society", "Location": "390, Taman lntan, 08000 Sungai Petani, Kedah.", "Region": "Kedah", "Category": "\u5b97\u6559", "PageNumber": 53, "Country": "Malaysia", "latitude": 5.635311, "longitude": 100.4714849}, "geometry": {"type": "Point", "coordinates": [100.4714849, 5.635311]}}, {"type": "Feature", "properties": {"Name_CH": "\u5409\u4e2d\u4f5b\u6559\u4f1a", "Name_ML": "Persatuan Buddhist Kedah Tengah", "Name_EN": "Central Kedah Buddhist Association", "Location": "5-F, Jalan Kampung Baru, 08000 Sungai Petani, Kedah.", "Region": "Kedah", "Category": "\u5b97\u6559", "PageNumber": 53, "Country": "Malaysia", "latitude": 5.6378644, "longitude": 100.4884533}, "geometry": {"type": "Point", "coordinates": [100.4884533, 5.6378644]}}, {"type": "Feature", "properties": {"Name_CH": "\u5409\u4e2d\u5fb3\u6559\u4f1a\u7acb\u5584\u9601", "Name_ML": "Persatuan Pendidikan Akhlak Lip Seang Kor", "Name_EN": null, "Location": "188, Air Mendidih, Jalan Badlishah,  08000 Sungai Petani, Kedah.", "Region": "Kedah", "Category": "\u5b97\u6559", "PageNumber": 53, "Country": "Malaysia", "latitude": 5.6494274, "longitude": 100.495731}, "geometry": {"type": "Point", "coordinates": [100.495731, 5.6494274]}}, {"type": "Feature", "properties": {"Name_CH": "\u5409\u4e2d\u5e86\u9686\u82b1\u56ed\u798f\u5fb7\u7960\u7406\u4e8b\u4f1a", "Name_ML": "Pertubuhan Pengikut Tokong Hock Teik Soo Taman Keladi", "Name_EN": null, "Location": "1, Lorong Angsana 1, Taman Keladi, 08000 Sungai Petani, Kedah.", "Region": "Kedah", "Category": "\u5b97\u6559", "PageNumber": 53, "Country": "Malaysia", "latitude": 5.6164019, "longitude": 100.5011797}, "geometry": {"type": "Point", "coordinates": [100.5011797, 5.6164019]}}, {"type": "Feature", "properties": {"Name_CH": "\u5c45\u6797\u4f5b\u6069\u529f\u5fb7\u4f1a", "Name_ML": "Pertubuhan Bakti Fo En Bandar Kulim Kedah", "Name_EN": null, "Location": "74 Lorong Semarak 3, Taman Semarak, 09000 Kulim, Kedah.", "Region": "Kedah", "Category": "\u5b97\u6559", "PageNumber": 53, "Country": "Malaysia", "latitude": 5.3779714, "longitude": 100.5407398}, "geometry": {"type": "Point", "coordinates": [100.5407398, 5.3779714]}}, {"type": "Feature", "properties": {"Name_CH": "\u5c45\u6797\u83e9\u63d0\u8fde\u793e", "Name_ML": "Pertubuhan Pu Ti Lian She Kulim Kedah", "Name_EN": null, "Location": "Lot 17, Lorong Sekolah Convent Jalan Bukit Awi, 09000 Kulim, Kedah.", "Region": "Kedah", "Category": "\u5b97\u6559", "PageNumber": 53, "Country": "Malaysia", "latitude": 5.3635698, "longitude": 100.5486309}, "geometry": {"type": "Point", "coordinates": [100.5486309, 5.3635698]}}, {"type": "Feature", "properties": {"Name_CH": "\u5409\u5357\u897f\u5cad\u5fb7\u6559\u4f1a\u7d2b\u5cf0\u9601", "Name_ML": null, "Name_EN": "Chee Hong Khor Moral Uplifting Society", "Location": "106-C, Jalan Raya, 09800 Serdang Kedah.", "Region": "Kedah", "Category": "\u5b97\u6559", "PageNumber": 53, "Country": "Malaysia", "latitude": 5.2399823, "longitude": 100.6421799}, "geometry": {"type": "Point", "coordinates": [100.6421799, 5.2399823]}}, {"type": "Feature", "properties": {"Name_CH": "\u52a0\u62c9\u5cb8\u6c38\u6765\u89c2\u97f3\u5e99", "Name_ML": "Persataun Penganut Dewa Eng Lai Kuan In Pekan Karangan", "Name_EN": null, "Location": "165, Pekan Karangan, 09700 Karangan, Kedah.", "Region": "Kedah", "Category": "\u5b97\u6559", "PageNumber": 53, "Country": "Malaysia", "latitude": 5.4205609, "longitude": 100.6674156}, "geometry": {"type": "Point", "coordinates": [100.6674156, 5.4205609]}}, {"type": "Feature", "properties": {"Name_CH": "\u9ebb\u5751\u5927\u4f2f\u516c\u7406\u4e8b\u4f1a", "Name_ML": "Pertubuhan Penganut Tai Pak Kong", "Name_EN": null, "Location": "Lot 908, Tepi Sungai Kerian, 09500 Karangan, Pekan Mahang, Kulim, Kedah.", "Region": "Kedah", "Category": "\u5b97\u6559", "PageNumber": 53, "Country": "Malaysia", "latitude": 5.324538, "longitude": 100.7547581}, "geometry": {"type": "Point", "coordinates": [100.7547581, 5.324538]}}, {"type": "Feature", "properties": {"Name_CH": "\u5c45\u90a6\u6148\u97f3\u4f5b\u5b66\u4f1a", "Name_ML": "Pertubuhan Buddhist Tze Yin Kupang Baling", "Name_EN": null, "Location": "99, Jalan Gadek, Kupang, Baling, Kedah.", "Region": "Kedah", "Category": "\u5b97\u6559", "PageNumber": 53, "Country": "Malaysia", "latitude": 5.6344544, "longitude": 100.8442524}, "geometry": {"type": "Point", "coordinates": [100.8442524, 5.6344544]}}, {"type": "Feature", "properties": {"Name_CH": "\u771f\u4f5b\u5b97\u6cd5\u663e\u5802", "Name_ML": "Pertubuhan Chen Fo Cong Fa Xian Tang Alor Setar Kedah", "Name_EN": null, "Location": "K-20 Rumah Kedai Perumahan Awam Mergong, 051510 Alor Setar, Kedah.", "Region": "Kedah", "Category": "\u5b97\u6559", "PageNumber": 54, "Country": "Malaysia", "latitude": 6.131662, "longitude": 100.360535}, "geometry": {"type": "Point", "coordinates": [100.360535, 6.131662]}}, {"type": "Feature", "properties": {"Name_CH": "\u4e9a\u7f57\u58eb\u6253\u9053\u5fb7\u4f1a", "Name_ML": "Pertubuhan Akhlak Tao Alor Setar", "Name_EN": null, "Location": "1A, Jalan Tokong Simpang Kuala, Alor Setar, Kedah.", "Region": "Kedah", "Category": "\u5b97\u6559", "PageNumber": 54, "Country": "Malaysia", "latitude": 6.099389, "longitude": 100.3666579}, "geometry": {"type": "Point", "coordinates": [100.3666579, 6.099389]}}, {"type": "Feature", "properties": {"Name_CH": "\u771f\u8036\u82cf\u6559\u4f1a", "Name_ML": "Gereja Jesus Benar Alor Setar Kedah", "Name_EN": null, "Location": "1073 Bee Bee Park, 05400 Alor Setar, Kedah.", "Region": "Kedah", "Category": "\u5b97\u6559", "PageNumber": 54, "Country": "Malaysia", "latitude": 6.0950762, "longitude": 100.3681182}, "geometry": {"type": "Point", "coordinates": [100.3681182, 6.0950762]}}, {"type": "Feature", "properties": {"Name_CH": "\u5143\u771f\u575b", "Name_ML": "Pertubuhan Pengajian Tao (Yen Chern)", "Name_EN": null, "Location": "1111, Lorong Pekaka, Jalan Tunku Abdul Halim, 05100 Jalan Terok Wanjau, Alor Star, Kedah.", "Region": "Kedah", "Category": "\u5b97\u6559", "PageNumber": 54, "Country": "Malaysia", "latitude": 6.127284, "longitude": 100.369515}, "geometry": {"type": "Point", "coordinates": [100.369515, 6.127284]}}, {"type": "Feature", "properties": {"Name_CH": "\u65b0\u6587\u82f1\u4f5b\u6559\u4f1a", "Name_ML": "Persatuan Agama Buddha Semeiling Kedah", "Name_EN": null, "Location": "106 Kg. Baru Semeling, 08100 Bedong, Kedah.", "Region": "Kedah", "Category": "\u5b97\u6559", "PageNumber": 54, "Country": "Malaysia", "latitude": 5.6370024, "longitude": 100.4881529}, "geometry": {"type": "Point", "coordinates": [100.4881529, 5.6370024]}}, {"type": "Feature", "properties": {"Name_CH": "\u6c34\u83b2\u5357\u65e0\u89c2\u4e16\u97f3\u83e9\u8428", "Name_ML": "Pertubuhan Penganut Ajaran Chui Lean Nam Mo Kwan Si Yin Pu Sat Sungai Petani Kedah", "Name_EN": null, "Location": "29, Taman Indah, 08000 Sungai Petani, Kedah.", "Region": "Kedah", "Category": "\u5b97\u6559", "PageNumber": 54, "Country": "Malaysia", "latitude": 5.6272189, "longitude": 100.4841628}, "geometry": {"type": "Point", "coordinates": [100.4841628, 5.6272189]}}, {"type": "Feature", "properties": {"Name_CH": "\u53cc\u6eaa\u5927\u5e74\u65b0\u8857\u573a\u65b0\u516c\u5e02\u83b1\u83dc\u5e02\u53ca\u5404\u4e1a\u5723\u738b\u516c\u7406\u4e8b\u4f1a", "Name_ML": "Persatuan Penganut Tokong Seah Ong Kong Pasar", "Name_EN": null, "Location": "84-K, Jalan Pengam, Pekan Baru, 08000 Sungai Petani, Kedah.", "Region": "Kedah", "Category": "\u5b97\u6559", "PageNumber": 54, "Country": "Malaysia", "latitude": 5.6408571, "longitude": 100.4662803}, "geometry": {"type": "Point", "coordinates": [100.4662803, 5.6408571]}}, {"type": "Feature", "properties": {"Name_CH": "\u53cc\u6eaa\u5927\u5e74\u8001\u8857\u573a\u6597\u6bcd\u5bab", "Name_ML": "Pertubuhan Penganut Tow Boo Keong Pekan Lama Sungai Petani Kedah", "Name_EN": null, "Location": "424 B, Pekan Lama, 08000 Sungai Petani, Kedah.", "Region": "Kedah", "Category": "\u5b97\u6559", "PageNumber": 54, "Country": "Malaysia", "latitude": 5.6392764, "longitude": 100.4921821}, "geometry": {"type": "Point", "coordinates": [100.4921821, 5.6392764]}}, {"type": "Feature", "properties": {"Name_CH": "\u5143\u5e05\u5bab", "Name_ML": "Pertubuhan Penganut Yuen Shuai Gong Jalan Huang Da Di", "Name_EN": null, "Location": "649, Lorong 96, Taman Ria, 08000 Sungai Petani, Kedah.", "Region": "Kedah", "Category": "\u5b97\u6559", "PageNumber": 54, "Country": "Malaysia", "latitude": 5.664497, "longitude": 100.5087509}, "geometry": {"type": "Point", "coordinates": [100.5087509, 5.664497]}}, {"type": "Feature", "properties": {"Name_CH": "\u4e09\u5df4\u592e\u4f5b\u6559\u4f1a", "Name_ML": "Persatuan Penganut Agama Buddha", "Name_EN": "Junjong Buddhist Association", "Location": "Plot 25, Lot 416, Mukim Junjong, 09000 Kulim, Kedah.", "Region": "Kedah", "Category": "\u5b97\u6559", "PageNumber": 54, "Country": "Malaysia", "latitude": 5.2997054, "longitude": 100.5370695}, "geometry": {"type": "Point", "coordinates": [100.5370695, 5.2997054]}}, {"type": "Feature", "properties": {"Name_CH": "\u771f\u4f5b\u5b97\u5317\u9a6c\u540c\u4fee\u4f1a", "Name_ML": "Pertubuhan Penganut Buddha Chen Foh Chong Kedah Selatan", "Name_EN": null, "Location": "18 Tingkat 2, Jalan Selasih, Taman Semarak, 09000 Kulim, Kedah.", "Region": "Kedah", "Category": "\u5b97\u6559", "PageNumber": 54, "Country": "Malaysia", "latitude": 5.3777893, "longitude": 100.539049}, "geometry": {"type": "Point", "coordinates": [100.539049, 5.3777893]}}, {"type": "Feature", "properties": {"Name_CH": "\u65e5\u5f97\u62c9\u7389\u7687\u5927\u5e1d\u5e99", "Name_ML": "Persatuan Penganut Dewa Gek Hong Tai Tee Kedah Utara", "Name_EN": null, "Location": "Jitra, Kedah", "Region": "Kedah", "Category": "\u5b97\u6559", "PageNumber": 54, "Country": "Malaysia", "latitude": 6.264421, "longitude": 100.420232}, "geometry": {"type": "Point", "coordinates": [100.420232, 6.264421]}}, {"type": "Feature", "properties": {"Name_CH": "\u5409\u5317\u9ad8\u5cad\u4f5b\u6559\u4f1a", "Name_ML": "Persatuan Buddhist Kodiang Kedah", "Name_EN": null, "Location": "118D, Taman Hossana, Jalan Changlua, 06100 Kodiang, Kedah.", "Region": "Kedah", "Category": "\u5b97\u6559", "PageNumber": 55, "Country": "Malaysia", "latitude": 6.3779484, "longitude": 100.3385624}, "geometry": {"type": "Point", "coordinates": [100.3385624, 6.3779484]}}, {"type": "Feature", "properties": {"Name_CH": "\u5409\u5317\u4e1a\u4f59\u4e52\u4e53\u516c\u4f1a", "Name_ML": "Persatuan Ping Pong Amatur Kedah Utara", "Name_EN": "North Kedah Amateur Table Tennis Association", "Location": "14,  Jalan Sinaran 4, Taman Sinaran, Jalan Kuala Kedah, 06600 Alor Star, Kedah.", "Region": "Kedah", "Category": "\u4f53\u80b2\u8054\u8c0a", "PageNumber": 55, "Country": "Malaysia", "latitude": 6.0980688, "longitude": 100.3425419}, "geometry": {"type": "Point", "coordinates": [100.3425419, 6.0980688]}}, {"type": "Feature", "properties": {"Name_CH": "\u5df4\u4e1c\u6614\u62c9\u5e86\u5174\u5e99", "Name_ML": "Pertubuhan Penganut Dewan Keng Heng Hong Beow Padang Sera", "Name_EN": null, "Location": "Dewan Keng Hong Beow Padang Sera, 06100 Kodiang, Kedah.", "Region": "Kedah", "Category": "\u5b97\u6559", "PageNumber": 55, "Country": "Malaysia", "latitude": 6.3565963, "longitude": 100.3389712}, "geometry": {"type": "Point", "coordinates": [100.3389712, 6.3565963]}}, {"type": "Feature", "properties": {"Name_CH": "\u5409\u5317\u7bee\u7403\u516c\u4f1a", "Name_ML": "Persatuan Bola Keranjang Kedah Utara", "Name_EN": null, "Location": "41, Taman Kristal, Kawasan Perindustrian Ringan Mergong, Sbg Jalan Putra, 05150 Alor Setar, Kedah.", "Region": "Kedah", "Category": "\u4f53\u80b2\u8054\u8c0a", "PageNumber": 55, "Country": "Malaysia", "latitude": 6.1277592, "longitude": 100.351412}, "geometry": {"type": "Point", "coordinates": [100.351412, 6.1277592]}}, {"type": "Feature", "properties": {"Name_CH": "\u5409\u5317\u827a\u672f\u534f\u4f1a", "Name_ML": "Persatuan Kesenian Kedah Utara", "Name_EN": "North Kedah Art Association", "Location": "501-A, 1st Floor, Jalan Pintu 10, 05100 Alor Star, Kedah.", "Region": "Kedah", "Category": "\u4f53\u80b2\u8054\u8c0a", "PageNumber": 55, "Country": "Malaysia", "latitude": 6.1246185, "longitude": 100.3643907}, "geometry": {"type": "Point", "coordinates": [100.3643907, 6.1246185]}}, {"type": "Feature", "properties": {"Name_CH": "\u5409\u5317\u8c61\u68cb\u516c\u4f1a", "Name_ML": "Persatuan Xiang Qi Kedah Utara", "Name_EN": null, "Location": "c/o 3-D 3rd Floor Kompleks Star Parade, 05000 Alor Star, Kedah.", "Region": "Kedah", "Category": "\u4f53\u80b2\u8054\u8c0a", "PageNumber": 55, "Country": "Malaysia", "latitude": 6.1223804, "longitude": 100.3730015}, "geometry": {"type": "Point", "coordinates": [100.3730015, 6.1223804]}}, {"type": "Feature", "properties": {"Name_CH": "\u5409\u5317\u592a\u6781\u6c14\u529f\u5341\u516b\u5f0f\u4f53\u80b2\u603b\u4f1a", "Name_ML": "Persatuan Sukan Taiji Qi Gong Kedah Utara", "Name_EN": null, "Location": "145 Taman Derga Jaya, Jalan Datok Kumbar, 08000 Kedah, ", "Region": "Kedah", "Category": "\u4f53\u80b2\u8054\u8c0a", "PageNumber": 55, "Country": "Malaysia", "latitude": 6.1221222, "longitude": 100.3834484}, "geometry": {"type": "Point", "coordinates": [100.3834484, 6.1221222]}}, {"type": "Feature", "properties": {"Name_CH": "\u7af9\u57ce\u6ca4\u5b5f\u5170\u80dc\u4f1a", "Name_ML": "Pertubuhan Khairat Kematian Kaum Cina Kota Sarang Semut MK Sla Kecil Alor Star, Kedah", "Name_EN": null, "Location": "43, Jalan Pengkalan Kapal, Kota Sarang Semut, Alor Star, Kedah. ", "Region": "Kedah", "Category": "\u5b97\u6559", "PageNumber": 55, "Country": "Malaysia", "latitude": 5.9457664, "longitude": 100.3641409}, "geometry": {"type": "Point", "coordinates": [100.3641409, 5.9457664]}}, {"type": "Feature", "properties": {"Name_CH": "\u9ad8\u62c9\u6b66\u62c9\u534e\u4eba\u4f53\u80b2\u4f1a", "Name_ML": "Kuala Muda Chinese Recreation Club Sungai Petani", "Name_EN": null, "Location": "1, Jalan Petri, 08000 Sungai Petani, Kedah.", "Region": "Kedah", "Category": "\u4f53\u80b2\u8054\u8c0a", "PageNumber": 55, "Country": "Malaysia", "latitude": 5.6401171, "longitude": 100.4865994}, "geometry": {"type": "Point", "coordinates": [100.4865994, 5.6401171]}}, {"type": "Feature", "properties": {"Name_CH": "\u5409\u6253\u9e64\u7fd4\u5e84\u6c14\u529f\u534f\u4f1a", "Name_ML": "Persatuan Hexiang Zhuang Qigong Kedah", "Name_EN": null, "Location": "739-B, Jalan Bakar Sampah,  08000 Sungai Petani, Kedah.", "Region": "Kedah", "Category": "\u4f53\u80b2\u8054\u8c0a", "PageNumber": 55, "Country": "Malaysia", "latitude": 5.6364846, "longitude": 100.4990311}, "geometry": {"type": "Point", "coordinates": [100.4990311, 5.6364846]}}, {"type": "Feature", "properties": {"Name_CH": "\u672c\u540c\u4f5b\u6559\u4f1a", "Name_ML": "Persatuan Buddhist Pendang Kedah", "Name_EN": null, "Location": "43 Jalan Titi Lama, 06700 Pendang, Kedah.", "Region": "Kedah", "Category": "\u5b97\u6559", "PageNumber": 55, "Country": "Malaysia", "latitude": 6.0072868, "longitude": 100.5746224}, "geometry": {"type": "Point", "coordinates": [100.5746224, 6.0072868]}}, {"type": "Feature", "properties": {"Name_CH": "\u5409\u6253\u5dde\u4e1a\u4f59\u6392\u7403\u603b\u4f1a", "Name_ML": "Persatuan Bola Tampar Amatur Kedah", "Name_EN": "Kedah Amateur Volleyball Association", "Location": "37-R, Seberang Jalan Putera l, 05150 Alor Setar, Kedah.", "Region": "Kedah", "Category": "\u4f53\u80b2\u8054\u8c0a", "PageNumber": 56, "Country": "Malaysia", "latitude": 6.128609, "longitude": 100.3503911}, "geometry": {"type": "Point", "coordinates": [100.3503911, 6.128609]}}, {"type": "Feature", "properties": {"Name_CH": "\u4e9a\u7f57\u58eb\u6253\u7cbe\u6b66\u4f53\u80b2\u4f1a", "Name_ML": "Persatuan Sukan Chin Woo Alor Setar", "Name_EN": null, "Location": "13, Taman Pelangi, Mergong, 05150 Alor Setar, Kedah.", "Region": "Kedah", "Category": "\u4f53\u80b2\u8054\u8c0a", "PageNumber": 56, "Country": "Malaysia", "latitude": 6.097228, "longitude": 100.3451249}, "geometry": {"type": "Point", "coordinates": [100.3451249, 6.097228]}}, {"type": "Feature", "properties": {"Name_CH": "\u540c\u4fa8\u4ff1\u4e50\u90e8", "Name_ML": "Thong Khew Ku Lok Poo", "Name_EN": null, "Location": "314, Jalan Lumpur, 05100 Alor Setar, Kedah.", "Region": "Kedah", "Category": "\u4f53\u80b2\u8054\u8c0a", "PageNumber": 56, "Country": "Malaysia", "latitude": 6.1245692, "longitude": 100.3617738}, "geometry": {"type": "Point", "coordinates": [100.3617738, 6.1245692]}}, {"type": "Feature", "properties": {"Name_CH": "\u5409\u6253\u5c11\u6797\u6b66\u672f\u9986", "Name_ML": "Persatuan Seni Mempertahankan Diri Sao Um Negeri Kedah", "Name_EN": null, "Location": "A-88, Taman Wira, Jalan Puyu 1,  Mergong, 05350 Alor Star, Kedah.", "Region": "Kedah", "Category": "\u4f53\u80b2\u8054\u8c0a", "PageNumber": 56, "Country": "Malaysia", "latitude": 6.1448779, "longitude": 100.3627175}, "geometry": {"type": "Point", "coordinates": [100.3627175, 6.1448779]}}, {"type": "Feature", "properties": {"Name_CH": "\u5409\u6253\u5dde\u592a\u6781\u6c14\u529f\u5341\u516b\u5f0f\u603b\u4f1a", "Name_ML": "Persatuan Taiji Qi Gong Bercorak 18 Negeri Kedah", "Name_EN": null, "Location": "393-C, Jalan Pintu Sepuluh, Jalan Putra, 05100 Alor Setar, Kedah.", "Region": "Kedah", "Category": "\u4f53\u80b2\u8054\u8c0a", "PageNumber": 56, "Country": "Malaysia", "latitude": 6.1262856, "longitude": 100.3651122}, "geometry": {"type": "Point", "coordinates": [100.3651122, 6.1262856]}}, {"type": "Feature", "properties": {"Name_CH": "\u5409\u6253\u96c6\u53cb\u5036\u4e50\u90e8", "Name_ML": "Pert Chip Ewe Kok Lok Por", "Name_EN": null, "Location": "28 Jalan Station, Alor Setar, Kedah.", "Region": "Kedah", "Category": "\u4f53\u80b2\u8054\u8c0a", "PageNumber": 56, "Country": "Malaysia", "latitude": 6.1831605, "longitude": 100.3746316}, "geometry": {"type": "Point", "coordinates": [100.3746316, 6.1831605]}}, {"type": "Feature", "properties": {"Name_CH": "\u5409\u6253\u4e2d\u534e\u4f53\u80b2\u4f1a", "Name_ML": "Kelab Rekreasi Orang-Orang Tiong Hua Kedah", "Name_EN": "Kedah Chinese Recreation Club", "Location": "4, Jalan Setesen, 05000 Alor Setar, Kedah.", "Region": "Kedah", "Category": "\u4f53\u80b2\u8054\u8c0a", "PageNumber": 56, "Country": "Malaysia", "latitude": 6.1167409, "longitude": 100.3705819}, "geometry": {"type": "Point", "coordinates": [100.3705819, 6.1167409]}}, {"type": "Feature", "properties": {"Name_CH": "\u5409\u5dde\u8c61\u68cb\u516c\u4f1a", "Name_ML": "Persatuan Xiang Qi Kedah", "Name_EN": null, "Location": "3D 3rd Floor Kompleks Star Parade, 05000 Alor Star, Kedah.", "Region": "Kedah", "Category": "\u4f53\u80b2\u8054\u8c0a", "PageNumber": 56, "Country": "Malaysia", "latitude": 6.1223804, "longitude": 100.3730015}, "geometry": {"type": "Point", "coordinates": [100.3730015, 6.1223804]}}, {"type": "Feature", "properties": {"Name_CH": "\u5409\u6253\u7fbd\u7403\u516c\u4f1a", "Name_ML": "Persatuan Badminton Kedah", "Name_EN": "Kedah Badminton Association", "Location": "55-D, Taman Lam Sun, Telok Wanjah, 05200 Alor Star, Kedah.", "Region": "Kedah", "Category": "\u4f53\u80b2\u8054\u8c0a", "PageNumber": 56, "Country": "Malaysia", "latitude": 6.1237694, "longitude": 100.3800989}, "geometry": {"type": "Point", "coordinates": [100.3800989, 6.1237694]}}, {"type": "Feature", "properties": {"Name_CH": "\u8054\u53cb\u56e2\u7ed3\u4f1a", "Name_ML": "Persatuan Lean Yew Sungai Petani Kedah", "Name_EN": null, "Location": "41, Tingkat 2, Jalan Kuala Ketil, Sungai Petani, Kedah.", "Region": "Kedah", "Category": "\u4f53\u80b2\u8054\u8c0a", "PageNumber": 56, "Country": "Malaysia", "latitude": 5.6356909, "longitude": 100.510239}, "geometry": {"type": "Point", "coordinates": [100.510239, 5.6356909]}}, {"type": "Feature", "properties": {"Name_CH": "\u5409\u4e2d\u8c61\u68cb\u516c\u4f1a", "Name_ML": "Persatuan Catur Cina Kedah Tengah", "Name_EN": "Central Kedah Chinese Chess Association Sungai Petani", "Location": "84 T, Jalan Pegam, Pekan Lama, 08000 Sungai Petani, Kedah.", "Region": "Kedah", "Category": "\u4f53\u80b2\u8054\u8c0a", "PageNumber": 56, "Country": "Malaysia", "latitude": 5.6386472, "longitude": 100.4938276}, "geometry": {"type": "Point", "coordinates": [100.4938276, 5.6386472]}}, {"type": "Feature", "properties": {"Name_CH": "\u5409\u5357\u534e\u4eba\u4f53\u80b2\u4f1a", "Name_ML": "Kelab Penghiburan Orang-Orang Tionghu", "Name_EN": "South Kedah Chinese Recreation Club", "Location": "11, Taman Tasik Putra, 09000 Kulim, Kedah.", "Region": "Kedah", "Category": "\u4f53\u80b2\u8054\u8c0a", "PageNumber": 56, "Country": "Malaysia", "latitude": 5.3725992, "longitude": 100.5624212}, "geometry": {"type": "Point", "coordinates": [100.5624212, 5.3725992]}}, {"type": "Feature", "properties": {"Name_CH": "\u6d6e\u7f57\u4ea4\u6021\u534e\u4eba\u4f53\u80b2\u4f1a", "Name_ML": "Kelab Rekreasi Tiong Hua Langkawi Kedah", "Name_EN": null, "Location": "217 Taman Langkawi, 07000 Langkawi, Kedah.", "Region": "Kedah", "Category": "\u4f53\u80b2\u8054\u8c0a", "PageNumber": 57, "Country": "Malaysia", "latitude": 6.333604, "longitude": 99.816106}, "geometry": {"type": "Point", "coordinates": [99.816106, 6.333604]}}, {"type": "Feature", "properties": {"Name_CH": "\u6d6e\u7f57\u4ea4\u6021\u534e\u4eba\u9ad8\u5c14\u592b\u7403\u516c\u4f1a", "Name_ML": "Persatuan Remain Golf Orang Tiong Hua Langkawi Kedah", "Name_EN": null, "Location": "10 Pekan Kuah, 07000 Langkawi, Kedah.", "Region": "Kedah", "Category": "\u4f53\u80b2\u8054\u8c0a", "PageNumber": 57, "Country": "Malaysia", "latitude": 6.3215871, "longitude": 99.8496904}, "geometry": {"type": "Point", "coordinates": [99.8496904, 6.3215871]}}, {"type": "Feature", "properties": {"Name_CH": "\u6d6e\u7f57\u4ea4\u6021\u4e2d\u534e\u4f1a\u9986", "Name_ML": "Chung Hwa Hoay Kuan Kedah", "Name_EN": null, "Location": "12 Pekan Kuah, 07000 Langkawi, Kedah.", "Region": "Kedah", "Category": "\u6148\u5584\u798f\u5229", "PageNumber": 57, "Country": "Malaysia", "latitude": 6.3186696, "longitude": 99.8513461}, "geometry": {"type": "Point", "coordinates": [99.8513461, 6.3186696]}}, {"type": "Feature", "properties": {"Name_CH": "\u5df4\u4e1c\u6614\u62c9\u4e49\u52a1\u6d88\u9632\u961f", "Name_ML": "Pasukan Bomba Sukarela Padang Sera", "Name_EN": null, "Location": "37, Padang Sera, 06100 Kodiang, Kedah.", "Region": "Kedah", "Category": "\u6148\u5584\u798f\u5229", "PageNumber": 57, "Country": "Malaysia", "latitude": 6.3565963, "longitude": 100.3389712}, "geometry": {"type": "Point", "coordinates": [100.3389712, 6.3565963]}}, {"type": "Feature", "properties": {"Name_CH": "\u9ad8\u5cad\u5e7f\u4e1c\u516c\u51a2", "Name_ML": "Persatuan Jawatankuasa Pengurusan Tanah Perkuburan Kwantung Kodiang Kedah", "Name_EN": null, "Location": "15, Taman Bahagia, Jalan Perlis, 06100 Kodiang, Kedah.", "Region": "Kedah", "Category": "\u6148\u5584\u798f\u5229", "PageNumber": 57, "Country": "Malaysia", "latitude": 6.394978, "longitude": 100.301397}, "geometry": {"type": "Point", "coordinates": [100.301397, 6.394978]}}, {"type": "Feature", "properties": {"Name_CH": "\u5409\u5317\u54e5\u6253\u58eb\u6253\u4e1a\u4f59\u6392\u7403\u516c\u4f1a", "Name_ML": "Persatuan Bola Tampar Amatur Kota Setar", "Name_EN": "Amateur Volleyball Association", "Location": "40, Taman Bunga Raya, Lorong Bunga Raya 10, 05050 Alor Star, Kedah.", "Region": "Kedah", "Category": "\u4f53\u80b2\u8054\u8c0a", "PageNumber": 57, "Country": "Malaysia", "latitude": 6.1112477, "longitude": 100.3529688}, "geometry": {"type": "Point", "coordinates": [100.3529688, 6.1112477]}}, {"type": "Feature", "properties": {"Name_CH": "\u5409\u5317\u4e1a\u4f59\u6392\u7403\u516c\u4f1a", "Name_ML": "Persatuan Bola Tampar Amatur Kedah Utara", "Name_EN": "North Kedah Amateur Volleyball Association", "Location": "211-A, Taman Berjaya, 05050 Alor Star, Kedah.", "Region": "Kedah", "Category": "\u4f53\u80b2\u8054\u8c0a", "PageNumber": 57, "Country": "Malaysia", "latitude": 6.102755, "longitude": 100.3543042}, "geometry": {"type": "Point", "coordinates": [100.3543042, 6.102755]}}, {"type": "Feature", "properties": {"Name_CH": "\u7aef\u5f71\u4e49\u52a1\u6d88\u9632\u961f", "Name_ML": "Pasokan Bomba Sukarela Pekan Tunjang Kedah", "Name_EN": null, "Location": "36, Pekan Tunjang, 06000 Jitra, Kedah.", "Region": "Kedah", "Category": "\u6148\u5584\u798f\u5229", "PageNumber": 57, "Country": "Malaysia", "latitude": 6.2868161, "longitude": 100.3744613}, "geometry": {"type": "Point", "coordinates": [100.3744613, 6.2868161]}}, {"type": "Feature", "properties": {"Name_CH": "\u6d6e\u7f57\u7389\u53ca\u6587\u66fc\u534e\u4eba\u4e49\u5c71\u7406\u4e8b\u4f1a", "Name_ML": "Jawatankuasa Perkuburan Orang-Orang Cina", "Name_EN": null, "Location": "Pulau Nyior & Gemban, Jitra, Kedah.", "Region": "Kedah", "Category": "\u6148\u5584\u798f\u5229", "PageNumber": 57, "Country": "Malaysia", "latitude": 6.277981, "longitude": 100.394258}, "geometry": {"type": "Point", "coordinates": [100.394258, 6.277981]}}, {"type": "Feature", "properties": {"Name_CH": "\u798f\u9f99\u5c71\u575f\u5c71\u5c0f\u7ec4", "Name_ML": "Persatuan Hokkien Kedah Selatan", "Name_EN": null, "Location": "291, Jalan Pasar 09000 Kulim, Kedah.", "Region": "Kedah", "Category": "\u6148\u5584\u798f\u5229", "PageNumber": 57, "Country": "Malaysia", "latitude": 5.3694705, "longitude": 100.5556366}, "geometry": {"type": "Point", "coordinates": [100.5556366, 5.3694705]}}, {"type": "Feature", "properties": {"Name_CH": "\u6ce2\u5404\u5148\u90a3\u4e92\u52a9\u4f1a", "Name_ML": "Persatuan Kebajikan Penduduk Kampung Baru Pokok Sena, Kedah", "Name_EN": null, "Location": "181-A, Lorong 4 Kiri, 06400 Pokok Sena, Kedah. ", "Region": "Kedah", "Category": "\u6148\u5584\u798f\u5229", "PageNumber": 57, "Country": "Malaysia", "latitude": 6.1423043, "longitude": 100.6674299}, "geometry": {"type": "Point", "coordinates": [100.6674299, 6.1423043]}}, {"type": "Feature", "properties": {"Name_CH": "\u798f\u6cc9\u5b89\u516c\u51a2", "Name_ML": "Perkuburan Hock Chuan An Jerlun", "Name_EN": null, "Location": "Pekan Jerlun Mk, 01150 Jerlun, Kedah.", "Region": "Kedah", "Category": "\u6148\u5584\u798f\u5229", "PageNumber": 57, "Country": "Malaysia", "latitude": 6.210399, "longitude": 100.2686299}, "geometry": {"type": "Point", "coordinates": [100.2686299, 6.210399]}}, {"type": "Feature", "properties": {"Name_CH": "\u5409\u5317\u8001\u65b0\u6e2f\u5e7f\u4e1c\u516c\u51a2\u7406\u4e8b\u4f1a", "Name_ML": "Pertubuhan Perkuburan Kwang Tung Kedah Utara", "Name_EN": null, "Location": "67, Telagar Juan, Kubang Rotan, 06250 Alor Setar, Kedah.", "Region": "Kedah", "Category": "\u6148\u5584\u798f\u5229", "PageNumber": 58, "Country": "Malaysia", "latitude": 6.13564, "longitude": 100.30198}, "geometry": {"type": "Point", "coordinates": [100.30198, 6.13564]}}, {"type": "Feature", "properties": {"Name_CH": "\u5409\u6253\u9ad8\u5cad\u798f\u5efa\u516c\u51a2\u7406\u4e8b\u4f1a", "Name_ML": "Jawatankuasa Tanah Perkuburan Hokkien Kodiang Kedah", "Name_EN": null, "Location": "99, Railway Station, 06100 Kodiang, Kedah.", "Region": "Kedah", "Category": "\u6148\u5584\u798f\u5229", "PageNumber": 58, "Country": "Malaysia", "latitude": 6.3779484, "longitude": 100.3385624}, "geometry": {"type": "Point", "coordinates": [100.3385624, 6.3779484]}}, {"type": "Feature", "properties": {"Name_CH": "\u5409\u6253\u9ad8\u5cad\u4e49\u52a1\u6d88\u9632\u961f", "Name_ML": "Pasukan Bomba Sukarela Mukim Keplu", "Name_EN": null, "Location": "99, Railway Station, 06100 Kodiang, Kedah.", "Region": "Kedah", "Category": "\u6148\u5584\u798f\u5229", "PageNumber": 58, "Country": "Malaysia", "latitude": 6.3779484, "longitude": 100.3385624}, "geometry": {"type": "Point", "coordinates": [100.3385624, 6.3779484]}}, {"type": "Feature", "properties": {"Name_CH": "\u5409\u6253\u591a\u7686\u534e\u4eba\u516c\u51a2", "Name_ML": "Tanah Perkuburan Orang-orang China Tokai", "Name_EN": null, "Location": "c/o M.C.A. Cawangan Tokai, Pekan Tokai, 06660 Alor Star, Kedah.", "Region": "Kedah", "Category": "\u6148\u5584\u798f\u5229", "PageNumber": 58, "Country": "Malaysia", "latitude": 6.0272533, "longitude": 100.412112}, "geometry": {"type": "Point", "coordinates": [100.412112, 6.0272533]}}, {"type": "Feature", "properties": {"Name_CH": "\u5409\u5317\u7682\u793c\u5c71\u534e\u4eba\u516c\u51a2\u7406\u4e8b\u4f1a", "Name_ML": "Persatuan Jawatankuasa Pengurusan Tanah Perkuburan Orang-Orang Awam Cina Bukit Choras Kedah", "Name_EN": null, "Location": "Seng Wor Ricemill, Bukit Besar, Kota Sarang Semut, 06800 Alor Star, Kedah.", "Region": "Kedah", "Category": "\u6148\u5584\u798f\u5229", "PageNumber": 58, "Country": "Malaysia", "latitude": 5.9503, "longitude": 100.40908}, "geometry": {"type": "Point", "coordinates": [100.40908, 5.9503]}}, {"type": "Feature", "properties": {"Name_CH": "\u5409\u6253\u5341\u5b57\u6e2f\u534e\u8054\u516c\u4f1a", "Name_ML": "Persatuan Kebajian Orang-orang Tionghua Simpang Kedah.", "Name_EN": null, "Location": "Dewan Tokong Kee Tian Kung, Jalan Tokai Simpang Empat, 06050 Alor Star, Kedah.", "Region": "Kedah", "Category": "\u6148\u5584\u798f\u5229", "PageNumber": 58, "Country": "Malaysia", "latitude": 6.0283397, "longitude": 100.4292749}, "geometry": {"type": "Point", "coordinates": [100.4292749, 6.0283397]}}, {"type": "Feature", "properties": {"Name_CH": "\u5409\u6253\u6ce2\u5404\u5148\u90a3\u4e49\u52a1\u6d88\u9632\u961f", "Name_ML": "Persatuan Bomba Sukarela Pokok Sena", "Name_EN": null, "Location": "Lot 47, Kg. Jalan Pahchor, 06400 Pokok Sena, Alor Star, Kedah.", "Region": "Kedah", "Category": "\u6148\u5584\u798f\u5229", "PageNumber": 58, "Country": "Malaysia", "latitude": 6.1511113, "longitude": 100.6872457}, "geometry": {"type": "Point", "coordinates": [100.6872457, 6.1511113]}}, {"type": "Feature", "properties": {"Name_CH": "\u5409\u6253\u5c45\u6797\u6c38\u7231\u4e4b\u5bb6", "Name_ML": "Persatuan Bakti Yong Ai Daerah Kulim Kedah", "Name_EN": null, "Location": "121 Lorong Semarak 1, Taman Semaeak, 09000 Kulim, Kedah.", "Region": "Kedah", "Category": "\u6148\u5584\u798f\u5229", "PageNumber": 58, "Country": "Malaysia", "latitude": 5.3786261, "longitude": 100.5422899}, "geometry": {"type": "Point", "coordinates": [100.5422899, 5.3786261]}}, {"type": "Feature", "properties": {"Name_CH": "\u534e\u8054\u516c\u4f1a\u7b2c\u4e00\u53ca\u7b2c\u4e8c\u516c\u51a2", "Name_ML": "Persatuan Hwa Lian Pendang", "Name_EN": null, "Location": "Bangunan Persatuan Hwa Lian, 06700 Pendang, Kedah.", "Region": "Kedah", "Category": "\u6148\u5584\u798f\u5229", "PageNumber": 58, "Country": "Malaysia", "latitude": 6.0072868, "longitude": 100.5746224}, "geometry": {"type": "Point", "coordinates": [100.5746224, 6.0072868]}}, {"type": "Feature", "properties": {"Name_CH": "\u74dc\u62c9\u6c11\u6d6a\u534e\u4eba\u4e49\u5c71", "Name_ML": "Perkubuhan Cina Kuala Nerang", "Name_EN": null, "Location": null, "Region": "Kedah", "Category": "\u6148\u5584\u798f\u5229", "PageNumber": 58, "Country": "Malaysia", "latitude": 0.0, "longitude": 0.0}, "geometry": {"type": "Point", "coordinates": [0.0, 0.0]}}, {"type": "Feature", "properties": {"Name_CH": "\u5409\u73bb\u6d77\u5357\u4f1a\u9986\u516c\u51a2", "Name_ML": "Tanah Kubur Persatuan Hainan Kedah / Perlis Pokok Sena Mukim Jabi Lot 1342", "Name_EN": null, "Location": null, "Region": "Kedah", "Category": "\u6148\u5584\u798f\u5229", "PageNumber": 58, "Country": "Malaysia", "latitude": 0.0, "longitude": 0.0}, "geometry": {"type": "Point", "coordinates": [0.0, 0.0]}}, {"type": "Feature", "properties": {"Name_CH": "\u5409\u6253\u83aa\u4ed1\u534e\u4eba\u516c\u51a2\u7406\u4e8b\u4f1a", "Name_ML": "Perkuburan Perkuburan Cina Gurun Kedah", "Name_EN": null, "Location": null, "Region": "Kedah", "Category": "\u6148\u5584\u798f\u5229", "PageNumber": 58, "Country": "Malaysia", "latitude": 0.0, "longitude": 0.0}, "geometry": {"type": "Point", "coordinates": [0.0, 0.0]}}, {"type": "Feature", "properties": {"Name_CH": "\u5409\u6253\u53cc\u5f04\u5e7f\u4e1c\u534e\u4eba\u516c\u51a2", "Name_ML": "Persaluon Pengurusan Tanah Perkuburan", "Name_EN": null, "Location": "150 Kuala Sanglang, Sing Cheong Chong, 06150 Kualo Sanglang, Kedah.", "Region": "Kedah", "Category": "\u6148\u5584\u798f\u5229", "PageNumber": 59, "Country": "Malaysia", "latitude": 6.2594019, "longitude": 100.1990716}, "geometry": {"type": "Point", "coordinates": [100.1990716, 6.2594019]}}, {"type": "Feature", "properties": {"Name_CH": "\u7a1c\u5e79\u793e", "Name_ML": "Leng Kan Seah", "Name_EN": null, "Location": "189, Jalan Penjara Lamaz 05000 Alor Star, Kedah.", "Region": "Kedah", "Category": "\u6148\u5584\u798f\u5229", "PageNumber": 59, "Country": "Malaysia", "latitude": 6.1177151, "longitude": 100.3636117}, "geometry": {"type": "Point", "coordinates": [100.3636117, 6.1177151]}}, {"type": "Feature", "properties": {"Name_CH": "\u5f25\u52d2\u7231\u5fc3\u4f1a", "Name_ML": "Pertubuhan Penyokong Mi Leh Aixin", "Name_EN": null, "Location": "25-A, Lorong Lintang Off Jalan Merpati, 05200 Alor Star, Kedah.", "Region": "Kedah", "Category": "\u6148\u5584\u798f\u5229", "PageNumber": 59, "Country": "Malaysia", "latitude": 6.1195905, "longitude": 100.3742192}, "geometry": {"type": "Point", "coordinates": [100.3742192, 6.1195905]}}, {"type": "Feature", "properties": {"Name_CH": "\u5409\u6253\u6b66\u5409\u69df\u6994\u5f04\u62d0\u5c71\u534e\u4eba\u516c\u51a2\u7406\u4e8b\u4f1a", "Name_ML": "Jawatankuasa Pengurus Tanah Perkuburan Orang Orang Awam Cina Bukit Pinang Kedah", "Name_EN": null, "Location": "245 Bukit Pinang, Kedah.", "Region": "Kedah", "Category": "\u6148\u5584\u798f\u5229", "PageNumber": 59, "Country": "Malaysia", "latitude": 6.192955, "longitude": 100.4227992}, "geometry": {"type": "Point", "coordinates": [100.4227992, 6.192955]}}, {"type": "Feature", "properties": {"Name_CH": "\u5409\u6253\u65b0\u6587\u82f1\u7389\u5e1d\u5bab\u534e\u4eba\u516c\u51a2\u66a8\u7bee\u7763\u516c\u7406\u4e8b\u4f1a", "Name_ML": "Rumah Berhala Yok Teh Keong Dan TanahPerkuburan", "Name_EN": null, "Location": "Awam China Serta Keramat Semeling, Kedah.", "Region": "Kedah", "Category": "\u6148\u5584\u798f\u5229", "PageNumber": 59, "Country": "Malaysia", "latitude": 5.706851, "longitude": 100.457528}, "geometry": {"type": "Point", "coordinates": [100.457528, 5.706851]}}, {"type": "Feature", "properties": {"Name_CH": "\u5409\u4e2d\u5584\u884c\u4f1a", "Name_ML": "Pertubuhan Derma Bakti Kedah Tengah", "Name_EN": null, "Location": "21, Jalan Merbok, 08000 Sungai Petani, Kedah.", "Region": "Kedah", "Category": "\u6148\u5584\u798f\u5229", "PageNumber": 59, "Country": "Malaysia", "latitude": 5.6404689, "longitude": 100.486279}, "geometry": {"type": "Point", "coordinates": [100.486279, 5.6404689]}}, {"type": "Feature", "properties": {"Name_CH": "\u660e\u4fee\u5584\u793e", "Name_ML": "Beng Slew Sean Siah", "Name_EN": null, "Location": "68, Jalan Kuala Ketil Pekan Lama, 08000 Sungai Petani, Kedah.", "Region": "Kedah", "Category": "\u6148\u5584\u798f\u5229", "PageNumber": 59, "Country": "Malaysia", "latitude": 5.6391982, "longitude": 100.4923199}, "geometry": {"type": "Point", "coordinates": [100.4923199, 5.6391982]}},