{"type": "FeatureCollection", "name": "region_10", "crs": {"type": "name", "properties": {"name": "urn:ogc:def:crs:OGC:1.3:CRS84"}}, "features": [{"type": "Feature", "properties": {"Name_CH": "\u73bb\u7483\u5e02\u6e2f\u53e3\u9c7c\u5546\u8239\u4e3b\u516c\u4f1a", "Name_ML": "Persatuan Peniaga Ikan Dan Pengusaha Bot Kuala Perlis", "Name_EN": null, "Location": "No.19, Taman Sentosa, 02000 Kuala Perlis, Perlis.", "Region": "Perlis", "Category": "\u4e1a\u7f18", "PageNumber": 37, "Country": "Malaysia", "latitude": 6.399483, "longitude": 100.1359339}, "geometry": {"type": "Point", "coordinates": [100.1359339, 6.399483]}}, {"type": "Feature", "properties": {"Name_CH": "\u73bb\u7483\u5e02\u5e7f\u4e1c\u516c\u4f1a", "Name_ML": "Persatuan Guang Dong Guan Di Miao Perlis", "Name_EN": null, "Location": "Taman Mutiara, Fasa 3, 01000 Kangar, Perlis.", "Region": "Perlis", "Category": "\u5730\u7f18", "PageNumber": 37, "Country": "Malaysia", "latitude": 6.434396, "longitude": 100.1885371}, "geometry": {"type": "Point", "coordinates": [100.1885371, 6.434396]}}, {"type": "Feature", "properties": {"Name_CH": "\u73bb\u7483\u5e02\u4e2d\u534e\u5de5\u5546\u603b\u4f1a", "Name_ML": null, "Name_EN": "Perlis Chinese Chamber of Commerce and Industry", "Location": "274, Jalan Kangar-Alor Setarjingkat 1, Taman Mutiara, 01000 Kangar, Perlis.", "Region": "Perlis", "Category": "\u4e1a\u7f18", "PageNumber": 37, "Country": "Malaysia", "latitude": 6.4361422, "longitude": 100.1886573}, "geometry": {"type": "Point", "coordinates": [100.1886573, 6.4361422]}}, {"type": "Feature", "properties": {"Name_CH": "\u73bb\u5dde\u5c0f\u8d29\u5546\u4e1a\u516c\u4f1a", "Name_ML": "Persatuan Penjaja-Penjaja & Penjual-Penjual Negeri Perlis", "Name_EN": null, "Location": "10, Jalan Jubli Perak, 01000 Kangar, Perlis.", "Region": "Perlis", "Category": "\u4e1a\u7f18", "PageNumber": 37, "Country": "Malaysia", "latitude": 6.4350982, "longitude": 100.19184}, "geometry": {"type": "Point", "coordinates": [100.19184, 6.4350982]}}, {"type": "Feature", "properties": {"Name_CH": "\u73bb\u5dde\u52a0\u57fa\u6b66\u5409\u4e2d\u534e\u516c\u4f1a", "Name_ML": "Persatuan Choong Fah Koong Pooi", "Name_EN": null, "Location": "Dewan Persatuan Choong Fah Koong Fooi 02200 Kaki Bukit Perlis.", "Region": "Perlis", "Category": "\u7efc\u5408", "PageNumber": 37, "Country": "Malaysia", "latitude": 6.7071186, "longitude": 100.1927389}, "geometry": {"type": "Point", "coordinates": [100.1927389, 6.7071186]}}, {"type": "Feature", "properties": {"Name_CH": "\u73bb\u7483\u5e02\u5dde\u534e\u4eba\u5927\u4f1a\u5802", "Name_ML": "Dewan Perhimpunan China Negeri Perlis", "Name_EN": "Perlis Chinese Assembly Hall", "Location": "30, Jalan Maju 4, Taman Kemajuan, 01000 Kangsar, Perlis.", "Region": "Perlis", "Category": "\u7efc\u5408", "PageNumber": 37, "Country": "Malaysia", "latitude": 6.4244126, "longitude": 100.2003471}, "geometry": {"type": "Point", "coordinates": [100.2003471, 6.4244126]}}, {"type": "Feature", "properties": {"Name_CH": "\u73bb\u7483\u5e02\u798f\u5efa\u4f1a\u9986", "Name_ML": "Persatuan Hokkien Perlis", "Name_EN": "Perlis Hokkien Association", "Location": "No.1, Jalan Barrack, Kangar, Perlis.", "Region": "Perlis", "Category": "\u5730\u7f18", "PageNumber": 37, "Country": "Malaysia", "latitude": 6.440633, "longitude": 100.198371}, "geometry": {"type": "Point", "coordinates": [100.198371, 6.440633]}}, {"type": "Feature", "properties": {"Name_CH": "\u5409\u73bb\u5e84\u4e25\u540c\u5b97\u4f1a", "Name_ML": "Persatuan Zhuang Yam Kedah Dan Perlis", "Name_EN": null, "Location": "No.4, Tingkat 2, Taman Selesa, Simpang Kuala, 05400 Alor Setae Kedah.", "Region": "Perlis", "Category": "\u8840\u7f18", "PageNumber": 37, "Country": "Malaysia", "latitude": 6.0961657, "longitude": 100.3640476}, "geometry": {"type": "Point", "coordinates": [100.3640476, 6.0961657]}}, {"type": "Feature", "properties": {"Name_CH": "\u73bb\u7483\u5e02\u4f5b\u5b66\u4f1a", "Name_ML": "Pertubuhan Buddist Perlis", "Name_EN": null, "Location": "1, Jalan Mutiara, Taman Mutiara, 01000 Kangar, Perlis.", "Region": "Perlis", "Category": "\u5b97\u6559", "PageNumber": 38, "Country": "Malaysia", "latitude": 6.4352217, "longitude": 100.188897}, "geometry": {"type": "Point", "coordinates": [100.188897, 6.4352217]}}, {"type": "Feature", "properties": {"Name_CH": "\u73bb\u5dde\u5fb7\u6559\u4f1a\u7d2b\u9633\u9601", "Name_ML": "Persatuan Pendidikan Akhlak Che Yang Khor", "Name_EN": "Che Yang Khor Moral Uplifting Society", "Location": "33, Pengkalan Asam, 01000 Kangar, Perlis.", "Region": "Perlis", "Category": "\u5b97\u6559", "PageNumber": 38, "Country": "Malaysia", "latitude": 6.4341697, "longitude": 100.1884518}, "geometry": {"type": "Point", "coordinates": [100.1884518, 6.4341697]}}, {"type": "Feature", "properties": {"Name_CH": "\u73bb\u7483\u5e02\u534e\u6821\u8463\u4e8b\u8054\u5408\u4f1a", "Name_ML": "Persatuan Lembaga2 Pengurus Sekolan China Perlis", "Name_EN": null, "Location": "C/O SRJK(C) Khoon Aik, Jalan Raja Syed Alwi, 01000 Kangar, Perlis.", "Region": "Perlis", "Category": "\u6587\u6559", "PageNumber": 38, "Country": "Malaysia", "latitude": 6.4293425, "longitude": 100.1966063}, "geometry": {"type": "Point", "coordinates": [100.1966063, 6.4293425]}}, {"type": "Feature", "properties": {"Name_CH": "\u7fa4\u76ca\u5b66\u6821\u6821\u53cb\u4f1a", "Name_ML": "Persatuan Murid-Murid Tua Khoon Aik", "Name_EN": null, "Location": "1, Jalan Seri Satuz Taman Perlis, 01000 Kangar, Perlis.", "Region": "Perlis", "Category": "\u6587\u6559", "PageNumber": 38, "Country": "Malaysia", "latitude": 6.4278857, "longitude": 100.1973266}, "geometry": {"type": "Point", "coordinates": [100.1973266, 6.4278857]}}, {"type": "Feature", "properties": {"Name_CH": "\u73bb\u7483\u5e02\u52a0\u592e\u771f\u7a7a\u6559\u539f\u5357\u575b", "Name_ML": "Guan Nam Tuagh Chinese Temple", "Name_EN": null, "Location": "125, Jalan Jubli Emas, Kangar, Perlis.", "Region": "Perlis", "Category": "\u5b97\u6559", "PageNumber": 38, "Country": "Malaysia", "latitude": 6.4451486, "longitude": 100.2593716}, "geometry": {"type": "Point", "coordinates": [100.2593716, 6.4451486]}}, {"type": "Feature", "properties": {"Name_CH": "\u73bb\u7483\u5e02\u534e\u6821\u6559\u5e08\u4f1a", "Name_ML": "Persatuan Guru-Guru Sekolah Cina Perlis", "Name_EN": "The Perlis Chinese School Teachers Association", "Location": "SJK(C) Kok Aik, 02500 Mata Ayer, Perlis.", "Region": "Perlis", "Category": "\u6587\u6559", "PageNumber": 38, "Country": "Malaysia", "latitude": 6.4729163, "longitude": 100.2584516}, "geometry": {"type": "Point", "coordinates": [100.2584516, 6.4729163]}}, {"type": "Feature", "properties": {"Name_CH": "\u73bb\u5dde\u4e9a\u5a04\u5e86\u5b89\u5bab", "Name_ML": "Persatuan Penganut Dewa Kheng Aun Keong", "Name_EN": null, "Location": "C-16, Jalan Syed Hussein, 02600 Arau, Perlis.", "Region": "Perlis", "Category": "\u5b97\u6559", "PageNumber": 38, "Country": "Malaysia", "latitude": 6.42649, "longitude": 100.273206}, "geometry": {"type": "Point", "coordinates": [100.273206, 6.42649]}}, {"type": "Feature", "properties": {"Name_CH": "\u534e\u76ca\u5b66\u6821\u6821\u53cb\u4f1a", "Name_ML": "Persatuan Murid-Murid Tua Hwa Aik", "Name_EN": null, "Location": "Sekolah Hwa Aik, Arauz Perlis.", "Region": "Perlis", "Category": "\u6587\u6559", "PageNumber": 38, "Country": "Malaysia", "latitude": 6.4269488, "longitude": 100.2738723}, "geometry": {"type": "Point", "coordinates": [100.2738723, 6.4269488]}}, {"type": "Feature", "properties": {"Name_CH": "\u73bb\u5dde\u83e9\u63d0\u4f5b\u6559\u4f1a", "Name_ML": "PersatuanBodhi Buddhist Perlis", "Name_EN": "Perlis Bodhi Buddhist Association", "Location": "8, Jalan Taman Sri lntan, 02600 Arauz Perlis.", "Region": "Perlis", "Category": "\u5b97\u6559", "PageNumber": 38, "Country": "Malaysia", "latitude": 6.4066666, "longitude": 100.300156}, "geometry": {"type": "Point", "coordinates": [100.300156, 6.4066666]}}, {"type": "Feature", "properties": {"Name_CH": "\u73bb\u4e2d\u6821\u53cb\u4f1a", "Name_ML": "Persatuan Murid-Murid Tua SMJK Perlis", "Name_EN": null, "Location": "2, Jalan Masjid, 02100 Padang Besar, Perlis.", "Region": "Perlis", "Category": "\u6587\u6559", "PageNumber": 38, "Country": "Malaysia", "latitude": 6.6607538, "longitude": 100.3203013}, "geometry": {"type": "Point", "coordinates": [100.3203013, 6.6607538]}}, {"type": "Feature", "properties": {"Name_CH": "\u52a0\u57fa\u6b66\u5409\u4f5b\u6559\u4f1a", "Name_ML": null, "Name_EN": "Pertubuhan Buddhis Kaki Bukit", "Location": "PT 1794, Pekan Lama, 02000 Kuala Perlis, Perlis.", "Region": "Perlis", "Category": "\u5b97\u6559", "PageNumber": 39, "Country": "Malaysia", "latitude": 6.4029751, "longitude": 100.1367166}, "geometry": {"type": "Point", "coordinates": [100.1367166, 6.4029751]}}, {"type": "Feature", "properties": {"Name_CH": "\u52a0\u592e\u6e2f\u53e3\u6c38\u5b89\u5802", "Name_ML": "Tokong Cina Eng Aun Keong", "Name_EN": null, "Location": "Batu 6 3/4, Jalan Besar, 02000 Kuala Perlis, Perlis.", "Region": "Perlis", "Category": "\u5b97\u6559", "PageNumber": 39, "Country": "Malaysia", "latitude": 6.4001926, "longitude": 100.1321494}, "geometry": {"type": "Point", "coordinates": [100.1321494, 6.4001926]}}, {"type": "Feature", "properties": {"Name_CH": "\u666e\u6d4e\u5e99", "Name_ML": "Fo Chi Mooi", "Name_EN": null, "Location": "76, Pekan Simpang Empat, 02700 Simpang Empat Perlis.", "Region": "Perlis", "Category": "\u5b97\u6559", "PageNumber": 39, "Country": "Malaysia", "latitude": 6.2980423, "longitude": 100.1367166}, "geometry": {"type": "Point", "coordinates": [100.1367166, 6.2980423]}}, {"type": "Feature", "properties": {"Name_CH": "\u53cc\u5f04\u90a3\u7763\u5e99", "Name_ML": "Dato Kong Kuala Sanglang", "Name_EN": null, "Location": "225, K Sanglang, Perlis.", "Region": "Perlis", "Category": "\u5b97\u6559", "PageNumber": 39, "Country": "Malaysia", "latitude": 6.2615932, "longitude": 100.1957322}, "geometry": {"type": "Point", "coordinates": [100.1957322, 6.2615932]}}, {"type": "Feature", "properties": {"Name_CH": "\u73bb\u7483\u5e02\u5dde\u743c\u8c0a\u793e", "Name_ML": "Kelab Kheng Yee The Perlis", "Name_EN": null, "Location": "Hotel Federel, 01000 Kangar, Perlis.", "Region": "Perlis", "Category": "\u4f53\u80b2\u8054\u8c0a", "PageNumber": 39, "Country": "Malaysia", "latitude": 6.4455726, "longitude": 100.206392}, "geometry": {"type": "Point", "coordinates": [100.206392, 6.4455726]}}, {"type": "Feature", "properties": {"Name_CH": "\u8d5e\u7f8e\u4e2d\u5fc3", "Name_ML": "Gospel Vision Consultant", "Name_EN": null, "Location": "No. 20, Jalan Cendana, Taman Kaki Bukit, 02200, Kaki Bukit Perlis.", "Region": "Perlis", "Category": "\u5b97\u6559", "PageNumber": 39, "Country": "Malaysia", "latitude": 6.643336, "longitude": 100.2124665}, "geometry": {"type": "Point", "coordinates": [100.2124665, 6.643336]}}, {"type": "Feature", "properties": {"Name_CH": "\u722a\u5937\u82ad\u9759\u5b89\u5bab\u7406\u4e8b\u4f1a", "Name_ML": "Pertubuhan Pengurusan Rumah Berhala Cheng Aun Kong, Jejawi, Perlis", "Name_EN": null, "Location": "1168, Jalan Jejawi Permatang, 02600, Arau, Perlis.", "Region": "Perlis", "Category": "\u5b97\u6559", "PageNumber": 39, "Country": "Malaysia", "latitude": 6.4068519, "longitude": 100.2267865}, "geometry": {"type": "Point", "coordinates": [100.2267865, 6.4068519]}}, {"type": "Feature", "properties": {"Name_CH": "\u5c71\u795e\u4f2f\u516c\u5e99", "Name_ML": "Tokong Cina Beseri Jaya", "Name_EN": null, "Location": "2841, Taman Beseri Jaya 02400,Perlis.", "Region": "Perlis", "Category": "\u5b97\u6559", "PageNumber": 39, "Country": "Malaysia", "latitude": 6.559489, "longitude": 100.2334792}, "geometry": {"type": "Point", "coordinates": [100.2334792, 6.559489]}}, {"type": "Feature", "properties": {"Name_CH": "\u73bb\u7483\u5e02\u7bee\u7403\u603b\u4f1a", "Name_ML": "Persatuan Bola Keranjang Negeri Perlis", "Name_EN": "Perlis Basketball Association", "Location": "158, Taman Utara, Jejawi, 02600 Arau, Perlis.", "Region": "Perlis", "Category": "\u4f53\u80b2\u8054\u8c0a", "PageNumber": 39, "Country": "Malaysia", "latitude": 6.4105653, "longitude": 100.2824483}, "geometry": {"type": "Point", "coordinates": [100.2824483, 6.4105653]}}, {"type": "Feature", "properties": {"Name_CH": "\u798f\u5fb7\u7960\uff08\u5df4\u4e1c\u52ff\u5239\uff09", "Name_ML": "Hock Teik Soo Temple", "Name_EN": null, "Location": "C/O 31, Pekan Lama, 02100 Padang Besar, Perlis.", "Region": "Perlis", "Category": "\u5b97\u6559", "PageNumber": 39, "Country": "Malaysia", "latitude": 6.6527518, "longitude": 100.2712297}, "geometry": {"type": "Point", "coordinates": [100.2712297, 6.6527518]}}, {"type": "Feature", "properties": {"Name_CH": "\u73bb\u5dde\u6e2f\u53e3\u5e7f\u4e07\u6e90\u516c\u51a2", "Name_ML": "Tanah Kubur Cho Kong Wan Teng (Orang Cina Mukim Kuala Perlis)", "Name_EN": null, "Location": "Kampung Bukit Putih 02000 Kuala Perlis, Perlis.", "Region": "Perlis", "Category": "\u6148\u5584\u798f\u5229", "PageNumber": 40, "Country": "Malaysia", "latitude": 6.4163889, "longitude": 100.1436111}, "geometry": {"type": "Point", "coordinates": [100.1436111, 6.4163889]}}, {"type": "Feature", "properties": {"Name_CH": "\u9752\u8fd0\u73bb\u5dde\u5206\u4f1a", "Name_ML": "YMM Perlis", "Name_EN": null, "Location": "18, Jalan Sarawak, 02000, Kuala Perlis, Perlis.", "Region": "Perlis", "Category": "\u9752\u5e74\u5987\u5973", "PageNumber": 40, "Country": "Malaysia", "latitude": 6.4006467, "longitude": 100.1339186}, "geometry": {"type": "Point", "coordinates": [100.1339186, 6.4006467]}}, {"type": "Feature", "properties": {"Name_CH": "\u73bb\u5dde\u5341\u5b57\u6e2f\uff0c\u65b0\u6e2f\u516c\u51a2", "Name_ML": "Kubur China (Wan On)", "Name_EN": null, "Location": "Kuala Sungai Baru 02700 Simpang Empat, Kayang, Perlis.", "Region": "Perlis", "Category": "\u6148\u5584\u798f\u5229", "PageNumber": 40, "Country": "Malaysia", "latitude": 6.334916, "longitude": 100.1659619}, "geometry": {"type": "Point", "coordinates": [100.1659619, 6.334916]}}, {"type": "Feature", "properties": {"Name_CH": "\u73bb\u7483\u5e02\u534e\u4eba\u516c\u51a2\u7406\u4e8b\u4f1a", "Name_ML": "Persatuan Perkuburan Orang-Orang Tionghwa Perlis", "Name_EN": "Perlis Chinese Public Cemetery Committee", "Location": "7, Jalan Indra Kayangan, 01000 Kangar, Perlis.", "Region": "Perlis", "Category": "\u6148\u5584\u798f\u5229", "PageNumber": 40, "Country": "Malaysia", "latitude": 6.438261, "longitude": 100.193518}, "geometry": {"type": "Point", "coordinates": [100.193518, 6.438261]}}, {"type": "Feature", "properties": {"Name_CH": "\u5409\u73bb\u5dde\u53cc\u5f04\u534e\u4eba\u516c\u51a2\u7406\u4e8b\u4f1a", "Name_ML": "JawatankuasaTanah Perkuburan Orang-Orang Kuala Sanglang, Kedah/Perlis", "Name_EN": null, "Location": "1178,1179 dan 1180 (Asal Lot 1081 & 1095) Negeri Perlis, Mukim Sanglang, Simpang Sanglang.", "Region": "Perlis", "Category": "\u6148\u5584\u798f\u5229", "PageNumber": 40, "Country": "Malaysia", "latitude": 6.282643, "longitude": 100.1982971}, "geometry": {"type": "Point", "coordinates": [100.1982971, 6.282643]}}, {"type": "Feature", "properties": {"Name_CH": "\u9752\u56e2\u8fd0\u73bb\u7483\u5e02\u5dde\u5206\u4f1a", "Name_ML": "Pertubuhan Gerakan Belia Bersatu Malaysia Bahagian Negeri Perlis", "Name_EN": null, "Location": "No.30, Jalan Maju 4, Taman Kemajuan, 01000 Kangsar, Perlis.", "Region": "Perlis", "Category": "\u9752\u5e74\u5987\u5973", "PageNumber": 40, "Country": "Malaysia", "latitude": 6.4244126, "longitude": 100.2003471}, "geometry": {"type": "Point", "coordinates": [100.2003471, 6.4244126]}}, {"type": "Feature", "properties": {"Name_CH": "\u77e5\u77e5\u4e01\u5b9c\u533a\u5c0f\u56ed\u4e3b\u5408\u4f5c\u793e", "Name_ML": "Koperasi Pekebun-Pekebun Kecil Mukim Titi Tinggi", "Name_EN": null, "Location": "115, Pekan Baru, 02200 Kaki Bukit Perlis.", "Region": "Perlis", "Category": "\u6148\u5584\u798f\u5229", "PageNumber": 40, "Country": "Malaysia", "latitude": 6.7071186, "longitude": 100.1927389}, "geometry": {"type": "Point", "coordinates": [100.1927389, 6.7071186]}}, {"type": "Feature", "properties": {"Name_CH": "\u73bb\u5dde\u52a0\u57fa\u6b66\u5409\u957f\u6c5f\u5bee\u4e49\u52a1\u6d88\u9632\u961f", "Name_ML": "Bomba Sukarela Pekan Sayur Kaki Bukit, Perlis", "Name_EN": null, "Location": "No.12, Pekan Sayur Kaki Bukit, Perlis.", "Region": "Perlis", "Category": "\u6148\u5584\u798f\u5229", "PageNumber": 40, "Country": "Malaysia", "latitude": 6.6427383, "longitude": 100.2127371}, "geometry": {"type": "Point", "coordinates": [100.2127371, 6.6427383]}}, {"type": "Feature", "properties": {"Name_CH": "\u4e07\u548c\u516c\u51a2", "Name_ML": "Perkuburan Wan Ho", "Name_EN": null, "Location": "Batu 1, Jalan Tambun Tulang, Simpang Empat, Kayang, Perlis.", "Region": "Perlis", "Category": "\u6148\u5584\u798f\u5229", "PageNumber": 40, "Country": "Malaysia", "latitude": 6.38486, "longitude": 100.2488782}, "geometry": {"type": "Point", "coordinates": [100.2488782, 6.38486]}}, {"type": "Feature", "properties": {"Name_CH": "\u4e9a\u5a04\u53ca\u65b0\u8def\u516c\u51a2", "Name_ML": "Perkuburan Cina Arau / Pauh (Awan)", "Name_EN": null, "Location": "Batu 11/2, Jalan Pauhz Kurong Anai, Perlis.", "Region": "Perlis", "Category": "\u6148\u5584\u798f\u5229", "PageNumber": 40, "Country": "Malaysia", "latitude": 6.4330463, "longitude": 100.2990516}, "geometry": {"type": "Point", "coordinates": [100.2990516, 6.4330463]}}]}