{
"type": "FeatureCollection",
"name": "region_13",
"crs": { "type": "name", "properties": { "name": "urn:ogc:def:crs:OGC:1.3:CRS84" } },
"features": [
{ "type": "Feature", "properties": { "Name_CH": "登嘉楼甘马仕海南会馆", "Name_ML": "Persatuan Hainan Kemasek Terengganu", "Name_EN": null, "Location": "8-131(K-31)Ayer Jerneh, 24210 Kemasek, Terenggun", "Region": "Terengganu", "Category": "地缘", "PageNumber": 332, "Country": "Malaysia", "latitude": 4.4066148, "longitude": 103.3961276 }, "geometry": { "type": "Point", "coordinates": [ 103.3961276, 4.4066148 ] } },
{ "type": "Feature", "properties": { "Name_CH": "登嘉楼兴安会馆", "Name_ML": "Persatuan Hin Ann Terengganu", "Name_EN": null, "Location": "6F Tingkat 4＆5, Bangunan Hin Ann, Jalan Air Jernih, 20300 Kuala Terengganu, Terengganu", "Region": "Terengganu", "Category": "地缘", "PageNumber": 332, "Country": "Malaysia", "latitude": 5.3290119, "longitude": 103.1355939 }, "geometry": { "type": "Point", "coordinates": [ 103.1355939, 5.3290119 ] } },
{ "type": "Feature", "properties": { "Name_CH": "登嘉楼海南会馆", "Name_ML": "Persatuan Hainan Terengganu", "Name_EN": null, "Location": "6 Jalan Kata, 20000 Kuala Terengganu, Terengganu", "Region": "Terengganu", "Category": "地缘", "PageNumber": 332, "Country": "Malaysia", "latitude": 5.2210673, "longitude": 103.1293705 }, "geometry": { "type": "Point", "coordinates": [ 103.1293705, 5.2210673 ] } },
{ "type": "Feature", "properties": { "Name_CH": "登嘉楼晋江会馆", "Name_ML": "Persatuan Chin Kang Terengganu", "Name_EN": null, "Location": "138-C Tingkat 1 Jalan Zainal Abidin, 20300 Kuala Terengganu, Terengganu", "Region": "Terengganu", "Category": "地缘", "PageNumber": 332, "Country": "Malaysia", "latitude": 5.3350011, "longitude": 103.1463915 }, "geometry": { "type": "Point", "coordinates": [ 103.1463915, 5.3350011 ] } },
{ "type": "Feature", "properties": { "Name_CH": "登嘉楼中华大会堂", "Name_ML": "Dewan Perhimpunan Tiong Hwa Terngganu", "Name_EN": null, "Location": "44T,Jalan Air Jernih, 20300 Kuala Terngganu, Terengganu", "Region": "Terengganu", "Category": "综合", "PageNumber": 332, "Country": "Malaysia", "latitude": 5.3272504, "longitude": 103.1353246 }, "geometry": { "type": "Point", "coordinates": [ 103.1353246, 5.3272504 ] } },
{ "type": "Feature", "properties": { "Name_CH": "登嘉楼潮州会馆", "Name_ML": "Persatuan Tech Chew Terengganu", "Name_EN": null, "Location": "91＆93, Jalan Banggol, 20100 Kuala Terengganu, Terengganu", "Region": "Terengganu", "Category": "地缘", "PageNumber": 332, "Country": "Malaysia", "latitude": 5.3311543, "longitude": 103.13525 }, "geometry": { "type": "Point", "coordinates": [ 103.13525, 5.3311543 ] } },
{ "type": "Feature", "properties": { "Name_CH": "登嘉楼广东会馆", "Name_ML": "Persatuan Kwang Tung Terengganu", "Name_EN": "Terengganu Kwang Tung Assonciation", "Location": "114, Jalan Sultan Ismail, 20200 Kuala Terengganu, Terengganu", "Region": "Terengganu", "Category": "地缘", "PageNumber": 332, "Country": "Malaysia", "latitude": 5.3283217, "longitude": 103.1438154 }, "geometry": { "type": "Point", "coordinates": [ 103.1438154, 5.3283217 ] } },
{ "type": "Feature", "properties": { "Name_CH": "登嘉楼福建会馆", "Name_ML": "Persatuan Hokkien Terngganu", "Name_EN": null, "Location": "104-A＆B Tingkat 2＆3， Jalan Sultan Ismail, 20200 Kuala Terengganu, Terengganu", "Region": "Terengganu", "Category": "地缘", "PageNumber": 332, "Country": "Malaysia", "latitude": 5.3310793, "longitude": 103.133004 }, "geometry": { "type": "Point", "coordinates": [ 103.133004, 5.3310793 ] } },
{ "type": "Feature", "properties": { "Name_CH": "登嘉楼南安会馆", "Name_ML": "Persatuan Namann Terengganu", "Name_EN": null, "Location": "235B Ground Floor, Jalan Sulan Zainal Abidin, 20000 Kuala Terengganu, Terengganu", "Region": "Terengganu", "Category": "地缘", "PageNumber": 332, "Country": "Malaysia", "latitude": 5.3353316, "longitude": 103.1461287 }, "geometry": { "type": "Point", "coordinates": [ 103.1461287, 5.3353316 ] } },
{ "type": "Feature", "properties": { "Name_CH": "北加海南会馆", "Name_ML": "Persatuan Hainan Paka", "Name_EN": null, "Location": "421 MMTP Jalan Limbong, Kuala Paka, Paka, Dungun, Terengganu", "Region": "Terengganu", "Category": "地缘", "PageNumber": 332, "Country": "Malaysia", "latitude": 4.6384604, "longitude": 103.4344323 }, "geometry": { "type": "Point", "coordinates": [ 103.4344323, 4.6384604 ] } },
{ "type": "Feature", "properties": { "Name_CH": "登嘉楼裁缝公会", "Name_ML": "Persatuan Tukang Tuang Jahit Terengganu", "Name_EN": "Terengganu Tailoring Association", "Location": "6 Jalan Kata Lama, 20000 Kuala Terengganu, Terengganu", "Region": "Terengganu", "Category": "业缘", "PageNumber": 333, "Country": "Malaysia", "latitude": 5.2210673, "longitude": 103.1293705 }, "geometry": { "type": "Point", "coordinates": [ 103.1293705, 5.2210673 ] } },
{ "type": "Feature", "properties": { "Name_CH": "登嘉楼龙岗亲义会", "Name_ML": "Pers Lung Kong Terengganu", "Name_EN": "Lung Kong Associatio Terengganu", "Location": "145 Jalan Bandar Kualar Terengganu, Terengganu", "Region": "Terengganu", "Category": "血缘", "PageNumber": 333, "Country": "Malaysia", "latitude": 5.3193917, "longitude": 103.1324157 }, "geometry": { "type": "Point", "coordinates": [ 103.1324157, 5.3193917 ] } },
{ "type": "Feature", "properties": { "Name_CH": "登嘉楼杜氏贞义祠", "Name_ML": "Persatuan Toh Si Cheng She Terengganu", "Name_EN": null, "Location": "235-C Tingkat 2, Jalan Kampong Cina, 20100 Kuala Terengganu, Terengganu", "Region": "Terengganu", "Category": "血缘", "PageNumber": 333, "Country": "Malaysia", "latitude": 5.3347743, "longitude": 103.1356311 }, "geometry": { "type": "Point", "coordinates": [ 103.1356311, 5.3347743 ] } },
{ "type": "Feature", "properties": { "Name_CH": "龙运海南会馆", "Name_ML": "Persatuan Hainan Dungun", "Name_EN": null, "Location": "50 Ti1ngkat 1, Jalan Teck Wan, Dungun, Terengganu", "Region": "Terengganu", "Category": "地缘", "PageNumber": 333, "Country": "Malaysia", "latitude": 4.7778959, "longitude": 103.423731 }, "geometry": { "type": "Point", "coordinates": [ 103.423731, 4.7778959 ] } },
{ "type": "Feature", "properties": { "Name_CH": "甘马挽海南会馆", "Name_ML": "Persatuan Hainan Kemaman", "Name_EN": null, "Location": "K-323, Tingkat Satu, Wisma Kheng Chew, Jalan Jalar,24000 Kemaman, Terengganu", "Region": "Terengganu", "Category": "地缘", "PageNumber": 333, "Country": "Malaysia", "latitude": 4.2357884, "longitude": 103.4185294 }, "geometry": { "type": "Point", "coordinates": [ 103.4185294, 4.2357884 ] } },
{ "type": "Feature", "properties": { "Name_CH": "龙运福建会馆", "Name_ML": "Persatuan Hokkien Dungun Terengganu", "Name_EN": null, "Location": "K-222 Tingkat 3, Jalan Lim Teck Guan, 23000 Dungun, Terengganu", "Region": "Terengganu", "Category": "地缘", "PageNumber": 333, "Country": "Malaysia", "latitude": 4.6450715, "longitude": 103.1279039 }, "geometry": { "type": "Point", "coordinates": [ 103.1279039, 4.6450715 ] } },
{ "type": "Feature", "properties": { "Name_CH": "甘马挽福建会馆", "Name_ML": null, "Name_EN": "The Hokkien Association", "Location": "K-328, 1st Floor, Jalan Jakar, 24000 Kemaman, Terengganu", "Region": "Terengganu", "Category": "地缘", "PageNumber": 333, "Country": "Malaysia", "latitude": 4.2236889, "longitude": 103.426684 }, "geometry": { "type": "Point", "coordinates": [ 103.426684, 4.2236889 ] } },
{ "type": "Feature", "properties": { "Name_CH": "甘马挽潮州会馆", "Name_ML": null, "Name_EN": "Kemaman Teo Chew Association", "Location": "K-97 Jalan Pasar, 24000 Kemaman, Terengganu", "Region": "Terengganu", "Category": "地缘", "PageNumber": 333, "Country": "Malaysia", "latitude": 4.2277863, "longitude": 103.4298399 }, "geometry": { "type": "Point", "coordinates": [ 103.4298399, 4.2277863 ] } },
{ "type": "Feature", "properties": { "Name_CH": "甘马挽广东会馆", "Name_ML": "Persatuan Kwang Tung Kemaman Terengganu", "Name_EN": null, "Location": "K-7334 Tingkat 1, Jalan Jakar,24000 Kemaman, Terengganu", "Region": "Terengganu", "Category": "地缘", "PageNumber": 333, "Country": "Malaysia", "latitude": 4.2201875, "longitude": 103.4246988 }, "geometry": { "type": "Point", "coordinates": [ 103.4246988, 4.2201875 ] } },
{ "type": "Feature", "properties": { "Name_CH": "勿述中华工商会", "Name_ML": "Dewan Perniagaan Dan Perindustrian Cina Kelantan", "Name_EN": "Kelantan Chinese Chamber", "Location": "73, Taman Teratur, 22000 Jerteh,  Besut, Terrengganu.", "Region": "Terengganu", "Category": "业缘", "PageNumber": 334, "Country": "Malaysia", "latitude": 5.7390638, "longitude": 102.5068597 }, "geometry": { "type": "Point", "coordinates": [ 102.5068597, 5.7390638 ] } },
{ "type": "Feature", "properties": { "Name_CH": "登嘉楼建筑商", "Name_ML": "Peratuan Pembinaan Terengganu", "Name_EN": "Kim Cho Hong Builders Guild Terengganu", "Location": "11-J, Tingkat 1-2, Jalan Kata Lama, 20000 Kuala Terengganu, Terengganu", "Region": "Terengganu", "Category": "业缘", "PageNumber": 334, "Country": "Malaysia", "latitude": 5.329624, "longitude": 103.1370142 }, "geometry": { "type": "Point", "coordinates": [ 103.1370142, 5.329624 ] } },
{ "type": "Feature", "properties": { "Name_CH": "登嘉楼华校教师公会", "Name_ML": "Persatuan Guru-Guru Cina Terengganu", "Name_EN": "Terengganu Chinese Teachers Association", "Location": "A62, Taman Tasek, Bukit Payung. 21400 Kuala Terengganu, Terengganu.", "Region": "Terengganu", "Category": "文教", "PageNumber": 334, "Country": "Malaysia", "latitude": 5.2440617, "longitude": 103.0959677 }, "geometry": { "type": "Point", "coordinates": [ 103.0959677, 5.2440617 ] } },
{ "type": "Feature", "properties": { "Name_CH": "登嘉楼中华工商总会", "Name_ML": null, "Name_EN": "Terrengganu Chiense Chamber of Commerce and Industry", "Location": "No 15, 2nd floor, Jalan Batas Bahru, 20300 Kuala Terengganu, Terenganu.", "Region": "Terengganu", "Category": "业缘", "PageNumber": 334, "Country": "Malaysia", "latitude": 5.3286531, "longitude": 103.1366313 }, "geometry": { "type": "Point", "coordinates": [ 103.1366313, 5.3286531 ] } },
{ "type": "Feature", "properties": { "Name_CH": "登嘉楼锺灵校友会", "Name_ML": null, "Name_EN": "Persatuan Alumni Chung Ling Terengganu", "Location": "69 Tingkat 3, Jalan Tok Lam, 20100 Kuala Terengganu, Terengganu.", "Region": "Terengganu", "Category": "文教", "PageNumber": 334, "Country": "Malaysia", "latitude": 5.3362374, "longitude": 103.1392811 }, "geometry": { "type": "Point", "coordinates": [ 103.1392811, 5.3362374 ] } },
{ "type": "Feature", "properties": { "Name_CH": "登嘉楼酒商公会", "Name_ML": null, "Name_EN": "Pers Terengganu Wine And Spirits Dealers Association", "Location": "22-B Tingkat 1, Jalan Kg. Dalam, 20100 Kuala Terengganu, Terengganu", "Region": "Terengganu", "Category": "业缘", "PageNumber": 334, "Country": "Malaysia", "latitude": 5.3342738, "longitude": 103.142254 }, "geometry": { "type": "Point", "coordinates": [ 103.142254, 5.3342738 ] } },
{ "type": "Feature", "properties": { "Name_CH": "龙运工商会", "Name_ML": "Dewan Perniagaan Dungun", "Name_EN": "Chinese Chamber of Commerce", "Location": "K-217 Jalan Club MCA, 23000 Dungun, Terengganu.", "Region": "Terengganu", "Category": "业缘", "PageNumber": 334, "Country": "Malaysia", "latitude": 4.6450715, "longitude": 103.1279039 }, "geometry": { "type": "Point", "coordinates": [ 103.1279039, 4.6450715 ] } },
{ "type": "Feature", "properties": { "Name_CH": "龙运五星新村校友会", "Name_ML": null, "Name_EN": "Persatuan Bekas Murid Murid SJKIC)Sin Chone Dungun", "Location": "SJK (C) Sin Chine Kg. Batu, 23000 Dungun, Terengganu.", "Region": "Terengganu", "Category": "文教", "PageNumber": 334, "Country": "Malaysia", "latitude": 4.7139713, "longitude": 103.4165386 }, "geometry": { "type": "Point", "coordinates": [ 103.4165386, 4.7139713 ] } },
{ "type": "Feature", "properties": { "Name_CH": "登嘉楼华校董联会", "Name_ML": null, "Name_EN": "Terengganu Chinese School Committee And Teachers Association", "Location": "K 121, Jalan Masjid, 24000 Kemaman, Terengganu.", "Region": "Terengganu", "Category": "文教", "PageNumber": 334, "Country": "Malaysia", "latitude": 4.3165347, "longitude": 103.2326565 }, "geometry": { "type": "Point", "coordinates": [ 103.2326565, 4.3165347 ] } },
{ "type": "Feature", "properties": { "Name_CH": "龙运光华校友会", "Name_ML": null, "Name_EN": "Kwang Hwa School Old Boys Association Dungun", "Location": "Kwang Hwa Jalan Tamb, 23000 Dungun, Terengganu.", "Region": "Terengganu", "Category": "文教", "PageNumber": 334, "Country": "Malaysia", "latitude": 4.7765409, "longitude": 103.4242717 }, "geometry": { "type": "Point", "coordinates": [ 103.4242717, 4.7765409 ] } },
{ "type": "Feature", "properties": { "Name_CH": "吉利地中华商会", "Name_ML": "Dewan Perhimpunan Cina Kerteh Kemaman Terengganu", "Name_EN": null, "Location": "494-1 Kg. Tengah, 24300 Kerteh, Kemaman, Terengganu.", "Region": "Terengganu", "Category": "业缘", "PageNumber": 334, "Country": "Malaysia", "latitude": 4.512228, "longitude": 103.440249 }, "geometry": { "type": "Point", "coordinates": [ 103.440249, 4.512228 ] } },
{ "type": "Feature", "properties": { "Name_CH": "甘马仕佛教会", "Name_ML": "Persatuan Penganut Agama Buddha Ayer Erneh Kemasek Terengganu", "Name_EN": null, "Location": "K-879 Jerneh, 24210 Kemasek, Terengganu.", "Region": "Terengganu", "Category": "宗教", "PageNumber": 335, "Country": "Malaysia", "latitude": 4.4181497, "longitude": 103.4280586 }, "geometry": { "type": "Point", "coordinates": [ 103.4280586, 4.4181497 ] } },
{ "type": "Feature", "properties": { "Name_CH": "甘马挽永安宫", "Name_ML": "Majlis Yong An Kong Kemaman", "Name_EN": "Terengganu Tong Kong Yang An Kong", "Location": "Lot 240 Jalan Che, Kemaman, Terengganu.", "Region": "Terengganu", "Category": "宗教", "PageNumber": 335, "Country": "Malaysia", "latitude": 4.2338358, "longitude": 103.3638015 }, "geometry": { "type": "Point", "coordinates": [ 103.3638015, 4.2338358 ] } },
{ "type": "Feature", "properties": { "Name_CH": "大马日莲本门正宗佛教会", "Name_ML": "Persatuan Agama Buddha Nichiren Shoshu Terengganu", "Name_EN": null, "Location": "14 Lot 9278, Taman Mewah, Binjai Rendah Dah Jalan Kuala Berang, 21400 Marang, Terengganu.", "Region": "Terengganu", "Category": "宗教", "PageNumber": 335, "Country": "Malaysia", "latitude": 5.2032946, "longitude": 103.1027821 }, "geometry": { "type": "Point", "coordinates": [ 103.1027821, 5.2032946 ] } },
{ "type": "Feature", "properties": { "Name_CH": "华佳达拜佛教会", "Name_ML": "Persatuan Penganut Agama Buddha Wakaf Tapai", "Name_EN": "Wakaf Tapas Buddhist Association", "Location": "234 Taman Istiwa, Jalan Kuala Berang, 21040 Wokaf Tapai, Terengganu.", "Region": "Terengganu", "Category": "宗教", "PageNumber": 335, "Country": "Malaysia", "latitude": 5.1281146, "longitude": 103.0855504 }, "geometry": { "type": "Point", "coordinates": [ 103.0855504, 5.1281146 ] } },
{ "type": "Feature", "properties": { "Name_CH": "登嘉楼三保公庙", "Name_ML": "Jawatankuasa Pengurusan Tokong Sam Kong Jeram Hulu Nerus Kuala Terengganu", "Name_EN": null, "Location": "C\/O Dewaan Perhimpunan Tiong Hua, Kuala Tre 15, Tingkat 2, Jalan Baras Baru, Kalar Terengganu, Terengganu.", "Region": "Terengganu", "Category": "宗教", "PageNumber": 335, "Country": "Malaysia", "latitude": 5.3116916, "longitude": 103.1324154 }, "geometry": { "type": "Point", "coordinates": [ 103.1324154, 5.3116916 ] } },
{ "type": "Feature", "properties": { "Name_CH": "登嘉楼佛教会", "Name_ML": "Persatuan Pengganut-Penganut Buddha Terengganu", "Name_EN": "Terengganu Buddhist Association", "Location": "80-81, Jalan Syed Zain, 20300 Kuala Terengganu, Terengganu.", "Region": "Terengganu", "Category": "宗教", "PageNumber": 335, "Country": "Malaysia", "latitude": 5.3258713, "longitude": 103.1336073 }, "geometry": { "type": "Point", "coordinates": [ 103.1336073, 5.3258713 ] } },
{ "type": "Feature", "properties": { "Name_CH": "甘榜忠关帝坛", "Name_ML": "Pers Penyokong Kuil Kwan Tee Than Kampung Tiong Kuala Terengganu", "Name_EN": null, "Location": "171 Kampong Tiong, 20100 Kuala Terengganu, Terengganu.", "Region": "Terengganu", "Category": "宗教", "PageNumber": 335, "Country": "Malaysia", "latitude": 5.3324287, "longitude": 103.1337764 }, "geometry": { "type": "Point", "coordinates": [ 103.1337764, 5.3324287 ] } },
{ "type": "Feature", "properties": { "Name_CH": "登嘉楼真佛宗同修会", "Name_ML": "Persatuan Pengganut Agama Buddha Chan Foh Chong Kuala Terengganu", "Name_EN": null, "Location": "30-C Tingkat 2, Jalan Hiliran, 20300 Kuala Terengganu, Terengganu.", "Region": "Terengganu", "Category": "宗教", "PageNumber": 335, "Country": "Malaysia", "latitude": 5.3211252, "longitude": 103.1299734 }, "geometry": { "type": "Point", "coordinates": [ 103.1299734, 5.3211252 ] } },
{ "type": "Feature", "properties": { "Name_CH": "登嘉楼德教会紫乎阁", "Name_ML": null, "Name_EN": "Che Hoo Khor Moral Uplifting Society", "Location": "37, Jalan Sultan Zainal Abidin, 20000 Kuala Terengganu, Terengganu.", "Region": "Terengganu", "Category": "宗教", "PageNumber": 335, "Country": "Malaysia", "latitude": 5.3369307, "longitude": 103.1400765 }, "geometry": { "type": "Point", "coordinates": [ 103.1400765, 5.3369307 ] } },
{ "type": "Feature", "properties": { "Name_CH": "甘马挽威灵坛", "Name_ML": "Persatuan Kebajikan Wei Lin Tong Kemaman, Terengganu", "Name_EN": null, "Location": "Lot 3701 Kg. Fikri, 24000 Kemaman, Terengganu.", "Region": "Terengganu", "Category": "宗教", "PageNumber": 335, "Country": "Malaysia", "latitude": 4.2039268, "longitude": 103.4339247 }, "geometry": { "type": "Point", "coordinates": [ 103.4339247, 4.2039268 ] } },
{ "type": "Feature", "properties": { "Name_CH": "甘榜挽孔孟圣道", "Name_ML": "Pers Penyokong Kong Mengs Sheng Dao Terengganu", "Name_EN": null, "Location": "K-85 Tinggkat 1＆2, Jalan Jakar, 24000 Kemaman, Terengganu.", "Region": "Terengganu", "Category": "宗教", "PageNumber": 335, "Country": "Malaysia", "latitude": 4.2201875, "longitude": 103.4246988 }, "geometry": { "type": "Point", "coordinates": [ 103.4246988, 4.2201875 ] } },
{ "type": "Feature", "properties": { "Name_CH": "日底佛教会", "Name_ML": "Persatuan Pengganut Agama Buddha Jerteh Terengganu", "Name_EN": null, "Location": "Lot 158, Tingkat 2, Jalan Pasir Akar, 22000 Jerteh, Terengganu.", "Region": "Terengganu", "Category": "宗教", "PageNumber": 336, "Country": "Malaysia", "latitude": 5.7358489, "longitude": 102.4930906 }, "geometry": { "type": "Point", "coordinates": [ 102.4930906, 5.7358489 ] } },
{ "type": "Feature", "properties": { "Name_CH": "南海飞来观音宫", "Name_ML": "Jawatankuasa Pengurusan Tokong Yuan Yim(Kuan Yim Kong) Kuala Terengganu", "Name_EN": null, "Location": "235-D, Tingkat 1, Jalan Bandar, 20100 Kuala Terengganu, Terengganu.", "Region": "Terengganu", "Category": "宗教", "PageNumber": 336, "Country": "Malaysia", "latitude": 5.3205837, "longitude": 103.1310875 }, "geometry": { "type": "Point", "coordinates": [ 103.1310875, 5.3205837 ] } },
{ "type": "Feature", "properties": { "Name_CH": "日底关帝坛", "Name_ML": "Persatuan Pengganut Buddha Kuan Tay Toa Jerteh Terengganu", "Name_EN": null, "Location": "53 Taman Teratur, 22000 Jerteh, Terengganu.", "Region": "Terengganu", "Category": "宗教", "PageNumber": 336, "Country": "Malaysia", "latitude": 5.7390638, "longitude": 102.5068597 }, "geometry": { "type": "Point", "coordinates": [ 102.5068597, 5.7390638 ] } },
{ "type": "Feature", "properties": { "Name_CH": "蒲莱新村水月宫", "Name_ML": "Persatuan Penganut Agama Buddha Shui Yue Gong Tepoh Kuala Terengganu", "Name_EN": null, "Location": "Lot 5796 Kg. Pulai Baru, 21080 Kuala Terengganu, Terengganu", "Region": "Terengganu", "Category": "宗教", "PageNumber": 336, "Country": "Malaysia", "latitude": 5.3739293, "longitude": 103.058952 }, "geometry": { "type": "Point", "coordinates": [ 103.058952, 5.3739293 ] } },
{ "type": "Feature", "properties": { "Name_CH": "智莪广译尊王庙", "Name_ML": "Tokong Kong Teck Choon Ong", "Name_EN": "Kong Tech Choon Ong Temple", "Location": "Kg. Tirok Serada, Kuala Terengganu, Terengganu.", "Region": "Terengganu", "Category": "宗教", "PageNumber": 336, "Country": "Malaysia", "latitude": 5.213875, "longitude": 103.0412279 }, "geometry": { "type": "Point", "coordinates": [ 103.0412279, 5.213875 ] } },
{ "type": "Feature", "properties": { "Name_CH": "龙运佛教会", "Name_ML": "Persatuan Penganut Agama Buddha Dungun", "Name_EN": null, "Location": "Rumah Berhala Hong Tien Tiang, Jalan Bijangga Kuala Dungun, 23000 Dungun, Terengganu.", "Region": "Terengganu", "Category": "宗教", "PageNumber": 336, "Country": "Malaysia", "latitude": 4.77834, "longitude": 103.42165 }, "geometry": { "type": "Point", "coordinates": [ 103.42165, 4.77834 ] } },
{ "type": "Feature", "properties": { "Name_CH": "济善坛", "Name_ML": "Persatuan Penganut Buddha Ci San Tan Terengganu", "Name_EN": null, "Location": "219-A, Lorong 4, Bandar Baru Pulau Kambing, 20300 Kuala Terengganu, Terengganu", "Region": "Terengganu", "Category": "宗教", "PageNumber": 336, "Country": "Malaysia", "latitude": 5.3199687, "longitude": 103.1308841 }, "geometry": { "type": "Point", "coordinates": [ 103.1308841, 5.3199687 ] } },
{ "type": "Feature", "properties": { "Name_CH": "济仙坛", "Name_ML": "Persatuan Penganut Buddha Chee Sian Thang Terengganu", "Name_EN": null, "Location": "88, Jalan Balik, 23000 Kuala Terengganu, Terengganu", "Region": "Terengganu", "Category": "宗教", "PageNumber": 336, "Country": "Malaysia", "latitude": 5.326074, "longitude": 103.1324597 }, "geometry": { "type": "Point", "coordinates": [ 103.1324597, 5.326074 ] } },
{ "type": "Feature", "properties": { "Name_CH": "五里新村三太子庙", "Name_ML": "Jawatankuasa Pengurusan Rumah Berhala Sam Thai Tze Kampong Batu 5 Dungun Terengganu", "Name_EN": null, "Location": "Rumah Berhala Sam Thai Tze Kg. Batu 5, 23000 Dungun, Terengganu.", "Region": "Terengganu", "Category": "宗教", "PageNumber": 336, "Country": "Malaysia", "latitude": 4.7180257, "longitude": 103.4209126 }, "geometry": { "type": "Point", "coordinates": [ 103.4209126, 4.7180257 ] } },
{ "type": "Feature", "properties": { "Name_CH": "龙运北加佛教会", "Name_ML": "Persatuan Penganut-Penganut Buddha Paka, Dungun Terengganu", "Name_EN": null, "Location": "MDD. 1009 Jalan Limbong Paka, 23000 Dungun, Terengganu.", "Region": "Terengganu", "Category": "宗教", "PageNumber": 336, "Country": "Malaysia", "latitude": 4.6384604, "longitude": 103.4344323 }, "geometry": { "type": "Point", "coordinates": [ 103.4344323, 4.6384604 ] } },
{ "type": "Feature", "properties": { "Name_CH": "登嘉楼中华体育会", "Name_ML": null, "Name_EN": "Terengganu Chinese Recreation Club", "Location": "136-2\/1 Jalan Air Jernih, 20300 Kuala Terengganu, Terengganu.", "Region": "Terengganu", "Category": "体育联谊", "PageNumber": 337, "Country": "Malaysia", "latitude": 5.3290206, "longitude": 103.1354153 }, "geometry": { "type": "Point", "coordinates": [ 103.1354153, 5.3290206 ] } },
{ "type": "Feature", "properties": { "Name_CH": "登嘉楼中华依斯兰教福利协会", "Name_ML": "Persatuan Kebajikan Islam Tiong Hua Terengganu", "Name_EN": null, "Location": "237-B Tingkat 3, Jalan Sultan Zainal Abidin, 20000 Kuala Terengganu, Terengganu.", "Region": "Terengganu", "Category": "慈善福利", "PageNumber": 337, "Country": "Malaysia", "latitude": 5.335857, "longitude": 103.1359927 }, "geometry": { "type": "Point", "coordinates": [ 103.1359927, 5.335857 ] } },
{ "type": "Feature", "properties": { "Name_CH": "瓜丁中华足球协会", "Name_ML": "Persatuan Bolasepak Tiong Hua Bandar Kualar Terengganu", "Name_EN": null, "Location": "61-B Mezzanine Floor, Jalan Tok Lam, 20300 Kuala Terengganu, Terengganu.", "Region": "Terengganu", "Category": "体育联谊", "PageNumber": 337, "Country": "Malaysia", "latitude": 5.3302031, "longitude": 103.1381521 }, "geometry": { "type": "Point", "coordinates": [ 103.1381521, 5.3302031 ] } },
{ "type": "Feature", "properties": { "Name_CH": "登嘉楼华人义山公会", "Name_ML": "Pertubuhan Perkuburan Cina Terengganu", "Name_EN": null, "Location": "59-G, Tingkat 2, Jalan Tok Lam, 20100 Kuala Terengganu, Terengganu.", "Region": "Terengganu", "Category": "慈善福利", "PageNumber": 337, "Country": "Malaysia", "latitude": 5.3362378, "longitude": 103.1392812 }, "geometry": { "type": "Point", "coordinates": [ 103.1392812, 5.3362378 ] } },
{ "type": "Feature", "properties": { "Name_CH": "登嘉楼勿述县中华义山公会", "Name_ML": "Pertubuhan Perkuburan Tiang Hua Daerah Besut Terengganu", "Name_EN": null, "Location": "d\/a Wisma MCA Bahagian Besut, Tingkat 3, 59-E, Jalan Besar, 22000 Jerteh, Terengganu.", "Region": "Terengganu", "Category": "慈善福利", "PageNumber": 337, "Country": "Malaysia", "latitude": 5.8275017, "longitude": 102.5538404 }, "geometry": { "type": "Point", "coordinates": [ 102.5538404, 5.8275017 ] } },
{ "type": "Feature", "properties": { "Name_CH": "龙运工余俱乐部", "Name_ML": "Kong Ee Recreation Club Dungun", "Name_EN": null, "Location": "K-217 Jalan Club MCA, 23000 Dungun, Terengganu.", "Region": "Terengganu", "Category": "体育联谊", "PageNumber": 337, "Country": "Malaysia", "latitude": 4.6450715, "longitude": 103.1279039 }, "geometry": { "type": "Point", "coordinates": [ 103.1279039, 4.6450715 ] } },
{ "type": "Feature", "properties": { "Name_CH": "甘马挽醒狮团", "Name_ML": "Kela Tarian Singa Kemaman Terengganu", "Name_EN": null, "Location": "2816 Taman Itafah, Jalan Jakar, 24000 Kemaman, Terengganu.", "Region": "Terengganu", "Category": "体育联谊", "PageNumber": 337, "Country": "Malaysia", "latitude": 4.23273, "longitude": 103.4152351 }, "geometry": { "type": "Point", "coordinates": [ 103.4152351, 4.23273 ] } },
{ "type": "Feature", "properties": { "Name_CH": "北加中华义山", "Name_ML": "Pertubuhan Perkuburan Chung Hwa Paka", "Name_EN": null, "Location": "Lot 2700, 1 km, Jalan Santong, 23100 Paka, Terengganu.", "Region": "Terengganu", "Category": "慈善福利", "PageNumber": 337, "Country": "Malaysia", "latitude": 4.6243185, "longitude": 103.4294231 }, "geometry": { "type": "Point", "coordinates": [ 103.4294231, 4.6243185 ] } },
{ "type": "Feature", "properties": { "Name_CH": "甘马挽工余俱乐部", "Name_ML": "Kelab Kemaman Terengganu", "Name_EN": null, "Location": "K-335 Tingkat 1, Jalan Jalar, 24000 Kemaman, Terengganu.", "Region": "Terengganu", "Category": "体育联谊", "PageNumber": 337, "Country": "Malaysia", "latitude": 4.220188, "longitude": 103.42699 }, "geometry": { "type": "Point", "coordinates": [ 103.42699, 4.220188 ] } },
{ "type": "Feature", "properties": { "Name_CH": "登嘉楼雪泥亭义山", "Name_ML": "Shueh Ni Ting Cemetery", "Name_EN": null, "Location": "No.6, Jalan Kuta, 20000 Kuala Terengganu, Terengganu.", "Region": "Terengganu", "Category": "慈善福利", "PageNumber": 337, "Country": "Malaysia", "latitude": 5.2210673, "longitude": 103.1293705 }, "geometry": { "type": "Point", "coordinates": [ 103.1293705, 5.2210673 ] } },
{ "type": "Feature", "properties": { "Name_CH": "武吉光华人义山", "Name_ML": "Perkuburan Cina Bukit Kuang", "Name_EN": null, "Location": "Lembaga Pengurus SJKC Chukai, 24000 Kemamanm, Terengganu.", "Region": "Terengganu", "Category": "慈善福利", "PageNumber": 338, "Country": "Malaysia", "latitude": 4.2263735, "longitude": 103.4274334 }, "geometry": { "type": "Point", "coordinates": [ 103.4274334, 4.2263735 ] } },
{ "type": "Feature", "properties": { "Name_CH": "华加打北华人义山", "Name_ML": "Perkuburan Tiong Hwa Wakaf Tapai", "Name_EN": null, "Location": "264, Taman Istiwa, Wakaf Tapai, 21040 Marang, Terengganu.", "Region": "Terengganu", "Category": "慈善福利", "PageNumber": 338, "Country": "Malaysia", "latitude": 5.142961, "longitude": 103.0869742 }, "geometry": { "type": "Point", "coordinates": [ 103.0869742, 5.142961 ] } },
{ "type": "Feature", "properties": { "Name_CH": "龙运华人义山公会", "Name_ML": "Jawatankuasa Pengkebumian Kaum Tiong Hua Dungun Terengganu", "Name_EN": null, "Location": "K-217 Jalan Kelab MCA, 23000 Dungun, Terengganu.", "Region": "Terengganu", "Category": "慈善福利", "PageNumber": 338, "Country": "Malaysia", "latitude": 4.7766415, "longitude": 103.4250123 }, "geometry": { "type": "Point", "coordinates": [ 103.4250123, 4.7766415 ] } },
{ "type": "Feature", "properties": { "Name_CH": "日底中华义山公会", "Name_ML": "Pertubuhan Perkubeh,Uran Tiong Hua Jerteh, Besuf Terengganu", "Name_EN": null, "Location": "59-E, Wisma MCA Bahagian Besut, Tingkat 3, Jalan Besar, 22000 Jerteh, Terengganu.", "Region": "Terengganu", "Category": "慈善福利", "PageNumber": 338, "Country": "Malaysia", "latitude": 5.8275017, "longitude": 102.5538404 }, "geometry": { "type": "Point", "coordinates": [ 102.5538404, 5.8275017 ] } }
]
}
