{
"type": "FeatureCollection",
"name": "region_10",
"crs": { "type": "name", "properties": { "name": "urn:ogc:def:crs:OGC:1.3:CRS84" } },
"features": [
{ "type": "Feature", "properties": { "Name_CH": "玻璃市港口鱼商船主公会", "Name_ML": "Persatuan Peniaga Ikan Dan Pengusaha Bot Kuala Perlis", "Name_EN": null, "Location": "No.19, Taman Sentosa, 02000 Kuala Perlis, Perlis.", "Region": "Perlis", "Category": "业缘", "PageNumber": 37, "Country": "Malaysia", "latitude": 6.399483, "longitude": 100.1359339 }, "geometry": { "type": "Point", "coordinates": [ 100.1359339, 6.399483 ] } },
{ "type": "Feature", "properties": { "Name_CH": "玻璃市广东公会", "Name_ML": "Persatuan Guang Dong Guan Di Miao Perlis", "Name_EN": null, "Location": "Taman Mutiara, Fasa 3, 01000 Kangar, Perlis.", "Region": "Perlis", "Category": "地缘", "PageNumber": 37, "Country": "Malaysia", "latitude": 6.434396, "longitude": 100.1885371 }, "geometry": { "type": "Point", "coordinates": [ 100.1885371, 6.434396 ] } },
{ "type": "Feature", "properties": { "Name_CH": "玻璃市中华工商总会", "Name_ML": null, "Name_EN": "Perlis Chinese Chamber of Commerce and Industry", "Location": "274, Jalan Kangar-Alor Setarjingkat 1, Taman Mutiara, 01000 Kangar, Perlis.", "Region": "Perlis", "Category": "业缘", "PageNumber": 37, "Country": "Malaysia", "latitude": 6.4361422, "longitude": 100.1886573 }, "geometry": { "type": "Point", "coordinates": [ 100.1886573, 6.4361422 ] } },
{ "type": "Feature", "properties": { "Name_CH": "玻州小贩商业公会", "Name_ML": "Persatuan Penjaja-Penjaja & Penjual-Penjual Negeri Perlis", "Name_EN": null, "Location": "10, Jalan Jubli Perak, 01000 Kangar, Perlis.", "Region": "Perlis", "Category": "业缘", "PageNumber": 37, "Country": "Malaysia", "latitude": 6.4350982, "longitude": 100.19184 }, "geometry": { "type": "Point", "coordinates": [ 100.19184, 6.4350982 ] } },
{ "type": "Feature", "properties": { "Name_CH": "玻州加基武吉中华公会", "Name_ML": "Persatuan Choong Fah Koong Pooi", "Name_EN": null, "Location": "Dewan Persatuan Choong Fah Koong Fooi 02200 Kaki Bukit Perlis.", "Region": "Perlis", "Category": "综合", "PageNumber": 37, "Country": "Malaysia", "latitude": 6.7071186, "longitude": 100.1927389 }, "geometry": { "type": "Point", "coordinates": [ 100.1927389, 6.7071186 ] } },
{ "type": "Feature", "properties": { "Name_CH": "玻璃市州华人大会堂", "Name_ML": "Dewan Perhimpunan China Negeri Perlis", "Name_EN": "Perlis Chinese Assembly Hall", "Location": "30, Jalan Maju 4, Taman Kemajuan, 01000 Kangsar, Perlis.", "Region": "Perlis", "Category": "综合", "PageNumber": 37, "Country": "Malaysia", "latitude": 6.4244126, "longitude": 100.2003471 }, "geometry": { "type": "Point", "coordinates": [ 100.2003471, 6.4244126 ] } },
{ "type": "Feature", "properties": { "Name_CH": "玻璃市福建会馆", "Name_ML": "Persatuan Hokkien Perlis", "Name_EN": "Perlis Hokkien Association", "Location": "No.1, Jalan Barrack, Kangar, Perlis.", "Region": "Perlis", "Category": "地缘", "PageNumber": 37, "Country": "Malaysia", "latitude": 6.440633, "longitude": 100.198371 }, "geometry": { "type": "Point", "coordinates": [ 100.198371, 6.440633 ] } },
{ "type": "Feature", "properties": { "Name_CH": "吉玻庄严同宗会", "Name_ML": "Persatuan Zhuang Yam Kedah Dan Perlis", "Name_EN": null, "Location": "No.4, Tingkat 2, Taman Selesa, Simpang Kuala, 05400 Alor Setae Kedah.", "Region": "Perlis", "Category": "血缘", "PageNumber": 37, "Country": "Malaysia", "latitude": 6.0961657, "longitude": 100.3640476 }, "geometry": { "type": "Point", "coordinates": [ 100.3640476, 6.0961657 ] } },
{ "type": "Feature", "properties": { "Name_CH": "玻璃市佛学会", "Name_ML": "Pertubuhan Buddist Perlis", "Name_EN": null, "Location": "1, Jalan Mutiara, Taman Mutiara, 01000 Kangar, Perlis.", "Region": "Perlis", "Category": "宗教", "PageNumber": 38, "Country": "Malaysia", "latitude": 6.4352217, "longitude": 100.188897 }, "geometry": { "type": "Point", "coordinates": [ 100.188897, 6.4352217 ] } },
{ "type": "Feature", "properties": { "Name_CH": "玻州德教会紫阳阁", "Name_ML": "Persatuan Pendidikan Akhlak Che Yang Khor", "Name_EN": "Che Yang Khor Moral Uplifting Society", "Location": "33, Pengkalan Asam, 01000 Kangar, Perlis.", "Region": "Perlis", "Category": "宗教", "PageNumber": 38, "Country": "Malaysia", "latitude": 6.4341697, "longitude": 100.1884518 }, "geometry": { "type": "Point", "coordinates": [ 100.1884518, 6.4341697 ] } },
{ "type": "Feature", "properties": { "Name_CH": "玻璃市华校董事联合会", "Name_ML": "Persatuan Lembaga2 Pengurus Sekolan China Perlis", "Name_EN": null, "Location": "C\/O SRJK(C) Khoon Aik, Jalan Raja Syed Alwi, 01000 Kangar, Perlis.", "Region": "Perlis", "Category": "文教", "PageNumber": 38, "Country": "Malaysia", "latitude": 6.4293425, "longitude": 100.1966063 }, "geometry": { "type": "Point", "coordinates": [ 100.1966063, 6.4293425 ] } },
{ "type": "Feature", "properties": { "Name_CH": "群益学校校友会", "Name_ML": "Persatuan Murid-Murid Tua Khoon Aik", "Name_EN": null, "Location": "1, Jalan Seri Satuz Taman Perlis, 01000 Kangar, Perlis.", "Region": "Perlis", "Category": "文教", "PageNumber": 38, "Country": "Malaysia", "latitude": 6.4278857, "longitude": 100.1973266 }, "geometry": { "type": "Point", "coordinates": [ 100.1973266, 6.4278857 ] } },
{ "type": "Feature", "properties": { "Name_CH": "玻璃市加央真空教原南坛", "Name_ML": "Guan Nam Tuagh Chinese Temple", "Name_EN": null, "Location": "125, Jalan Jubli Emas, Kangar, Perlis.", "Region": "Perlis", "Category": "宗教", "PageNumber": 38, "Country": "Malaysia", "latitude": 6.4451486, "longitude": 100.2593716 }, "geometry": { "type": "Point", "coordinates": [ 100.2593716, 6.4451486 ] } },
{ "type": "Feature", "properties": { "Name_CH": "玻璃市华校教师会", "Name_ML": "Persatuan Guru-Guru Sekolah Cina Perlis", "Name_EN": "The Perlis Chinese School Teachers Association", "Location": "SJK(C) Kok Aik, 02500 Mata Ayer, Perlis.", "Region": "Perlis", "Category": "文教", "PageNumber": 38, "Country": "Malaysia", "latitude": 6.4729163, "longitude": 100.2584516 }, "geometry": { "type": "Point", "coordinates": [ 100.2584516, 6.4729163 ] } },
{ "type": "Feature", "properties": { "Name_CH": "玻州亚娄庆安宫", "Name_ML": "Persatuan Penganut Dewa Kheng Aun Keong", "Name_EN": null, "Location": "C-16, Jalan Syed Hussein, 02600 Arau, Perlis.", "Region": "Perlis", "Category": "宗教", "PageNumber": 38, "Country": "Malaysia", "latitude": 6.42649, "longitude": 100.273206 }, "geometry": { "type": "Point", "coordinates": [ 100.273206, 6.42649 ] } },
{ "type": "Feature", "properties": { "Name_CH": "华益学校校友会", "Name_ML": "Persatuan Murid-Murid Tua Hwa Aik", "Name_EN": null, "Location": "Sekolah Hwa Aik, Arauz Perlis.", "Region": "Perlis", "Category": "文教", "PageNumber": 38, "Country": "Malaysia", "latitude": 6.4269488, "longitude": 100.2738723 }, "geometry": { "type": "Point", "coordinates": [ 100.2738723, 6.4269488 ] } },
{ "type": "Feature", "properties": { "Name_CH": "玻州菩提佛教会", "Name_ML": "PersatuanBodhi Buddhist Perlis", "Name_EN": "Perlis Bodhi Buddhist Association", "Location": "8, Jalan Taman Sri lntan, 02600 Arauz Perlis.", "Region": "Perlis", "Category": "宗教", "PageNumber": 38, "Country": "Malaysia", "latitude": 6.4066666, "longitude": 100.300156 }, "geometry": { "type": "Point", "coordinates": [ 100.300156, 6.4066666 ] } },
{ "type": "Feature", "properties": { "Name_CH": "玻中校友会", "Name_ML": "Persatuan Murid-Murid Tua SMJK Perlis", "Name_EN": null, "Location": "2, Jalan Masjid, 02100 Padang Besar, Perlis.", "Region": "Perlis", "Category": "文教", "PageNumber": 38, "Country": "Malaysia", "latitude": 6.6607538, "longitude": 100.3203013 }, "geometry": { "type": "Point", "coordinates": [ 100.3203013, 6.6607538 ] } },
{ "type": "Feature", "properties": { "Name_CH": "加基武吉佛教会", "Name_ML": null, "Name_EN": "Pertubuhan Buddhis Kaki Bukit", "Location": "PT 1794, Pekan Lama, 02000 Kuala Perlis, Perlis.", "Region": "Perlis", "Category": "宗教", "PageNumber": 39, "Country": "Malaysia", "latitude": 6.4029751, "longitude": 100.1367166 }, "geometry": { "type": "Point", "coordinates": [ 100.1367166, 6.4029751 ] } },
{ "type": "Feature", "properties": { "Name_CH": "加央港口永安堂", "Name_ML": "Tokong Cina Eng Aun Keong", "Name_EN": null, "Location": "Batu 6 3\/4, Jalan Besar, 02000 Kuala Perlis, Perlis.", "Region": "Perlis", "Category": "宗教", "PageNumber": 39, "Country": "Malaysia", "latitude": 6.4001926, "longitude": 100.1321494 }, "geometry": { "type": "Point", "coordinates": [ 100.1321494, 6.4001926 ] } },
{ "type": "Feature", "properties": { "Name_CH": "普济庙", "Name_ML": "Fo Chi Mooi", "Name_EN": null, "Location": "76, Pekan Simpang Empat, 02700 Simpang Empat Perlis.", "Region": "Perlis", "Category": "宗教", "PageNumber": 39, "Country": "Malaysia", "latitude": 6.2980423, "longitude": 100.1367166 }, "geometry": { "type": "Point", "coordinates": [ 100.1367166, 6.2980423 ] } },
{ "type": "Feature", "properties": { "Name_CH": "双弄那督庙", "Name_ML": "Dato Kong Kuala Sanglang", "Name_EN": null, "Location": "225, K Sanglang, Perlis.", "Region": "Perlis", "Category": "宗教", "PageNumber": 39, "Country": "Malaysia", "latitude": 6.2615932, "longitude": 100.1957322 }, "geometry": { "type": "Point", "coordinates": [ 100.1957322, 6.2615932 ] } },
{ "type": "Feature", "properties": { "Name_CH": "玻璃市州琼谊社", "Name_ML": "Kelab Kheng Yee The Perlis", "Name_EN": null, "Location": "Hotel Federel, 01000 Kangar, Perlis.", "Region": "Perlis", "Category": "体育联谊", "PageNumber": 39, "Country": "Malaysia", "latitude": 6.4455726, "longitude": 100.206392 }, "geometry": { "type": "Point", "coordinates": [ 100.206392, 6.4455726 ] } },
{ "type": "Feature", "properties": { "Name_CH": "赞美中心", "Name_ML": "Gospel Vision Consultant", "Name_EN": null, "Location": "No. 20, Jalan Cendana, Taman Kaki Bukit, 02200, Kaki Bukit Perlis.", "Region": "Perlis", "Category": "宗教", "PageNumber": 39, "Country": "Malaysia", "latitude": 6.643336, "longitude": 100.2124665 }, "geometry": { "type": "Point", "coordinates": [ 100.2124665, 6.643336 ] } },
{ "type": "Feature", "properties": { "Name_CH": "爪夷芭静安宫理事会", "Name_ML": "Pertubuhan Pengurusan Rumah Berhala Cheng Aun Kong, Jejawi, Perlis", "Name_EN": null, "Location": "1168, Jalan Jejawi Permatang, 02600, Arau, Perlis.", "Region": "Perlis", "Category": "宗教", "PageNumber": 39, "Country": "Malaysia", "latitude": 6.4068519, "longitude": 100.2267865 }, "geometry": { "type": "Point", "coordinates": [ 100.2267865, 6.4068519 ] } },
{ "type": "Feature", "properties": { "Name_CH": "山神伯公庙", "Name_ML": "Tokong Cina Beseri Jaya", "Name_EN": null, "Location": "2841, Taman Beseri Jaya 02400,Perlis.", "Region": "Perlis", "Category": "宗教", "PageNumber": 39, "Country": "Malaysia", "latitude": 6.559489, "longitude": 100.2334792 }, "geometry": { "type": "Point", "coordinates": [ 100.2334792, 6.559489 ] } },
{ "type": "Feature", "properties": { "Name_CH": "玻璃市篮球总会", "Name_ML": "Persatuan Bola Keranjang Negeri Perlis", "Name_EN": "Perlis Basketball Association", "Location": "158, Taman Utara, Jejawi, 02600 Arau, Perlis.", "Region": "Perlis", "Category": "体育联谊", "PageNumber": 39, "Country": "Malaysia", "latitude": 6.4105653, "longitude": 100.2824483 }, "geometry": { "type": "Point", "coordinates": [ 100.2824483, 6.4105653 ] } },
{ "type": "Feature", "properties": { "Name_CH": "福德祠（巴东勿刹）", "Name_ML": "Hock Teik Soo Temple", "Name_EN": null, "Location": "C\/O 31, Pekan Lama, 02100 Padang Besar, Perlis.", "Region": "Perlis", "Category": "宗教", "PageNumber": 39, "Country": "Malaysia", "latitude": 6.6527518, "longitude": 100.2712297 }, "geometry": { "type": "Point", "coordinates": [ 100.2712297, 6.6527518 ] } },
{ "type": "Feature", "properties": { "Name_CH": "玻州港口广万源公冢", "Name_ML": "Tanah Kubur Cho Kong Wan Teng (Orang Cina Mukim Kuala Perlis)", "Name_EN": null, "Location": "Kampung Bukit Putih 02000 Kuala Perlis, Perlis.", "Region": "Perlis", "Category": "慈善福利", "PageNumber": 40, "Country": "Malaysia", "latitude": 6.4163889, "longitude": 100.1436111 }, "geometry": { "type": "Point", "coordinates": [ 100.1436111, 6.4163889 ] } },
{ "type": "Feature", "properties": { "Name_CH": "青运玻州分会", "Name_ML": "YMM Perlis", "Name_EN": null, "Location": "18, Jalan Sarawak, 02000, Kuala Perlis, Perlis.", "Region": "Perlis", "Category": "青年妇女", "PageNumber": 40, "Country": "Malaysia", "latitude": 6.4006467, "longitude": 100.1339186 }, "geometry": { "type": "Point", "coordinates": [ 100.1339186, 6.4006467 ] } },
{ "type": "Feature", "properties": { "Name_CH": "玻州十字港，新港公冢", "Name_ML": "Kubur China (Wan On)", "Name_EN": null, "Location": "Kuala Sungai Baru 02700 Simpang Empat, Kayang, Perlis.", "Region": "Perlis", "Category": "慈善福利", "PageNumber": 40, "Country": "Malaysia", "latitude": 6.334916, "longitude": 100.1659619 }, "geometry": { "type": "Point", "coordinates": [ 100.1659619, 6.334916 ] } },
{ "type": "Feature", "properties": { "Name_CH": "玻璃市华人公冢理事会", "Name_ML": "Persatuan Perkuburan Orang-Orang Tionghwa Perlis", "Name_EN": "Perlis Chinese Public Cemetery Committee", "Location": "7, Jalan Indra Kayangan, 01000 Kangar, Perlis.", "Region": "Perlis", "Category": "慈善福利", "PageNumber": 40, "Country": "Malaysia", "latitude": 6.438261, "longitude": 100.193518 }, "geometry": { "type": "Point", "coordinates": [ 100.193518, 6.438261 ] } },
{ "type": "Feature", "properties": { "Name_CH": "吉玻州双弄华人公冢理事会", "Name_ML": "JawatankuasaTanah Perkuburan Orang-Orang Kuala Sanglang, Kedah\/Perlis", "Name_EN": null, "Location": "1178,1179 dan 1180 (Asal Lot 1081 & 1095) Negeri Perlis, Mukim Sanglang, Simpang Sanglang.", "Region": "Perlis", "Category": "慈善福利", "PageNumber": 40, "Country": "Malaysia", "latitude": 6.282643, "longitude": 100.1982971 }, "geometry": { "type": "Point", "coordinates": [ 100.1982971, 6.282643 ] } },
{ "type": "Feature", "properties": { "Name_CH": "青团运玻璃市州分会", "Name_ML": "Pertubuhan Gerakan Belia Bersatu Malaysia Bahagian Negeri Perlis", "Name_EN": null, "Location": "No.30, Jalan Maju 4, Taman Kemajuan, 01000 Kangsar, Perlis.", "Region": "Perlis", "Category": "青年妇女", "PageNumber": 40, "Country": "Malaysia", "latitude": 6.4244126, "longitude": 100.2003471 }, "geometry": { "type": "Point", "coordinates": [ 100.2003471, 6.4244126 ] } },
{ "type": "Feature", "properties": { "Name_CH": "知知丁宜区小园主合作社", "Name_ML": "Koperasi Pekebun-Pekebun Kecil Mukim Titi Tinggi", "Name_EN": null, "Location": "115, Pekan Baru, 02200 Kaki Bukit Perlis.", "Region": "Perlis", "Category": "慈善福利", "PageNumber": 40, "Country": "Malaysia", "latitude": 6.7071186, "longitude": 100.1927389 }, "geometry": { "type": "Point", "coordinates": [ 100.1927389, 6.7071186 ] } },
{ "type": "Feature", "properties": { "Name_CH": "玻州加基武吉长江寮义务消防队", "Name_ML": "Bomba Sukarela Pekan Sayur Kaki Bukit, Perlis", "Name_EN": null, "Location": "No.12, Pekan Sayur Kaki Bukit, Perlis.", "Region": "Perlis", "Category": "慈善福利", "PageNumber": 40, "Country": "Malaysia", "latitude": 6.6427383, "longitude": 100.2127371 }, "geometry": { "type": "Point", "coordinates": [ 100.2127371, 6.6427383 ] } },
{ "type": "Feature", "properties": { "Name_CH": "万和公冢", "Name_ML": "Perkuburan Wan Ho", "Name_EN": null, "Location": "Batu 1, Jalan Tambun Tulang, Simpang Empat, Kayang, Perlis.", "Region": "Perlis", "Category": "慈善福利", "PageNumber": 40, "Country": "Malaysia", "latitude": 6.38486, "longitude": 100.2488782 }, "geometry": { "type": "Point", "coordinates": [ 100.2488782, 6.38486 ] } },
{ "type": "Feature", "properties": { "Name_CH": "亚娄及新路公冢", "Name_ML": "Perkuburan Cina Arau \/ Pauh (Awan)", "Name_EN": null, "Location": "Batu 11\/2, Jalan Pauhz Kurong Anai, Perlis.", "Region": "Perlis", "Category": "慈善福利", "PageNumber": 40, "Country": "Malaysia", "latitude": 6.4330463, "longitude": 100.2990516 }, "geometry": { "type": "Point", "coordinates": [ 100.2990516, 6.4330463 ] } }
]
}
