{"type": "FeatureCollection", "name": "region_3", "crs": {"type": "name", "properties": {"name": "urn:ogc:def:crs:OGC:1.3:CRS84"}}, "features": [{"type": "Feature", "properties": {"Name_CH": "\u7802\u52b3\u8d8a\u534e\u4eba\u793e\u56e2\u8054\u5408\u603b\u4f1a", "Name_ML": "Pergabungan Persatuan-Persatuan Cina Sarawak", "Name_EN": null, "Location": "24, 2nd Floor, Green Hill Road, 93100 Kuching, Sarawak.", "Region": "Sarawak", "Category": "\u7efc\u5408", "PageNumber": 350, "Country": "Malaysia", "latitude": 1.5561003, "longitude": 110.3487001}, "geometry": {"type": "Point", "coordinates": [110.3487001, 1.5561003]}}, {"type": "Feature", "properties": {"Name_CH": "\u664b\u6c49\u7701\u534e\u4eba\u793e\u56e2\u603b\u4f1a", "Name_ML": null, "Name_EN": "The Federation Of Kuching & Samarahan Divisions Chinese Associations, Sarawak", "Location": "24, 2nd Floor, Green Hill Road, 93100 Kuching, Sarawak.", "Region": "Sarawak", "Category": "\u7efc\u5408", "PageNumber": 350, "Country": "Malaysia", "latitude": 1.5561003, "longitude": 110.3487001}, "geometry": {"type": "Point", "coordinates": [110.3487001, 1.5561003]}}, {"type": "Feature", "properties": {"Name_CH": "\u52a0\u5e1b\u7701\u534e\u4eba\u793e\u56e2\u8054\u5408\u4f1a", "Name_ML": null, "Name_EN": "United Chinese Association Kapit Division, Sarawak ", "Location": "P.O. Box 99, 96807 Kapit, Sarawak.  37, Jalan Kapitan Chua Leong Kee, 96800 Kapit, Sarawak.", "Region": "Sarawak", "Category": "\u7efc\u5408", "PageNumber": 350, "Country": "Malaysia", "latitude": 2.0172525, "longitude": 112.9400213}, "geometry": {"type": "Point", "coordinates": [112.9400213, 2.0172525]}}, {"type": "Feature", "properties": {"Name_CH": "\u8bd7\u5deb\u7701\u534e\u4eba\u793e\u56e2\u8054\u5408\u4f1a", "Name_ML": "Gabungan Persatuan Cina Bahagian Sibu Sarawak", "Name_EN": "The United Chinese Association Sibu Division Sarawak", "Location": "Wisma UCA Sibu, Lot 859, Section 9, Jalan Alan, 96000 Sibu, Sarawak", "Region": "Sarawak", "Category": "\u7efc\u5408", "PageNumber": 350, "Country": "Malaysia", "latitude": 2.2725504, "longitude": 111.8507886}, "geometry": {"type": "Point", "coordinates": [111.8507886, 2.2725504]}}, {"type": "Feature", "properties": {"Name_CH": "\u65af\u91cc\u963f\u66fc\u7701\u534e\u4eba\u793e\u56e2\u8054\u5408\u4f1a", "Name_ML": null, "Name_EN": "Ferdaration of The Sri Aman Division Chinese Association, Sarawak", "Location": "1st Floor, No, 40, Main Bazaar, 95000 Sri Aman, Sarawak.", "Region": "Sarawak", "Category": "\u7efc\u5408", "PageNumber": 350, "Country": "Malaysia", "latitude": 1.238083, "longitude": 111.463143}, "geometry": {"type": "Point", "coordinates": [111.463143, 1.238083]}}, {"type": "Feature", "properties": {"Name_CH": "\u5982\u697c\u4e2d\u534e\u5de5\u4f1a", "Name_ML": "Persatuan Tionghua Julau", "Name_EN": null, "Location": "26, Pasar Julau, 96600 Julau, Sarawak", "Region": "Sarawak", "Category": "\u7efc\u5408", "PageNumber": 350, "Country": "Malaysia", "latitude": 2.0353834, "longitude": 111.9403254}, "geometry": {"type": "Point", "coordinates": [111.9403254, 2.0353834]}}, {"type": "Feature", "properties": {"Name_CH": "\u660e\u90fd\u9c81\u7701\u534e\u4eba\u793e\u56e2\u8054\u5408\u4f1a", "Name_ML": null, "Name_EN": "Federation of Registered Chinese Associations Bintulu Division Sarawak", "Location": "No. 83-3, 3rd Floor, Taman Sri Sinong, Jalan Abg Galau, 97000 Bintulu, Sarawak. P. O. Box 604, 97008 Bintulu, Sarawak", "Region": "Sarawak", "Category": "\u7efc\u5408", "PageNumber": 350, "Country": "Malaysia", "latitude": 3.1676006, "longitude": 113.0450419}, "geometry": {"type": "Point", "coordinates": [113.0450419, 3.1676006]}}, {"type": "Feature", "properties": {"Name_CH": "\u4e09\u9a6c\u4e39\u4e2d\u534e\u516c\u4f1a", "Name_ML": "Persatuan Chung Hua Sematan ", "Name_EN": "Chung Hua Association Sematan", "Location": "No.1, Sematan Bazaar 94500 Sematan, Sarawak.", "Region": "Sarawak", "Category": "\u7efc\u5408", "PageNumber": 350, "Country": "Malaysia", "latitude": 1.80513, "longitude": 109.7776508}, "geometry": {"type": "Point", "coordinates": [109.7776508, 1.80513]}}, {"type": "Feature", "properties": {"Name_CH": "\u6cd7\u91cc\u8857\u7701\u534e\u4eba\u793e\u56e2\u8054\u5408\u603b\u4f1a", "Name_ML": "Persatuan Cina Bersatu Bahagian Sarikei Sarawak", "Name_EN": null, "Location": "Lot 583, Black 49, Sarikei Sarawak. P. O. Box 42, 96107 Sarikei, Sarawak", "Region": "Sarawak", "Category": "\u7efc\u5408", "PageNumber": 350, "Country": "Malaysia", "latitude": 2.131703, "longitude": 111.5237279}, "geometry": {"type": "Point", "coordinates": [111.5237279, 2.131703]}}, {"type": "Feature", "properties": {"Name_CH": "\u7f8e\u91cc\u7701\u534e\u4eba\u793e\u56e2\u8054\u5408\u4f1a", "Name_ML": null, "Name_EN": "The Federation of the Miri Division Chinese Associations Sarawak", "Location": "Lot 1815, Lorong 6, Jalan Jee Foh, Krokop, 98000 Miri, Sarawak.", "Region": "Sarawak", "Category": "\u7efc\u5408", "PageNumber": 350, "Country": "Malaysia", "latitude": 4.4166481, "longitude": 114.0071379}, "geometry": {"type": "Point", "coordinates": [114.0071379, 4.4166481]}}, {"type": "Feature", "properties": {"Name_CH": "\u6797\u68a6\u7701\u534e\u4eba\u793e\u56e2\u8054\u5408\u603b\u4f1a", "Name_ML": null, "Name_EN": "Federation of Limbang Division Chinese Assn Sarawak", "Location": "Lot 316, 3rd Floor, Bank Street, 98700 Limbang, Sarawak.", "Region": "Sarawak", "Category": "\u7efc\u5408", "PageNumber": 350, "Country": "Malaysia", "latitude": 4.760441, "longitude": 115.006378}, "geometry": {"type": "Point", "coordinates": [115.006378, 4.760441]}}, {"type": "Feature", "properties": {"Name_CH": "\u53e4\u664b\u6d77\u5357\u516c\u4f1a", "Name_ML": "Persatuan Hainan Kuching ", "Name_EN": "Kuching Hainan Association", "Location": "No.38, Carpenter Street, 93000 Kuching, Sarawak.", "Region": "Sarawak", "Category": "\u5730\u7f18", "PageNumber": 351, "Country": "Malaysia", "latitude": 1.5580981, "longitude": 110.3461732}, "geometry": {"type": "Point", "coordinates": [110.3461732, 1.5580981]}}, {"type": "Feature", "properties": {"Name_CH": "\u53e4\u664b\u798f\u5dde\u516c\u4f1a", "Name_ML": "Persatuan Foochow Kuching", "Name_EN": "Foochow Association Kuching", "Location": "Lot 160-162, Jalan Chan Chin Ann, 93100 Kuching, Sarawak.", "Region": "Sarawak", "Category": "\u5730\u7f18", "PageNumber": 351, "Country": "Malaysia", "latitude": 1.5572981, "longitude": 110.3545943}, "geometry": {"type": "Point", "coordinates": [110.3545943, 1.5572981]}}, {"type": "Feature", "properties": {"Name_CH": "\u53e4\u664b\u798f\u5efa\u516c\u4f1a", "Name_ML": "Persatuan Hockien Kuching", "Name_EN": "Kuching Hockien Association", "Location": "Lot 98-99(2nd Floor) Jalan Green Hill, 93100 Kuching, Sarawak.", "Region": "Sarawak", "Category": "\u5730\u7f18", "PageNumber": 351, "Country": "Malaysia", "latitude": 1.5561003, "longitude": 110.3487001}, "geometry": {"type": "Point", "coordinates": [110.3487001, 1.5561003]}}, {"type": "Feature", "properties": {"Name_CH": "\u53e4\u664b\u4f1a\u5b81\u540c\u4e61\u4f1a", "Name_ML": "Persatuan Vui Neng Bhg Kuching Sarawak", "Name_EN": "Kuching Division Vui Neng Association, Sarawak", "Location": "Lot 160, 2nd Floor, Lorong 5A, Jalan Datuk Abang Abdul Rahim, 93450 Kuching, Sarawak", "Region": "Sarawak", "Category": "\u5730\u7f18", "PageNumber": 351, "Country": "Malaysia", "latitude": 1.5523282, "longitude": 110.3674792}, "geometry": {"type": "Point", "coordinates": [110.3674792, 1.5523282]}}, {"type": "Feature", "properties": {"Name_CH": "\u8fbe\u4e50\u6f33\u6cc9\u516c\u4f1a", "Name_ML": "Persatuan Chiang Chuan Daro", "Name_EN": null, "Location": "9, Daro Bazaar, Daro, Sarawak.", "Region": "Sarawak", "Category": "\u5730\u7f18", "PageNumber": 351, "Country": "Malaysia", "latitude": 2.527996, "longitude": 111.417057}, "geometry": {"type": "Point", "coordinates": [111.417057, 2.527996]}}, {"type": "Feature", "properties": {"Name_CH": "\u6cd7\u91cc\u8857\u7701\u5982\u697c\u4e2d\u534e\u516c\u4f1a", "Name_ML": "Persatuan Tionghua Julau", "Name_EN": null, "Location": "No. 26, Jalan Lim Ah Din Pekan Julau, 96600 Julau, Sarawak.", "Region": "Sarawak", "Category": "\u7efc\u5408", "PageNumber": 351, "Country": "Malaysia", "latitude": 2.0231599, "longitude": 111.9179684}, "geometry": {"type": "Point", "coordinates": [111.9179684, 2.0231599]}}, {"type": "Feature", "properties": {"Name_CH": "\u5df4\u5357\u5ba2\u5bb6\u516c\u4f1a", "Name_ML": null, "Name_EN": "Hakka Community Association Baram", "Location": "Lot 44, Jalan Kapitan Lim Ching Kiat, 98050 Marudi, Baram, Sarawak.", "Region": "Sarawak", "Category": "\u5730\u7f18", "PageNumber": 351, "Country": "Malaysia", "latitude": 4.1780523, "longitude": 114.3236008}, "geometry": {"type": "Point", "coordinates": [114.3236008, 4.1780523]}}, {"type": "Feature", "properties": {"Name_CH": "\u5df4\u5357\u5e7f\u4e1c\u516c\u4f1a", "Name_ML": null, "Name_EN": "Kwong Tung Community Association Baram", "Location": "Lot 83, Jalan Kapitan Lim Ching Kiat, 98050 Marudi, Baram, Sarawak. P. O. Box 385, 98058 Marudi, Sarawak.", "Region": "Sarawak", "Category": "\u5730\u7f18", "PageNumber": 351, "Country": "Malaysia", "latitude": 4.1780523, "longitude": 114.3236008}, "geometry": {"type": "Point", "coordinates": [114.3236008, 4.1780523]}}, {"type": "Feature", "properties": {"Name_CH": "\u5df4\u90fd\u5c3c\u4e9a\u798f\u5dde\u516c\u4f1a", "Name_ML": null, "Name_EN": "Batu Niah Foochow Association", "Location": "Lot 583, Batu Niah Town, Rxtension, 98200 Batu Nine, Miri, Sarawak.", "Region": "Sarawak", "Category": "\u5730\u7f18", "PageNumber": 351, "Country": "Malaysia", "latitude": 3.8025259, "longitude": 113.754909}, "geometry": {"type": "Point", "coordinates": [113.754909, 3.8025259]}}, {"type": "Feature", "properties": {"Name_CH": "\u5df4\u5357\u798f\u5efa\u516c\u4f1a", "Name_ML": null, "Name_EN": "Hokkien Association Baram", "Location": "59, Jalan Kapitan Lim Ching Kiat, 98050 Marudi, Baram, Sarawak.", "Region": "Sarawak", "Category": "\u5730\u7f18", "PageNumber": 351, "Country": "Malaysia", "latitude": 4.1780523, "longitude": 114.3236008}, "geometry": {"type": "Point", "coordinates": [114.3236008, 4.1780523]}}, {"type": "Feature", "properties": {"Name_CH": "\u5df4\u5357\u798f\u5dde\u516c\u4f1a", "Name_ML": null, "Name_EN": "Baram Foo Chow Association", "Location": "Lot 29, Jalan Kapitan Lim Ching Kiat, 98050 Marudi, Baram, Sarawak. P. O. Box 105, 98058 Marudi, Sarawak", "Region": "Sarawak", "Category": "\u5730\u7f18", "PageNumber": 351, "Country": "Malaysia", "latitude": 4.1780523, "longitude": 114.3236008}, "geometry": {"type": "Point", "coordinates": [114.3236008, 4.1780523]}}, {"type": "Feature", "properties": {"Name_CH": "\u53e4\u664b\u5174\u5b89\u4f1a\u9986", "Name_ML": "Persatuan Hing Ann Kuching", "Name_EN": "The Hing Ann Association Kuching ", "Location": "Lot 200-204, Section 51, Jalan Padungan, 93100 Kuching, Sarawak.", "Region": "Sarawak", "Category": "\u5730\u7f18", "PageNumber": 352, "Country": "Malaysia", "latitude": 1.5562917, "longitude": 110.354559}, "geometry": {"type": "Point", "coordinates": [110.354559, 1.5562917]}}, {"type": "Feature", "properties": {"Name_CH": "\u8001\u8d8a\u5174\u5316\u516c\u4f1a", "Name_ML": null, "Name_EN": "Lawas Heng Hua Association", "Location": "26, Jalan Masjid Baru,98850 Lawas, Sarawak", "Region": "Sarawak", "Category": "\u5730\u7f18", "PageNumber": 352, "Country": "Malaysia", "latitude": 4.8607188, "longitude": 115.4044402}, "geometry": {"type": "Point", "coordinates": [115.4044402, 4.8607188]}}, {"type": "Feature", "properties": {"Name_CH": "\u5e7f\u60e0\u8087\u516c\u4f1a", "Name_ML": "Persatuan Kwong Wai Siew", "Name_EN": "Kwong Wai Siew Association", "Location": "No. 80, 82 & 84, Jalan Ang Cheng Ho, 93100 Kuching, Sarawak", "Region": "Sarawak", "Category": "\u5730\u7f18", "PageNumber": 352, "Country": "Malaysia", "latitude": 1.5529453, "longitude": 110.3643813}, "geometry": {"type": "Point", "coordinates": [110.3643813, 1.5529453]}}, {"type": "Feature", "properties": {"Name_CH": "\u52a0\u62ff\u9038\u5e7f\u4e1c\u516c\u4f1a", "Name_ML": "Persatuan Kwang Tung, Kanowit", "Name_EN": null, "Location": "No.66, Jalan Kubu,96700 Kanowit, Sarawak", "Region": "Sarawak", "Category": "\u5730\u7f18", "PageNumber": 352, "Country": "Malaysia", "latitude": 2.1001946, "longitude": 112.1578621}, "geometry": {"type": "Point", "coordinates": [112.1578621, 2.1001946]}}, {"type": "Feature", "properties": {"Name_CH": "\u52a0\u90a3\u9038\u798f\u5dde\u516c\u4f1a", "Name_ML": null, "Name_EN": "Kanowit Foochow Association", "Location": "3, Main Bazaar, Kanowit, Sarawak. P. O. Box 78, 96707 Kanowit, Sarawak.", "Region": "Sarawak", "Category": "\u5730\u7f18", "PageNumber": 352, "Country": "Malaysia", "latitude": 1.5596825, "longitude": 110.3456821}, "geometry": {"type": "Point", "coordinates": [110.3456821, 1.5596825]}}, {"type": "Feature", "properties": {"Name_CH": "\u60e0\u4e1c\u5b89\u516c\u4f1a", "Name_ML": "Persatuan Masyarakat Fui Tung Onn Kuching", "Name_EN": "Kuching Fui Tung Onn Commutity Association", "Location": null, "Region": "Sarawak", "Category": "\u5730\u7f18", "PageNumber": 352, "Country": "Malaysia", "latitude": 0.0, "longitude": 0.0}, "geometry": {"type": "Point", "coordinates": [0.0, 0.0]}}, {"type": "Feature", "properties": {"Name_CH": "\u6797\u68a6\u7701\u5ba2\u5bb6\u516c\u4f1a", "Name_ML": "Persatuan Hakka Bahaigian Limbang", "Name_EN": "Limbang Division Hakka Association", "Location": "Lot No. 1632, Jalan Buangsiol, 98700 Limbang, Sarawak.", "Region": "Sarawak", "Category": "\u5730\u7f18", "PageNumber": 352, "Country": "Malaysia", "latitude": 4.7583338, "longitude": 115.0066192}, "geometry": {"type": "Point", "coordinates": [115.0066192, 4.7583338]}}, {"type": "Feature", "properties": {"Name_CH": "\u9a6c\u62c9\u7aef\u798f\u5dde\u516c\u4f1a", "Name_ML": "Persatuan Foochow Meradong Sarawak", "Name_EN": "Meradong Foochow Association Sarawak", "Location": "Jalan Ted Kui Ngo, Bintangor, Sarawak. P. O. Box 187, 96507 Bintangor, Sarawak", "Region": "Sarawak", "Category": "\u5730\u7f18", "PageNumber": 352, "Country": "Malaysia", "latitude": 2.1593336, "longitude": 111.5945271}, "geometry": {"type": "Point", "coordinates": [111.5945271, 2.1593336]}}, {"type": "Feature", "properties": {"Name_CH": "\u6797\u68a6\u798f\u5dde\u516c\u4f1a", "Name_ML": null, "Name_EN": "Limbang Foo Chow Association", "Location": "Lot 1347, Kampung Bangkita, 97000 Limbang, Sarawak.", "Region": "Sarawak", "Category": "\u5730\u7f18", "PageNumber": 352, "Country": "Malaysia", "latitude": 4.754785, "longitude": 115.009688}, "geometry": {"type": "Point", "coordinates": [115.009688, 4.754785]}}, {"type": "Feature", "properties": {"Name_CH": "\u6797\u68a6\u798f\u5efa\u516c\u4f1a", "Name_ML": null, "Name_EN": "Limbang Hock Kian Association", "Location": "Bangunan Ang Kheng Su, Kampung Bangkita, 98700 Limbang, Sarawak.", "Region": "Sarawak", "Category": "\u5730\u7f18", "PageNumber": 352, "Country": "Malaysia", "latitude": 4.754785, "longitude": 115.009688}, "geometry": {"type": "Point", "coordinates": [115.009688, 4.754785]}}, {"type": "Feature", "properties": {"Name_CH": "\u62c9\u8ba9\u6c5f\uff08\u8bd7\u5deb\uff09\u5927\u57d4\u540c\u4e61\u4f1a", "Name_ML": "Persatuan Tai Poo (Sibu) Batang Rejang", "Name_EN": null, "Location": "11, 2nd F1, Kaiping Road, 96000 Sibu, Sarawak", "Region": "Sarawak", "Category": "\u5730\u7f18", "PageNumber": 352, "Country": "Malaysia", "latitude": 2.355687, "longitude": 111.952249}, "geometry": {"type": "Point", "coordinates": [111.952249, 2.355687]}}, {"type": "Feature", "properties": {"Name_CH": "\u8001\u8d8a\u798f\u5dde\u516c\u4f1a", "Name_ML": "Persatuan Foochow Lawas Sarawak", "Name_EN": null, "Location": "1st Floor, Lot No 9 , Jalan Muhibbah, 98850 Lawas, Sarawak", "Region": "Sarawak", "Category": "\u5730\u7f18", "PageNumber": 352, "Country": "Malaysia", "latitude": 1.5602133, "longitude": 110.3304937}, "geometry": {"type": "Point", "coordinates": [110.3304937, 1.5602133]}}, {"type": "Feature", "properties": {"Name_CH": "\u7f8e\u91cc\u5ba2\u5bb6\u516c\u4f1a", "Name_ML": "Persatuan Hakka Miri", "Name_EN": "Miri Hakka Association", "Location": "No.45, Brooke Road 98000 Miri, Sarawak. P.O. Box 349, 98001 Miri, Sarawak.", "Region": "Sarawak", "Category": "\u5730\u7f18", "PageNumber": 353, "Country": "Malaysia", "latitude": 4.3958756, "longitude": 113.9898007}, "geometry": {"type": "Point", "coordinates": [113.9898007, 4.3958756]}}, {"type": "Feature", "properties": {"Name_CH": "\u6c11\u4e39\u83aa\u798f\u5dde\u516c\u4f1a", "Name_ML": "Persatuan Foochow Bintangor", "Name_EN": null, "Location": "21, C-D, Jalan Teo Kui Ngo, 96500 Bintangor, Sarawak.", "Region": "Sarawak", "Category": "\u5730\u7f18", "PageNumber": 353, "Country": "Malaysia", "latitude": 2.102612, "longitude": 111.7137694}, "geometry": {"type": "Point", "coordinates": [111.7137694, 2.102612]}}, {"type": "Feature", "properties": {"Name_CH": "\u7f8e\u91cc\u8bcf\u5b89\u4f1a\u9986", "Name_ML": "Persatuan Chawan Miri", "Name_EN": "Miri Chawan Association ", "Location": "Lot 2788, Lorong 9, Krokop, Miri, Sarawak. P. O. Box 41, 98007 Miri, Sarawak", "Region": "Sarawak", "Category": "\u5730\u7f18", "PageNumber": 353, "Country": "Malaysia", "latitude": 4.3180629, "longitude": 113.996279}, "geometry": {"type": "Point", "coordinates": [113.996279, 4.3180629]}}, {"type": "Feature", "properties": {"Name_CH": "\u7f8e\u91cc\u7701\u4f1a\u5b81\u540c\u4e61\u4f1a", "Name_ML": "Persatuan Vui Neng Bahagian Miri", "Name_EN": "Miri Division Vui Neng Association", "Location": "P. O. Box 1577, 98000 Miri, Sarawak.", "Region": "Sarawak", "Category": "\u5730\u7f18", "PageNumber": 353, "Country": "Malaysia", "latitude": 4.3584652, "longitude": 114.001226}, "geometry": {"type": "Point", "coordinates": [114.001226, 4.3584652]}}, {"type": "Feature", "properties": {"Name_CH": "\u7f8e\u91cc\u6f6e\u5dde\u516c\u4f1a", "Name_ML": null, "Name_EN": "Miri Teochew Association", "Location": "Lot 1786, jalan Jee Foh, Krokop, 98000 Miri, Sarawak.", "Region": "Sarawak", "Category": "\u5730\u7f18", "PageNumber": 353, "Country": "Malaysia", "latitude": 4.4209782, "longitude": 114.0050234}, "geometry": {"type": "Point", "coordinates": [114.0050234, 4.4209782]}}, {"type": "Feature", "properties": {"Name_CH": "\u7f8e\u91cc\u9f99\u5ddd\u540c\u4e61\u4f1a", "Name_ML": "Persatuan Masyarakat Leung Chon", "Name_EN": "The Leung Chon Community Association", "Location": "No. 73, River Road, 98000 Miri, Sarawak. P. O. Box 158, 98007 Miri Sarawak", "Region": "Sarawak", "Category": "\u5730\u7f18", "PageNumber": 353, "Country": "Malaysia", "latitude": 4.3584652, "longitude": 114.001226}, "geometry": {"type": "Point", "coordinates": [114.001226, 4.3584652]}}, {"type": "Feature", "properties": {"Name_CH": "\u7f8e\u91cc\u6d77\u5357\u516c\u4f1a", "Name_ML": "Persatuan Hainan Miri", "Name_EN": "Hainan Association Miri", "Location": "Lot 342, Jalan Ngo King Hi, Pelita Commercial Centre, 98000 Miri Sarawak", "Region": "Sarawak", "Category": "\u5730\u7f18", "PageNumber": 353, "Country": "Malaysia", "latitude": 4.4045324, "longitude": 114.0013116}, "geometry": {"type": "Point", "coordinates": [114.0013116, 4.4045324]}}, {"type": "Feature", "properties": {"Name_CH": "\u7f8e\u91cc\u5927\u57d4\u540c\u4e61\u4f1a", "Name_ML": "Persatuan Thai Poo Miri", "Name_EN": "Miri  Thai Poo Community Association ", "Location": "Lot 313, Jalan Bulan Sabit, 98000 Miri, Sarawak. P. O. Box 1071, 98008 Miri, Sarawak", "Region": "Sarawak", "Category": "\u5730\u7f18", "PageNumber": 353, "Country": "Malaysia", "latitude": 4.4084319, "longitude": 113.9993795}, "geometry": {"type": "Point", "coordinates": [113.9993795, 4.4084319]}}, {"type": "Feature", "properties": {"Name_CH": "\u7f8e\u91cc\u798f\u5dde\u516c\u4f1a", "Name_ML": null, "Name_EN": "Foo Chow Association Miri", "Location": "Lot 1088, 2nd Floor, Jalan Jee Foh, Krokop, 98000 Miri, Sarawak.", "Region": "Sarawak", "Category": "\u5730\u7f18", "PageNumber": 353, "Country": "Malaysia", "latitude": 4.4161704, "longitude": 114.0019478}, "geometry": {"type": "Point", "coordinates": [114.0019478, 4.4161704]}}, {"type": "Feature", "properties": {"Name_CH": "\u7f8e\u91cc\u5e7f\u60e0\u8087\u516c\u4f1a", "Name_ML": null, "Name_EN": "Kwong Wai Siew Association, Miri", "Location": "Lot 1450, Jee Foh Road, Krokop, 98000 Miri, Sarawak. ", "Region": "Sarawak", "Category": "\u5730\u7f18", "PageNumber": 353, "Country": "Malaysia", "latitude": 4.4188916, "longitude": 114.0080704}, "geometry": {"type": "Point", "coordinates": [114.0080704, 4.4188916]}}, {"type": "Feature", "properties": {"Name_CH": "\u7f8e\u91cc\u5174\u5b89\u4f1a\u9986", "Name_ML": "Persatuan Hing Ann Miri ", "Name_EN": "Miri Hing Ann Association", "Location": "Lot 2442, Boulevard Commercial Centre, 98000 Miri, Sarawak. P. O. Box 1841, 98008 Miri, Sarawak.", "Region": "Sarawak", "Category": "\u5730\u7f18", "PageNumber": 353, "Country": "Malaysia", "latitude": 4.416151, "longitude": 114.0111248}, "geometry": {"type": "Point", "coordinates": [114.0111248, 4.416151]}}, {"type": "Feature", "properties": {"Name_CH": "\u7f8e\u91cc\u5609\u5e94\u4e94\u5c5e\u540c\u4e61\u4f1a", "Name_ML": null, "Name_EN": "Miri Kaying Community Association ", "Location": "6B, Jalan Parry, P. O. Box 87, 98107 Lutong Miri, Sarawak", "Region": "Sarawak", "Category": "\u5730\u7f18", "PageNumber": 353, "Country": "Malaysia", "latitude": 4.3983782, "longitude": 113.9902756}, "geometry": {"type": "Point", "coordinates": [113.9902756, 4.3983782]}}, {"type": "Feature", "properties": {"Name_CH": "\u7802\u62c9\u8d8a\u4f1a\u5b81\u540c\u4e61\u4f1a", "Name_ML": "Persatuan Vui  Neng Sarawak", "Name_EN": "Sarawak Vui Neng Association", "Location": "18, Long Bridge Road, 96000 Sibu, Sarawak.", "Region": "Sarawak", "Category": "\u5730\u7f18", "PageNumber": 354, "Country": "Malaysia", "latitude": 2.2853053, "longitude": 111.8318878}, "geometry": {"type": "Point", "coordinates": [111.8318878, 2.2853053]}}, {"type": "Feature", "properties": {"Name_CH": "\u7802\u62c9\u8d8a\u91d1\u95e8\u4f1a\u9986", "Name_ML": "Persatuan Kim Mui Sarawak", "Name_EN": "Sarawak Kim Mui Association ", "Location": "Lot 8201(2nd F1) Townseat, 2 1/2 Miles, Jalan Pending, 93450 Kuching, Sarawak", "Region": "Sarawak", "Category": "\u5730\u7f18", "PageNumber": 354, "Country": "Malaysia", "latitude": 1.5505513, "longitude": 110.3773449}, "geometry": {"type": "Point", "coordinates": [110.3773449, 1.5505513]}}, {"type": "Feature", "properties": {"Name_CH": "\u7802\u62c9\u8d8a\u5c4f\u5357\u516c\u4f1a", "Name_ML": "Persatuan Ping-Nang Sarawak", "Name_EN": "Ping-Nang Association Sarawak", "Location": "39, 2nd Floor, Jalan Mahsuri, 96000 Sibu, Sarawak", "Region": "Sarawak", "Category": "\u5730\u7f18", "PageNumber": 354, "Country": "Malaysia", "latitude": 2.2911655, "longitude": 111.8357979}, "geometry": {"type": "Point", "coordinates": [111.8357979, 2.2911655]}}, {"type": "Feature", "properties": {"Name_CH": "\u7802\u62c9\u8d8a\u53e4\u664b\u5609\u5e94\u540c\u4e61\u4f1a", "Name_ML": null, "Name_EN": "Sarawak Kaying Community Association", "Location": "No. 52 Carpenter Street, 93000 Kuching, Sarawak.", "Region": "Sarawak", "Category": "\u5730\u7f18", "PageNumber": 354, "Country": "Malaysia", "latitude": 1.5580162, "longitude": 110.3464703}, "geometry": {"type": "Point", "coordinates": [110.3464703, 1.5580162]}}, {"type": "Feature", "properties": {"Name_CH": "\u7802\u62c9\u8d8a\u53e4\u7530\u516c\u4f1a", "Name_ML": "Persatuan Ku Tien Sarawak", "Name_EN": "Sarawak Ku Tien Association", "Location": "No. 97, 2nd Floor, Jalan Pedada, Pusat Pedada, 96000 Sibu, Sarawak.", "Region": "Sarawak", "Category": "\u5730\u7f18", "PageNumber": 354, "Country": "Malaysia", "latitude": 2.3111251, "longitude": 111.8461217}, "geometry": {"type": "Point", "coordinates": [111.8461217, 2.3111251]}}, {"type": "Feature", "properties": {"Name_CH": "\u7802\u62c9\u8d8a\u7f8e\u91cc\u6cb3\u5a46\u540c\u4e61\u4f1a", "Name_ML": "Persatuan Hopoh Bahagian Miri Sarawak", "Name_EN": "Sarawak Miri Hopoh Association", "Location": "Lot 1018, Jee Foh Road Krokop, Miri, Sarawak.", "Region": "Sarawak", "Category": "\u5730\u7f18", "PageNumber": 354, "Country": "Malaysia", "latitude": 4.4217369, "longitude": 114.0050538}, "geometry": {"type": "Point", "coordinates": [114.0050538, 4.4217369]}}, {"type": "Feature", "properties": {"Name_CH": "\u7802\u62c9\u8d8a\u4e09\u6c5f\u516c\u4f1a", "Name_ML": "Persatuan San Chiang Sarawak", "Name_EN": "Sarawak San Chiang Association", "Location": "304, Jalan Dato Wee Chiang, Chiang, 93450 Kuching, Sarawak.", "Region": "Sarawak", "Category": "\u5730\u7f18", "PageNumber": 354, "Country": "Malaysia", "latitude": 1.55263, "longitude": 110.364904}, "geometry": {"type": "Point", "coordinates": [110.364904, 1.55263]}}, {"type": "Feature", "properties": {"Name_CH": "\u6c90\u80f6\u798f\u5dde\u516c\u4f1a", "Name_ML": "Persatuan Foochow Mukah", "Name_EN": "Foo Chow Association Mukah", "Location": "Oya Road, P. O. Box 97, 96400 Mukah, Sarawak.", "Region": "Sarawak", "Category": "\u5730\u7f18", "PageNumber": 354, "Country": "Malaysia", "latitude": 2.858436, "longitude": 111.875922}, "geometry": {"type": "Point", "coordinates": [111.875922, 2.858436]}}, {"type": "Feature", "properties": {"Name_CH": "\u6c90\u80f6\u6f6e\u5dde\u516c\u4f1a", "Name_ML": null, "Name_EN": "Mukah Teo Chew Association", "Location": "19, Lintang Road,  P. O. Box 25, 96400 Mukah, Sarawak.", "Region": "Sarawak", "Category": "\u5730\u7f18", "PageNumber": 354, "Country": "Malaysia", "latitude": 2.8296074, "longitude": 112.28609}, "geometry": {"type": "Point", "coordinates": [112.28609, 2.8296074]}}, {"type": "Feature", "properties": {"Name_CH": "\u6c11\u90fd\u9c81\u798f\u5efa\u516c\u4f1a", "Name_ML": null, "Name_EN": "Hokkien Association Bintulu Sarawak", "Location": "P. O. Box 2602, 97008 Bintulu, Sarawak.", "Region": "Sarawak", "Category": "\u5730\u7f18", "PageNumber": 354, "Country": "Malaysia", "latitude": 3.171322, "longitude": 113.0419069}, "geometry": {"type": "Point", "coordinates": [113.0419069, 3.171322]}}, {"type": "Feature", "properties": {"Name_CH": "\u7802\u62c9\u8d8a\u96f7\u5dde\u516c\u4f1a", "Name_ML": "Persatuan Lui Chiu Sarawak", "Name_EN": null, "Location": "No.8 Lot 1375, Hua Joo Park, Jalan Tai Shin Jar, 93200 Kuching, Sarawak.", "Region": "Sarawak", "Category": "\u5730\u7f18", "PageNumber": 354, "Country": "Malaysia", "latitude": 1.516581, "longitude": 110.338274}, "geometry": {"type": "Point", "coordinates": [110.338274, 1.516581]}}, {"type": "Feature", "properties": {"Name_CH": "\u7802\u62c9\u8d8a\u5e7f\u60e0\u8087\u516c\u4f1a\u8054\u5408\u4f1a", "Name_ML": null, "Name_EN": "The Federation Of Kwong Wai Siew Association Sarawak", "Location": null, "Region": "Sarawak", "Category": "\u5730\u7f18", "PageNumber": 354, "Country": "Malaysia", "latitude": 0.0, "longitude": 0.0}, "geometry": {"type": "Point", "coordinates": [0.0, 0.0]}}, {"type": "Feature", "properties": {"Name_CH": "\u8bd7\u5deb\u6d77\u5357\u4f1a\u9986", "Name_ML": "Persatuan Hainan Sibu Sarawak", "Name_EN": "Sibu Hainan Association", "Location": "22, Kg Nyabor Road, 96000 Sibu, Sarawak", "Region": "Sarawak", "Category": "\u5730\u7f18", "PageNumber": 355, "Country": "Malaysia", "latitude": 2.2911844, "longitude": 111.8274008}, "geometry": {"type": "Point", "coordinates": [111.8274008, 2.2911844]}}, {"type": "Feature", "properties": {"Name_CH": "\u8bd7\u5deb\u5e7f\u4e1c\u516c\u4f1a", "Name_ML": "Persatuan Kwong Tung Sibu", "Name_EN": null, "Location": "29, High Street 96000 Sibu, Sarawak.", "Region": "Sarawak", "Category": "\u5730\u7f18", "PageNumber": 355, "Country": "Malaysia", "latitude": 2.3556865, "longitude": 111.9522491}, "geometry": {"type": "Point", "coordinates": [111.9522491, 2.3556865]}}, {"type": "Feature", "properties": {"Name_CH": "\u7802\u62c9\u8d8a\u8bcf\u5b89\u4f1a\u9986", "Name_ML": "Persatuan Chawan Sarawak", "Name_EN": "Sarawak Chawan Association", "Location": "No. 313-314, Jln Padungan, 93450 Kunching, Sarawak", "Region": "Sarawak", "Category": "\u5730\u7f18", "PageNumber": 355, "Country": "Malaysia", "latitude": 1.5500136, "longitude": 110.3678093}, "geometry": {"type": "Point", "coordinates": [110.3678093, 1.5500136]}}, {"type": "Feature", "properties": {"Name_CH": "\u8bd7\u5deb\u957f\u4e50\u540c\u4e61\u4f1a", "Name_ML": null, "Name_EN": "Tiong Loh Tung Hiong Hoi", "Location": "11, Bank Road, 96000 Sibu, Sarawak", "Region": "Sarawak", "Category": "\u5730\u7f18", "PageNumber": 355, "Country": "Malaysia", "latitude": 2.3556865, "longitude": 111.9522491}, "geometry": {"type": "Point", "coordinates": [111.9522491, 2.3556865]}}, {"type": "Feature", "properties": {"Name_CH": "\u8bd7\u5deb\u798f\u5dde\u516c\u4f1a", "Name_ML": "Persatuan Foochow Sibu", "Name_EN": "Foochow Association Sibu", "Location": "Lot 837, Block 18, SID Jalan Salim, 96000 Sibu, Sarawak.", "Region": "Sarawak", "Category": "\u5730\u7f18", "PageNumber": 355, "Country": "Malaysia", "latitude": 2.2529377, "longitude": 111.8765999}, "geometry": {"type": "Point", "coordinates": [111.8765999, 2.2529377]}}, {"type": "Feature", "properties": {"Name_CH": "\u8bd7\u5deb\u5e7f\u60e0\u8087\u516c\u4f1a", "Name_ML": "Persatuan Kwong Wai Siew Sibu Sarawak", "Name_EN": "Kwong Wai Siew Association Sibu", "Location": "21, Pusat Tanahwang Jalan Pedada, 96000 Sibu, Sarawak.", "Region": "Sarawak", "Category": "\u5730\u7f18", "PageNumber": 355, "Country": "Malaysia", "latitude": 2.2952649, "longitude": 111.8393937}, "geometry": {"type": "Point", "coordinates": [111.8393937, 2.2952649]}}, {"type": "Feature", "properties": {"Name_CH": "\u8bd7\u5deb\u5609\u5e94\u540c\u4e61\u4f1a", "Name_ML": null, "Name_EN": "Sibu Kaying Community Association", "Location": "4th, 30 Lorong Lanang 59, 96000 Sibu, Sarawak", "Region": "Sarawak", "Category": "\u5730\u7f18", "PageNumber": 355, "Country": "Malaysia", "latitude": 2.2832589, "longitude": 111.8327029}, "geometry": {"type": "Point", "coordinates": [111.8327029, 2.2832589]}}, {"type": "Feature", "properties": {"Name_CH": "\u8bd7\u5deb\u5ba2\u5bb6\u516c\u4f1a", "Name_ML": "Persatuan Harka Sibu", "Name_EN": "Sibu Harka Association", "Location": "29, High Street, 96000 Sibu, Sarawak.", "Region": "Sarawak", "Category": "\u5730\u7f18", "PageNumber": 355, "Country": "Malaysia", "latitude": 2.3556865, "longitude": 111.9522491}, "geometry": {"type": "Point", "coordinates": [111.9522491, 2.3556865]}}, {"type": "Feature", "properties": {"Name_CH": "\u8bd7\u5deb\u95fd\u4faf\u540c\u4e61\u4f1a", "Name_ML": "Persatuan Min Hau Sibu", "Name_EN": "Sibu Min Hau Association", "Location": "No. 147 (3rd Floor) Jalan Kg. Nyabor, 96000 Sibu, Sarawak.", "Region": "Sarawak", "Category": "\u5730\u7f18", "PageNumber": 355, "Country": "Malaysia", "latitude": 2.291726, "longitude": 111.827031}, "geometry": {"type": "Point", "coordinates": [111.827031, 2.291726]}}, {"type": "Feature", "properties": {"Name_CH": "\u8bd7\u5deb\u95fd\u6e05\u540c\u4e61\u4f1a", "Name_ML": null, "Name_EN": "Sibu Ming Chiang Tun Hiong Huay", "Location": "No. 44, Central Road, 96000 Sibu, Sarawak", "Region": "Sarawak", "Category": "\u5730\u7f18", "PageNumber": 355, "Country": "Malaysia", "latitude": 2.2891496, "longitude": 111.828649}, "geometry": {"type": "Point", "coordinates": [111.828649, 2.2891496]}}, {"type": "Feature", "properties": {"Name_CH": "\u8bd7\u5deb\u6f6e\u5dde\u516c\u4f1a", "Name_ML": null, "Name_EN": "Teochew Association Sibu", "Location": "No. 12, Causeway, 96000 Sibu, Sarawak", "Region": "Sarawak", "Category": "\u5730\u7f18", "PageNumber": 355, "Country": "Malaysia", "latitude": 2.3556865, "longitude": 111.9522491}, "geometry": {"type": "Point", "coordinates": [111.9522491, 2.3556865]}}, {"type": "Feature", "properties": {"Name_CH": "\u7802\u62c9\u8d8a\u6f33\u6cc9\u793e\u56e2\u8054\u5408\u603b\u4f1a", "Name_ML": null, "Name_EN": "Federation Of Chiang Chuan Association Of Sarawak", "Location": "38-40 Central Road, 96000 Sibu, Sarawak.", "Region": "Sarawak", "Category": "\u5730\u7f18", "PageNumber": 355, "Country": "Malaysia", "latitude": 2.289257, "longitude": 111.82891}, "geometry": {"type": "Point", "coordinates": [111.82891, 2.289257]}}, {"type": "Feature", "properties": {"Name_CH": "\u8bd7\u5deb\u6f33\u6cc9\u516c\u4f1a", "Name_ML": "Persatuan Chiang Chuan Sibu", "Name_EN": "Chiang Chuan Association", "Location": "38-40, Central Rd, 96000 Sibu, Sarawak.", "Region": "Sarawak", "Category": "\u5730\u7f18", "PageNumber": 356, "Country": "Malaysia", "latitude": 2.289257, "longitude": 111.82891}, "geometry": {"type": "Point", "coordinates": [111.82891, 2.289257]}}, {"type": "Feature", "properties": {"Name_CH": "\u77f3\u5c71\u798f\u5dde\u4f1a\u9986", "Name_ML": null, "Name_EN": "Batu Niah Foo Chow Association", "Location": "Lot 78, Batu Niah Bazaar, 98200 Batu Niah, Sarawak.", "Region": "Sarawak", "Category": "\u5730\u7f18", "PageNumber": 356, "Country": "Malaysia", "latitude": 3.8025259, "longitude": 113.754909}, "geometry": {"type": "Point", "coordinates": [113.754909, 3.8025259]}}, {"type": "Feature", "properties": {"Name_CH": "\u5df4\u5357\u65b9\u6c0f\u516c\u4f1a", "Name_ML": null, "Name_EN": "Hwong's Square, P. O. Box 42 Marudi, Baram, Sarawak", "Location": "29 Queen's Square, P. O. Box 42 Marudi, Baram, Sarawak.", "Region": "Sarawak", "Category": "\u8840\u7f18", "PageNumber": 356, "Country": "Malaysia", "latitude": 4.5530673, "longitude": 114.1053243}, "geometry": {"type": "Point", "coordinates": [114.1053243, 4.5530673]}}, {"type": "Feature", "properties": {"Name_CH": "\u77f3\u5c71\u5ba2\u5bb6\u516c\u4f1a", "Name_ML": null, "Name_EN": "Batu Niah Hakka Association", "Location": "Lot 103, 1st Floor Batu Niah Bazaar, 98200 Batu Niah, Sarawak.", "Region": "Sarawak", "Category": "\u5730\u7f18", "PageNumber": 356, "Country": "Malaysia", "latitude": 3.8025259, "longitude": 113.754909}, "geometry": {"type": "Point", "coordinates": [113.754909, 3.8025259]}}, {"type": "Feature", "properties": {"Name_CH": "\u5317\u7802\u516d\u6842\u5802\u5b97\u4eb2\u4f1a", "Name_ML": null, "Name_EN": "Northam Sarawak Rigion Liu Kwee Tang Association", "Location": "1st Floor, Lot 2114, Bulatan Commercial Centre, Lorong 10, Jalan Bulatan, 98000 Miri, Sarawak. P. O. Box 2215, 98008 Miri, Sarawak.", "Region": "Sarawak", "Category": "\u8840\u7f18", "PageNumber": 356, "Country": "Malaysia", "latitude": 4.427567, "longitude": 114.002517}, "geometry": {"type": "Point", "coordinates": [114.002517, 4.427567]}}, {"type": "Feature", "properties": {"Name_CH": "\u6cd7\u91cc\u8857\u5e7f\u60e0\u8087\u516c\u4f1a", "Name_ML": "Persatuan Kwong Wai Siew Sarikei", "Name_EN": "Kwong Wai Siew Association Sarikei", "Location": "1st Floor, No.3, Merdeka Road, P. O. Box 406, 96108 Sarikei, Sarawak.", "Region": "Sarawak", "Category": "\u5730\u7f18", "PageNumber": 356, "Country": "Malaysia", "latitude": 2.131703, "longitude": 111.5237279}, "geometry": {"type": "Point", "coordinates": [111.5237279, 2.131703]}}, {"type": "Feature", "properties": {"Name_CH": "\u6cd7\u91cc\u8857\u798f\u5dde\u516c\u4f1a", "Name_ML": "Persatuan Foochow Sarikei", "Name_EN": "Sarikei Foochow Association", "Location": "No. 8, 2nd Floor, Jalan Tok, 96100 Sarawak. P. O. Box 548, 96108 Sarikei, Sarawak.", "Region": "Sarawak", "Category": "\u5730\u7f18", "PageNumber": 356, "Country": "Malaysia", "latitude": 2.130578, "longitude": 111.522578}, "geometry": {"type": "Point", "coordinates": [111.522578, 2.130578]}}, {"type": "Feature", "properties": {"Name_CH": "\u6cd7\u91cc\u8857\u6f33\u6cc9\u516c\u4f1a", "Name_ML": null, "Name_EN": "Chiang Chuan Association Sarikei", "Location": "29, Jalan Jubli Mutiara, 96100 Sarikei, Sarawak.", "Region": "Sarawak", "Category": "\u5730\u7f18", "PageNumber": 356, "Country": "Malaysia", "latitude": 2.1317259, "longitude": 111.525044}, "geometry": {"type": "Point", "coordinates": [111.525044, 2.1317259]}}, {"type": "Feature", "properties": {"Name_CH": "\u8bd7\u5deb\u5c4f\u5357\u8463\u4e61\u516c\u4f1a", "Name_ML": "Persatuan  Pinang Tonhiong Sibu", "Name_EN": "Pinang Ton Hiong Association Sibu", "Location": "No. 12, Lane 2, Lanang Rd, 96000 Sibu, Sarawak.", "Region": "Sarawak", "Category": "\u5730\u7f18", "PageNumber": 356, "Country": "Malaysia", "latitude": 2.2832589, "longitude": 111.8327029}, "geometry": {"type": "Point", "coordinates": [111.8327029, 2.2832589]}}, {"type": "Feature", "properties": {"Name_CH": "\u8bd7\u5deb\u5174\u5316\u8386\u4ed9\u516c\u4f1a", "Name_ML": null, "Name_EN": "Hing Hua Pou Sen Association, Sibu", "Location": "1-3, Wong Nai Siong Road. 96000 Sibu, Sarawak.", "Region": "Sarawak", "Category": "\u5730\u7f18", "PageNumber": 356, "Country": "Malaysia", "latitude": 2.2898406, "longitude": 111.8273671}, "geometry": {"type": "Point", "coordinates": [111.8273671, 2.2898406]}}, {"type": "Feature", "properties": {"Name_CH": "\u6c5f\u590f\u5802\u9ec4\u6c0f\u516c\u4f1a", "Name_ML": "Persatuan Chiang Hsia Huang", "Name_EN": "Chiang Hsia Huang Clan Association Kuching", "Location": null, "Region": "Sarawak", "Category": "\u8840\u7f18", "PageNumber": 356, "Country": "Malaysia", "latitude": 0.0, "longitude": 0.0}, "geometry": {"type": "Point", "coordinates": [0.0, 0.0]}}, {"type": "Feature", "properties": {"Name_CH": "\u62c9\u8ba9\u66fe\u90b1\uff08\u4e18\uff09\u516c\u4f1a", "Name_ML": "Persatuan Klan Cheng Kiu(Chan Khoo) Rajang", "Name_EN": null, "Location": "No.6, Lorong 2, Jalan Ek Dee, 96000 Sibu, Sarawak.", "Region": "Sarawak", "Category": "\u8840\u7f18", "PageNumber": 357, "Country": "Malaysia", "latitude": 2.2775392, "longitude": 111.8414172}, "geometry": {"type": "Point", "coordinates": [111.8414172, 2.2775392]}}, {"type": "Feature", "properties": {"Name_CH": "\u664b\u6c49\u7701\u5f6d\u57ce\u5218\u6c0f\u516c\u4f1a", "Name_ML": "Persatuan Klan Liew Kuching & Kota Samarahan", "Name_EN": "Kuching And Kota Samarahan Pan Chern Liew Clan Association", "Location": "1st Floor, Lot 367, Section 62, Ang Cheng Ho Road, 93100 Kuching, Sarawak.", "Region": "Sarawak", "Category": "\u8840\u7f18", "PageNumber": 357, "Country": "Malaysia", "latitude": 1.5530103, "longitude": 110.3636891}, "geometry": {"type": "Point", "coordinates": [110.3636891, 1.5530103]}}, {"type": "Feature", "properties": {"Name_CH": "\u62c9\u8ba9\u6c5f\u738b\u6c0f\u516c\u4f1a", "Name_ML": "Persatuan Klan Wang Rejang, Sarawak", "Name_EN": "Rejang Wang Clan Association", "Location": "2C, Lorong 2,  Jalan Ek Dee Sibu, Sarawak.  P.O.Box. 1512, 96008 Sibu, Sarawak.", "Region": "Sarawak", "Category": "\u8840\u7f18", "PageNumber": 357, "Country": "Malaysia", "latitude": 2.2775392, "longitude": 111.8414172}, "geometry": {"type": "Point", "coordinates": [111.8414172, 2.2775392]}}, {"type": "Feature", "properties": {"Name_CH": "\u6797\u6c0f\u540c\u5b97\u8054\u5408\u4f1a\u8bd7\u5deb\u5206\u4f1a", "Name_ML": null, "Name_EN": "Sarawak Ling's Clan Association Sibu Division", "Location": "5/Lot 24, Jalan Merdeka Barat, 96000 Sibu, Sarawak. P.O.Box 1366, 96008 Sibu, Sarawak.", "Region": "Sarawak", "Category": "\u8840\u7f18", "PageNumber": 357, "Country": "Malaysia", "latitude": 2.30157, "longitude": 111.83506}, "geometry": {"type": "Point", "coordinates": [111.83506, 2.30157]}}, {"type": "Feature", "properties": {"Name_CH": "\u7f8e\u91cc\u6c88\u6c0f\u516c\u4f1a", "Name_ML": null, "Name_EN": "Sim Association Miri", "Location": "Lot 2418, Lorong 5, Krokop, 98000 Miri, Sarawak.", "Region": "Sarawak", "Category": "\u8840\u7f18", "PageNumber": 357, "Country": "Malaysia", "latitude": 4.420565, "longitude": 113.997905}, "geometry": {"type": "Point", "coordinates": [113.997905, 4.420565]}}, {"type": "Feature", "properties": {"Name_CH": "\u7f8e\u91cc\u7701\u9ad8\u9633\u8bb8\u6c0f\u516c\u4f1a", "Name_ML": null, "Name_EN": "Miri Division Koh Yang Xu Clan Association", "Location": "Lot 1131, 3rd Floor, Waterfront Commercial Center, 98000 Miri, Sarawak", "Region": "Sarawak", "Category": "\u8840\u7f18", "PageNumber": 357, "Country": "Malaysia", "latitude": 4.3984513, "longitude": 113.9868326}, "geometry": {"type": "Point", "coordinates": [113.9868326, 4.3984513]}}, {"type": "Feature", "properties": {"Name_CH": "\u5218\u5b97\u821c\u516c\u4f1a", "Name_ML": null, "Name_EN": "Lao Chung Soon Clan Association", "Location": "18, Kelupu Road, 2nd Floor, Bintangor, Sarawak.", "Region": "Sarawak", "Category": "\u8840\u7f18", "PageNumber": 357, "Country": "Malaysia", "latitude": 2.1695116, "longitude": 111.6354225}, "geometry": {"type": "Point", "coordinates": [111.6354225, 2.1695116]}}, {"type": "Feature", "properties": {"Name_CH": "\u7f8e\u91cc\u8521\u6c0f\u516c\u4f1a", "Name_ML": "Persatuan Klan Chai Miri", "Name_EN": "Miri Chai Clan Association", "Location": "Lot 1338, (Block 1), Miri, Bintulu Road, 98000 Miri Sarawak.", "Region": "Sarawak", "Category": "\u8840\u7f18", "PageNumber": 357, "Country": "Malaysia", "latitude": 4.34526, "longitude": 113.9909639}, "geometry": {"type": "Point", "coordinates": [113.9909639, 4.34526]}}, {"type": "Feature", "properties": {"Name_CH": "\u7f8e\u91cc\u9648\u6c0f\u5b97\u4eb2\u4f1a", "Name_ML": "Persatuan Klan Chen Bahagian Miri", "Name_EN": "Clan Chen Association Miri", "Location": "102, Ground Floor, Jalan Bendahara, 98000 Miri, Sarawak.", "Region": "Sarawak", "Category": "\u8840\u7f18", "PageNumber": 357, "Country": "Malaysia", "latitude": 4.3927458, "longitude": 113.9859977}, "geometry": {"type": "Point", "coordinates": [113.9859977, 4.3927458]}}, {"type": "Feature", "properties": {"Name_CH": "\u7f8e\u91cc\u6c5f\u590f\u9ec4\u6c0f\u516c\u4f1a", "Name_ML": "Persatuan Klan Chiang Hsia Huang Miri", "Name_EN": "Miri Chiang Hsia Huang Clan Association", "Location": "Lot 2124, 1st Floor, Jalan Krokop Utama, 98000 Miri, Sarawak.", "Region": "Sarawak", "Category": "\u8840\u7f18", "PageNumber": 357, "Country": "Malaysia", "latitude": 4.421043, "longitude": 113.9979488}, "geometry": {"type": "Point", "coordinates": [113.9979488, 4.421043]}}, {"type": "Feature", "properties": {"Name_CH": "\u7f8e\u91cc\u7701\u6797\u6c0f\u5b97\u4eb2\u4f1a", "Name_ML": "Persatuan Klan Lin Bahagian Keempat Sarawak", "Name_EN": "Lin's Clan Association Miri", "Location": "Lot 1815, Lorong 6, Jalan Jee Foh, Krokop, 98000 Miri, Sarawak. P.O. Box 2246, Miri, Sarawak.", "Region": "Sarawak", "Category": "\u8840\u7f18", "PageNumber": 357, "Country": "Malaysia", "latitude": 4.4834476, "longitude": 114.0398157}, "geometry": {"type": "Point", "coordinates": [114.0398157, 4.4834476]}}, {"type": "Feature", "properties": {"Name_CH": "\u664b\u6c49\u7701\u9ec4\u6c0f\u516c\u4f1a", "Name_ML": "Persatuan Klang  Huang Bahagian Kuching Dan Samarahan", "Name_EN": null, "Location": null, "Region": "Sarawak", "Category": "\u8840\u7f18", "PageNumber": 357, "Country": "Malaysia", "latitude": 0.0, "longitude": 0.0}, "geometry": {"type": "Point", "coordinates": [0.0, 0.0]}}, {"type": "Feature", "properties": {"Name_CH": "\u7f8e\u91cc\u738b\u6c0f\u516c\u4f1a", "Name_ML": "Persatuan Klan Wang Miri", "Name_EN": "Miri Wang's Association", "Location": "Lot 1425, 2nd Floor, Krokop 5, 98000 Miri, Sarawak.", "Region": "Sarawak", "Category": "\u8840\u7f18", "PageNumber": 358, "Country": "Malaysia", "latitude": 4.4184448, "longitude": 114.0003203}, "geometry": {"type": "Point", "coordinates": [114.0003203, 4.4184448]}}, {"type": "Feature", "properties": {"Name_CH": "\u7802\u62c9\u8d8a\u7b2c\u4e09\u516d\u4e03\u7701\u6797\u6c0f\u540c\u5b97\u4e61\u5408\u4f1a\u8bd7\u5deb\u5206\u4f1a", "Name_ML": null, "Name_EN": "Sarawak Third Sixth Seventh Division Lin Clan Association Sibu Branch", "Location": "S/Lot 24, Jln Merdeka Barat, 96000 Sibu, Sarawak. P. O. Box1366, 96008 Sibu, Sarawak.", "Region": "Sarawak", "Category": "\u8840\u7f18", "PageNumber": 358, "Country": "Malaysia", "latitude": 2.3019285, "longitude": 111.8350626}, "geometry": {"type": "Point", "coordinates": [111.8350626, 2.3019285]}}, {"type": "Feature", "properties": {"Name_CH": "\u7802\u62c9\u8d8a\u8463\u626c\u5b97\u4eb2\u4f1a", "Name_ML": "Persatuan Klan Tung-Yang Sarawak", "Name_EN": "Sarawak Yung-Yang Clan Association", "Location": "298, 1st Floor, Jalan Datuk Wee Cheng Chiang, 93450 Kuching, Sarawak.", "Region": "Sarawak", "Category": "\u8840\u7f18", "PageNumber": 358, "Country": "Malaysia", "latitude": 1.5525407, "longitude": 110.3630312}, "geometry": {"type": "Point", "coordinates": [110.3630312, 1.5525407]}}, {"type": "Feature", "properties": {"Name_CH": "\u7802\u62c9\u8d8a\u9ad8\u9633\uff08\u8bb8\u6c0f\uff09\u516c\u4f1a", "Name_ML": null, "Name_EN": "Sarawak Koh Yang(Kho Clan) Association", "Location": "No. 488, Jalan Chawan, 93300 Kuching, Sarawak.", "Region": "Sarawak", "Category": "\u8840\u7f18", "PageNumber": 358, "Country": "Malaysia", "latitude": 1.5371085, "longitude": 110.3686259}, "geometry": {"type": "Point", "coordinates": [110.3686259, 1.5371085]}}, {"type": "Feature", "properties": {"Name_CH": "\u7802\u62c9\u8d8a\u7b2c\u4e09\u516d\u4e03\u7701\u9ad8\u9633\u8bb8\u6c0f\u516c\u4f1a", "Name_ML": "Persatuan Klan Koh Yang Hii(Koh) Bahagian Ketiga, Keenam Dan Ketujuh Sarawak", "Name_EN": "Sarawak 3rd, 6th & 7th Division Koh Yang Hii(Kho) Clan Assocoiation", "Location": "30, Brooke Drive 1, 96000 Sibu, Sarawak. P.O.Box1438, 96008 Sibu, Sarawak.", "Region": "Sarawak", "Category": "\u8840\u7f18", "PageNumber": 358, "Country": "Malaysia", "latitude": 2.2950694, "longitude": 111.8299694}, "geometry": {"type": "Point", "coordinates": [111.8299694, 2.2950694]}}, {"type": "Feature", "properties": {"Name_CH": "\u7802\u62c9\u8d8a\u5b9d\u6811\u5802\u8c22\u6c0f\u516c\u4f1a", "Name_ML": "Persatuan Shieh Bao Shuh Tarng Sarawak", "Name_EN": "Sarawak Bao Shuh Tarng Shieh Clan Association", "Location": "2A-E, 2nd Floor, Hardin Walk, 96000 Sibu, Sarawak. P.O..Box, 1570, 96008 Sibu, Sarawak.", "Region": "Sarawak", "Category": "\u8840\u7f18", "PageNumber": 358, "Country": "Malaysia", "latitude": 2.3556865, "longitude": 111.9522491}, "geometry": {"type": "Point", "coordinates": [111.9522491, 2.3556865]}}, {"type": "Feature", "properties": {"Name_CH": "\u7802\u62c9\u8d8a\u8521\u6c0f\u516c\u4f1a", "Name_ML": "Persatuan Klan Chai Sarawak", "Name_EN": "Sarawak Chai Clan Association", "Location": "Lot 230, Jln Abell Utara, 93100 Kuching, Sarawak.", "Region": "Sarawak", "Category": "\u8840\u7f18", "PageNumber": 358, "Country": "Malaysia", "latitude": 1.5563347, "longitude": 110.3573732}, "geometry": {"type": "Point", "coordinates": [110.3573732, 1.5563347]}}, {"type": "Feature", "properties": {"Name_CH": "\u7f8e\u91cc\u4f59\u6c0f\u51e4\u91c7\u5802", "Name_ML": "Persatuan Klan Yee(Fong Choi Hong)", "Name_EN": "Yee Clan(Fong Choi Hong) Association", "Location": "Lot 302, 1st Floor, Wisma Yee Loke, Jalan Jee Foh, Lorong 1, Krokop, 98000 Miri, Sarawak.", "Region": "Sarawak", "Category": "\u8840\u7f18", "PageNumber": 358, "Country": "Malaysia", "latitude": 4.4161704, "longitude": 114.0019478}, "geometry": {"type": "Point", "coordinates": [114.0019478, 4.4161704]}}, {"type": "Feature", "properties": {"Name_CH": "\u7f8e\u91cc\u6768\u6c0f\u5b97\u4eb2\u4f1a", "Name_ML": null, "Name_EN": "Miri Yong Clan Association", "Location": "15C, Frist Floor, Merbau Road, 98000 Miri, Sarawak.", "Region": "Sarawak", "Category": "\u8840\u7f18", "PageNumber": 358, "Country": "Malaysia", "latitude": 4.3967498, "longitude": 113.9903285}, "geometry": {"type": "Point", "coordinates": [113.9903285, 4.3967498]}}, {"type": "Feature", "properties": {"Name_CH": "\u7f8e\u91cc\u7530\u6c0f\u516c\u4f1a", "Name_ML": null, "Name_EN": "Miri Tian Association", "Location": "Lot 1815, F2, 1st Floor, Lorong 6, Jalan Jee Foh, Krokop, 98000 Miri, Sarawak.", "Region": "Sarawak", "Category": "\u8840\u7f18", "PageNumber": 358, "Country": "Malaysia", "latitude": 4.3584652, "longitude": 114.001226}, "geometry": {"type": "Point", "coordinates": [114.001226, 4.3584652]}}, {"type": "Feature", "properties": {"Name_CH": "\u7f8e\u91cc\u7701\u5f6d\u57ce\u5218\u6c0f\u516c\u4f1a", "Name_ML": "Persatuan Klan Lau Bahagian Miri", "Name_EN": null, "Location": "Lot 1815, 2nd floor, Lorong 6, Jalan Jee Foh, 98000 Miri, Sarawak.", "Region": "Sarawak", "Category": "\u8840\u7f18", "PageNumber": 358, "Country": "Malaysia", "latitude": 4.3584652, "longitude": 114.001226}, "geometry": {"type": "Point", "coordinates": [114.001226, 4.3584652]}}, {"type": "Feature", "properties": {"Name_CH": "\u7f8e\u91cc\u5434\u6c0f\u5b97\u4eb2\u4f1a", "Name_ML": "Persatuan Klan Goh Miri", "Name_EN": "Goh's Clan Association Miri", "Location": "42, Jalan Krokop Utama, 98000 Miri, Sarawak. P.O.Box 868, 98000 Miri, Sarawak.", "Region": "Sarawak", "Category": "\u8840\u7f18", "PageNumber": 358, "Country": "Malaysia", "latitude": 4.421043, "longitude": 113.9979488}, "geometry": {"type": "Point", "coordinates": [113.9979488, 4.421043]}}, {"type": "Feature", "properties": {"Name_CH": "\u7802\u62c9\u8d8a\u9a6c\u62c9\u7aef\u674e\u6c0f\u516c\u4f1a", "Name_ML": "Persatuan Kan Lee Maradong Sarawak", "Name_EN": "Lee's Clan Association Maradong Sarawak", "Location": "No. 22, Lorong Maju, 96500 Bintangor, Sarawak.", "Region": "Sarawak", "Category": "\u8840\u7f18", "PageNumber": 359, "Country": "Malaysia", "latitude": 2.1712387, "longitude": 111.6368807}, "geometry": {"type": "Point", "coordinates": [111.6368807, 2.1712387]}}, {"type": "Feature", "properties": {"Name_CH": "\u7802\u62c9\u8d8a\u9f99\u5cf0\u9ec4\u6c0f\u516c\u4f1a", "Name_ML": "Persatuan Klan Ling Hung Wong Sarawak", "Name_EN": "Sarawak Ling Hung Wong Clan Association", "Location": "No. 37, Brook Drive, 96000 Sibu, Sarawak.", "Region": "Sarawak", "Category": "\u8840\u7f18", "PageNumber": 359, "Country": "Malaysia", "latitude": 2.3556865, "longitude": 111.9522491}, "geometry": {"type": "Point", "coordinates": [111.9522491, 2.3556865]}}, {"type": "Feature", "properties": {"Name_CH": "\u7802\u62c9\u8d8a\u53e4\u664b\u9896\u5ddd\u9648\u6c0f\u516c\u4f1a", "Name_ML": "Persatuan Klan Ying Chuan Chen, Bhg Pertama, Sarawak", "Name_EN": "Ying Chuan Chen Clan Association Kuching Sarawak", "Location": "No. 96, 2nd Floor, Jalan Ang Cheng Ho, 93100, Kuching, Sarawak.", "Region": "Sarawak", "Category": "\u8840\u7f18", "PageNumber": 359, "Country": "Malaysia", "latitude": 1.5529831, "longitude": 110.3649399}, "geometry": {"type": "Point", "coordinates": [110.3649399, 1.5529831]}}, {"type": "Feature", "properties": {"Name_CH": "\u7802\u62c9\u8d8a\u664b\u6c49\u7701\u738b\u6c0f\u5b97\u4eb2\u4f1a", "Name_ML": "Persatuan Klang Wang Bahagian Kuching Dan Samarahan, Sarawak", "Name_EN": "Kuching And Samarahan Wang Chan Association Sarawak", "Location": "1st Floor Lot 8185 Section 64, KTLD Jalan Pending, 93450 Kuching, Sarawak.", "Region": "Sarawak", "Category": "\u8840\u7f18", "PageNumber": 359, "Country": "Malaysia", "latitude": 1.5505513, "longitude": 110.3773449}, "geometry": {"type": "Point", "coordinates": [110.3773449, 1.5505513]}}, {"type": "Feature", "properties": {"Name_CH": "\u7802\u62c9\u8d8a\u6c5f\u590f\u5802\u9ec4\u6c0f\u516c\u4f1a", "Name_ML": null, "Name_EN": "Sarawak Chiang Hsia Huang Clan Association", "Location": "No. 131 Jalan Ang Cheng Ho, 93100 Kuching, Sarawak.", "Region": "Sarawak", "Category": "\u8840\u7f18", "PageNumber": 359, "Country": "Malaysia", "latitude": 1.5526018, "longitude": 110.3668285}, "geometry": {"type": "Point", "coordinates": [110.3668285, 1.5526018]}}, {"type": "Feature", "properties": {"Name_CH": "\u7802\u62c9\u8d8a\u5f6d\u57ce\u5218\u6c0f\u516c\u4f1a", "Name_ML": "Persatuan Pan Chen Lau's Clan Sarawak", "Name_EN": "Sarawak Pan- Chen Laus Clan Association", "Location": "No. 8, 10, 12, Jalan Tapang Timur, 96000 Sibu, Sarawak.", "Region": "Sarawak", "Category": "\u8840\u7f18", "PageNumber": 359, "Country": "Malaysia", "latitude": 2.3191397, "longitude": 111.8323677}, "geometry": {"type": "Point", "coordinates": [111.8323677, 2.3191397]}}, {"type": "Feature", "properties": {"Name_CH": "\u7802\u62c9\u8d8a\u6cb3\u95f4\u4fde\u6c0f\u516c\u4f1a", "Name_ML": "Persatuan Klan Yu Ho Kang Sarawak", "Name_EN": "Sarawak Ho Kang Yu Clan Association", "Location": "No. 31, 1st Floor, Pusat Tanahwang, Jalan Pendada, Sarawak.", "Region": "Sarawak", "Category": "\u8840\u7f18", "PageNumber": 359, "Country": "Malaysia", "latitude": 1.5532783, "longitude": 110.3592127}, "geometry": {"type": "Point", "coordinates": [110.3592127, 1.5532783]}}, {"type": "Feature", "properties": {"Name_CH": "\u7802\u62c9\u8d8a\u664b\u6c49\u7701\u949f\u6c0f\u5b97\u4eb2\u4f1a", "Name_ML": "Persatuan Klan Chung Bahagian Kuching Samarahan Sarawak", "Name_EN": "Sarawak Kuching Samarahan Division Chung Clan", "Location": "Cc 201. MJC Batu Kawa New Township, Jalan Batu Kawah, 93250 Kuching, Sarawak.", "Region": "Sarawak", "Category": "\u8840\u7f18", "PageNumber": 359, "Country": "Malaysia", "latitude": 1.5126944, "longitude": 110.3077162}, "geometry": {"type": "Point", "coordinates": [110.3077162, 1.5126944]}}, {"type": "Feature", "properties": {"Name_CH": "\u7802\u62c9\u8d8a\u6c11\u90fd\u9c81\u674e\u6c0f\u516c\u4f1a", "Name_ML": "Persatuan Klan Lee Bintulu Sarawak", "Name_EN": null, "Location": "No. 30, 1st Floor, BDA- Shahida Commercial Centre, 97000 Bintulu, Sarawak.", "Region": "Sarawak", "Category": "\u8840\u7f18", "PageNumber": 359, "Country": "Malaysia", "latitude": 3.172669, "longitude": 113.0396111}, "geometry": {"type": "Point", "coordinates": [113.0396111, 3.172669]}}, {"type": "Feature", "properties": {"Name_CH": "\u7802\u62c9\u8d8a\u5f6d\u57ce\u94b1\u6c0f\u516c\u4f1a", "Name_ML": "Persatuan Klan Peng Cheng Chieng Sarawak", "Name_EN": null, "Location": "12, 1st Floor, Jalan Bank, 96100 Sarikei, Sarawak.", "Region": "Sarawak", "Category": "\u8840\u7f18", "PageNumber": 359, "Country": "Malaysia", "latitude": 2.132443, "longitude": 111.519123}, "geometry": {"type": "Point", "coordinates": [111.519123, 2.132443]}}, {"type": "Feature", "properties": {"Name_CH": "\u7802\u62c9\u8d8a\u9647\u897f\u516c\u4f1a", "Name_ML": "Persatuan Lung-Si Sarawak", "Name_EN": "Sarawak Lung-Si Association", "Location": "No. 115 & 117(3rd Floor) Jln Haji Taha, 93400 Kuching, Sarawak.", "Region": "Sarawak", "Category": "\u8840\u7f18", "PageNumber": 359, "Country": "Malaysia", "latitude": 1.5554398, "longitude": 110.3384479}, "geometry": {"type": "Point", "coordinates": [110.3384479, 1.5554398]}}, {"type": "Feature", "properties": {"Name_CH": "\u7802\u62c9\u8d8a\u9a6c\u62c9\u7aef\u9648\u6c0f\u516c\u4f1a", "Name_ML": null, "Name_EN": "Chen Clan Association Maradong Sarawak", "Location": "53 2nd Floor, Jalan Dermaga, 96500 Bintangor, Sarawak.", "Region": "Sarawak", "Category": "\u8840\u7f18", "PageNumber": 359, "Country": "Malaysia", "latitude": 2.170161, "longitude": 111.634866}, "geometry": {"type": "Point", "coordinates": [111.634866, 2.170161]}}, {"type": "Feature", "properties": {"Name_CH": "\u7802\u62c9\u8d8a\u5f20\u6c0f\u516c\u4f1a", "Name_ML": "Persatuan Klan Zhang Negeri Sarawak", "Name_EN": "Sarawak Zhang Clan Association", "Location": "39-43, 3rd Floor, Lorong Upper Lanang 12C, Pusat Suria Permata, 96008 Sibu, Sarawak. P.O.Box 598, 96008 Sibu, Sarawak.", "Region": "Sarawak", "Category": "\u8840\u7f18", "PageNumber": 360, "Country": "Malaysia", "latitude": 2.2431629, "longitude": 111.8440525}, "geometry": {"type": "Point", "coordinates": [111.8440525, 2.2431629]}}, {"type": "Feature", "properties": {"Name_CH": "\u8bd7\u5deb\u7701\u988d\u5ddd\u9648\u6c0f\u516c\u4f1a", "Name_ML": "Persatuan Klan Chen (Ling Chung) Bhg. Sibu, Sarawak", "Name_EN": null, "Location": "14, 3rd Floor, Tan Sri Road, 96000 Sibu, Sarawak.", "Region": "Sarawak", "Category": "\u8840\u7f18", "PageNumber": 360, "Country": "Malaysia", "latitude": 2.3556865, "longitude": 111.9522491}, "geometry": {"type": "Point", "coordinates": [111.9522491, 2.3556865]}}, {"type": "Feature", "properties": {"Name_CH": "\u7802\u62c9\u8d8a\u738b\u6c0f\uff08\u6c5d\u796f\uff09\u516c\u4f1a", "Name_ML": null, "Name_EN": "Wong's Clan (Nue Ding) Association ", "Location": "P. O. Box 176, 96107, Sarikei, Sarawak.", "Region": "Sarawak", "Category": "\u8840\u7f18", "PageNumber": 360, "Country": "Malaysia", "latitude": 2.131703, "longitude": 111.5237279}, "geometry": {"type": "Point", "coordinates": [111.5237279, 2.131703]}}, {"type": "Feature", "properties": {"Name_CH": "\u7802\u62c9\u8d8a\u59da\u6c0f\u516c\u4f1a", "Name_ML": "Persatuan Klan Yew' s (Yeu Yeo) Sarawak", "Name_EN": "Yew' s Klan (Yeu Yeo) Association", "Location": "P.O. Box 302, 96100 Sarikei, Sarawak.", "Region": "Sarawak", "Category": "\u8840\u7f18", "PageNumber": 360, "Country": "Malaysia", "latitude": 1.9577523, "longitude": 111.6183755}, "geometry": {"type": "Point", "coordinates": [111.6183755, 1.9577523]}}, {"type": "Feature", "properties": {"Name_CH": "\u7802\u62c9\u8d8a\u5f90\u6c0f\u516c\u4f1a", "Name_ML": null, "Name_EN": "Chee Clan Asscoation Sarawak", "Location": "18B, 2nd F1, Hardin Walk, 96000 Sibu Sarawak.", "Region": "Sarawak", "Category": "\u8840\u7f18", "PageNumber": 360, "Country": "Malaysia", "latitude": 2.2902482, "longitude": 111.8321171}, "geometry": {"type": "Point", "coordinates": [111.8321171, 2.2902482]}}, {"type": "Feature", "properties": {"Name_CH": "\u7802\u62c9\u8d8a\u6cd7\u91cc\u8857\u7d2b\u6768\u6731\u6c0f\u516c\u4f1a", "Name_ML": "Persatuan Klan Tzu Yang Choo, Sarikei Sarawak", "Name_EN": "Klan Tzu Yang Choo Association, Sarikei, Sarawak", "Location": "No. 36, BDC Nyelog Industrial Estate, 96100 Sarikei, Sarawak.", "Region": "Sarawak", "Category": "\u8840\u7f18", "PageNumber": 360, "Country": "Malaysia", "latitude": 1.9577523, "longitude": 111.6183755}, "geometry": {"type": "Point", "coordinates": [111.6183755, 1.9577523]}}, {"type": "Feature", "properties": {"Name_CH": "\u7802\u62c9\u8d8a\u8bd7\u5deb\u8363\u9633\u90d1\u6c0f\u516c\u4f1a", "Name_ML": null, "Name_EN": "Sarawak Sibu Cheng's CLan Association ", "Location": "70, 3rd Floor Kg. Nyabor Road, 96000 Sibu, Sarawak.", "Region": "Sarawak", "Category": "\u8840\u7f18", "PageNumber": 360, "Country": "Malaysia", "latitude": 2.2889534, "longitude": 111.8302179}, "geometry": {"type": "Point", "coordinates": [111.8302179, 2.2889534]}}, {"type": "Feature", "properties": {"Name_CH": "\u7802\u62c9\u8d8a\u897f\u6cb3\uff08\u6797\u6c0f\uff09\u516c\u4f1a", "Name_ML": "Persatuan Sarawak Si Ho (Lim Clan)", "Name_EN": "Sarawak Si Ho (Lim Clan ) Association ", "Location": "No.287 Jalan Datuk Wee Kheng Chiang, 93450 Kuching, Sarawak.", "Region": "Sarawak", "Category": "\u8840\u7f18", "PageNumber": 360, "Country": "Malaysia", "latitude": 1.5525129, "longitude": 110.3635894}, "geometry": {"type": "Point", "coordinates": [110.3635894, 1.5525129]}}, {"type": "Feature", "properties": {"Name_CH": "\u8bd7\u5deb\u7701\u5434\u6c0f\u5b97\u4eb2\u4f1a", "Name_ML": "Persatuan Kkan Wu Sibu", "Name_EN": "Wu Clan Association Sibu", "Location": "No. 3C, Tingkat 2, Jalan Foochow, 96000 Sibu, Sarawak. P.O.Box 1225, 96008 Sibu, Sarawak.", "Region": "Sarawak", "Category": "\u8840\u7f18", "PageNumber": 360, "Country": "Malaysia", "latitude": 2.2895309, "longitude": 111.8307825}, "geometry": {"type": "Point", "coordinates": [111.8307825, 2.2895309]}}, {"type": "Feature", "properties": {"Name_CH": "\u7802\u62c9\u8d8a\u4e2d\u533a\u6c5f\u590f\u9ec4\u6c0f\u516c\u4f1a", "Name_ML": "Persatuan Klan Chiang Hsia Huang Sarawak Tengah", "Name_EN": "Sarawak Central Chiang Hsia Hwang Clan Association", "Location": "171, Jalan Kampong Nyabor, 96000 Sibu Sarawak. P.O. Box 569, 96007 Sibu, Sarawak.", "Region": "Sarawak", "Category": "\u8840\u7f18", "PageNumber": 360, "Country": "Malaysia", "latitude": 2.2903773, "longitude": 111.828991}, "geometry": {"type": "Point", "coordinates": [111.828991, 2.2903773]}}, {"type": "Feature", "properties": {"Name_CH": "\u7802\u62c9\u8d8a\u6cd7\u91cc\u8857\u674e\u6c0f\u516c\u4f1a", "Name_ML": "Persatuan Klan Lee, Sarikei Sarawak", "Name_EN": "Lee' s Clan Association, Sarikei Sarawak", "Location": "No. 63, Jalan Repok, Sarikei, 96108 Sarikei, Sarawak.", "Region": "Sarawak", "Category": "\u8840\u7f18", "PageNumber": 360, "Country": "Malaysia", "latitude": 2.130805, "longitude": 111.521658}, "geometry": {"type": "Point", "coordinates": [111.521658, 2.130805]}}, {"type": "Feature", "properties": {"Name_CH": "\u7802\u62c9\u8d8a\u4f59\u6c0f\u516c\u4f1a", "Name_ML": "Persatuan Klan Yii Sarawak", "Name_EN": "Yii Clan Association, Sarawak", "Location": "24, 1st F1. Pusat Tanahwang, Jalan Pedada, 96000 Sibu, Sarawak.", "Region": "Sarawak", "Category": "\u8840\u7f18", "PageNumber": 360, "Country": "Malaysia", "latitude": 2.2893781, "longitude": 111.8333437}, "geometry": {"type": "Point", "coordinates": [111.8333437, 2.2893781]}}, {"type": "Feature", "properties": {"Name_CH": "\u5df4\u5357\u4e2d\u534e\u5546\u4f1a", "Name_ML": null, "Name_EN": "Chinese Chamber of Commerce Baram", "Location": "62, Jalan KapitanLim Ching Kiat, 98050 Marudi, Baram, Sarawak. P.O.Box 48, Marudi, 98057 Baram, Sarawak.", "Region": "Sarawak", "Category": "\u4e1a\u7f18", "PageNumber": 361, "Country": "Malaysia", "latitude": 4.1194297, "longitude": 114.3816818}, "geometry": {"type": "Point", "coordinates": [114.3816818, 4.1194297]}}, {"type": "Feature", "properties": {"Name_CH": "\u6cd7\u91cc\u8857\u6cb3\u95f4\u4fde\u6c0f\u516c\u4f1a", "Name_ML": "Persatuan Klan Yu Ho Kang Sarikei", "Name_EN": null, "Location": "17, Repok Road, 96100 Sarikei, Sarawak.", "Region": "Sarawak", "Category": "\u8840\u7f18", "PageNumber": 361, "Country": "Malaysia", "latitude": 2.1320141, "longitude": 111.5213284}, "geometry": {"type": "Point", "coordinates": [111.5213284, 2.1320141]}}, {"type": "Feature", "properties": {"Name_CH": "\u8fbe\u4e50\u4e2d\u534e\u5546\u4f1a", "Name_ML": null, "Name_EN": "Chinese Chamber of Commerce Daro", "Location": "Daro Bazaar, Daro, Sarawak.", "Region": "Sarawak", "Category": "\u4e1a\u7f18", "PageNumber": 361, "Country": "Malaysia", "latitude": 2.527996, "longitude": 111.417057}, "geometry": {"type": "Point", "coordinates": [111.417057, 2.527996]}}, {"type": "Feature", "properties": {"Name_CH": "\u6cd7\u91cc\u8857\u8bb8\u6c0f\u516c\u4f1a", "Name_ML": "Persatuan Klan Hii Sarikei", "Name_EN": null, "Location": "No. 43, Tingkat 1, Jalan Bank, 96100 Sarikei, Sarawak.", "Region": "Sarawak", "Category": "\u8840\u7f18", "PageNumber": 361, "Country": "Malaysia", "latitude": 2.1322456, "longitude": 111.5190049}, "geometry": {"type": "Point", "coordinates": [111.5190049, 2.1322456]}}, {"type": "Feature", "properties": {"Name_CH": "\u6cd7\u91cc\u8857\u90d1\u6c0f\u516c\u4f1a", "Name_ML": "Persatuan Klan Ying-Yong Cheng Sarikei", "Name_EN": "Sarikei Ying-Yong Cheng' s Clan Association", "Location": "No. 15, Jalan Bank, 96100 Sarikei, Sarawak.", "Region": "Sarawak", "Category": "\u8840\u7f18", "PageNumber": 361, "Country": "Malaysia", "latitude": 2.132273, "longitude": 111.5188549}, "geometry": {"type": "Point", "coordinates": [111.5188549, 2.132273]}}, {"type": "Feature", "properties": {"Name_CH": "\u52a1\u5b9e\u7684\u6c88\u6c0f\u516c\u4f1a", "Name_ML": null, "Name_EN": "Sim Association Bekann", "Location": "Lot No. 3055, Bekenn, P.O.Box 6, 98157 Bekenn, Sarawak.", "Region": "Sarawak", "Category": "\u8840\u7f18", "PageNumber": 361, "Country": "Malaysia", "latitude": 1.5532783, "longitude": 110.3592127}, "geometry": {"type": "Point", "coordinates": [110.3592127, 1.5532783]}}, {"type": "Feature", "properties": {"Name_CH": "\u6cd7\u91cc\u8857\u9648\u6c0f\u516c\u4f1a", "Name_ML": "Persatuan Klan Chen Sarikei", "Name_EN": null, "Location": "5, Central Road, 96100 Sarikei, Sarawak.", "Region": "Sarawak", "Category": "\u8840\u7f18", "PageNumber": 361, "Country": "Malaysia", "latitude": 1.9577523, "longitude": 111.6183755}, "geometry": {"type": "Point", "coordinates": [111.6183755, 1.9577523]}}, {"type": "Feature", "properties": {"Name_CH": "\u6cd7\u91cc\u8857\u5f20\u6c0f\u516c\u4f1a", "Name_ML": "Persatuan Klan Zhang Sarikei", "Name_EN": null, "Location": "65, Jalan Repok, Sarikei, Sarawak.", "Region": "Sarawak", "Category": "\u8840\u7f18", "PageNumber": 361, "Country": "Malaysia", "latitude": 2.1302359, "longitude": 111.5218408}, "geometry": {"type": "Point", "coordinates": [111.5218408, 2.1302359]}}, {"type": "Feature", "properties": {"Name_CH": "\u7b2c\u4e09\u516d\u4e03\u7701\u5feb\u8247\u822a\u4e1a\u516c\u4f1a", "Name_ML": null, "Name_EN": "Sarawak 3rd, 6th, 7th Division Ecpress Navigation Association", "Location": "13, 2nd Floor, Khoo Peng Loong Road, 96000 Sibu, Sarawak.", "Region": "Sarawak", "Category": "\u4e1a\u7f18", "PageNumber": 361, "Country": "Malaysia", "latitude": 2.286292, "longitude": 111.828488}, "geometry": {"type": "Point", "coordinates": [111.828488, 2.286292]}}, {"type": "Feature", "properties": {"Name_CH": "\u6cd7\u91cc\u8857\u51af\u6c0f\u516c\u4f1a", "Name_ML": "Persatuan Klan Fung Sarikei Sarawak", "Name_EN": null, "Location": "3, 3rd Floor, Jalan Merdeka, 96108 Sarikei, Sarawak.", "Region": "Sarawak", "Category": "\u8840\u7f18", "PageNumber": 361, "Country": "Malaysia", "latitude": 2.131373, "longitude": 111.521016}, "geometry": {"type": "Point", "coordinates": [111.521016, 2.131373]}}, {"type": "Feature", "properties": {"Name_CH": "\u6cd7\u91cc\u8857\u5f6d\u57ce\u5218\u6c0f\u516c\u4f1a", "Name_ML": "Persatuan Klan Pan Chen Lau, Sarikei", "Name_EN": "Sarikei Pan Chen Laus Clan Association", "Location": "17, Jalan Jubli Mutiara, 96100 Sarikei, Sarawak. P.O.Box 120, 96107 Sarikei, Sarawak.", "Region": "Sarawak", "Category": "\u8840\u7f18", "PageNumber": 361, "Country": "Malaysia", "latitude": 2.1310668, "longitude": 111.524613}, "geometry": {"type": "Point", "coordinates": [111.524613, 2.1310668]}}, {"type": "Feature", "properties": {"Name_CH": "\u53e4\u664b\u7801\u5934\u5de5\u53cb\u4ea7\u4e1a\u516c\u4f1a", "Name_ML": null, "Name_EN": "The Kuching Wharf Labourers Assciation", "Location": "No. 22, Tingkat 1, Carpenter Street, 93000 Kuching, Sarawak.", "Region": "Sarawak", "Category": "\u4e1a\u7f18", "PageNumber": 362, "Country": "Malaysia", "latitude": 1.558851, "longitude": 110.345289}, "geometry": {"type": "Point", "coordinates": [110.345289, 1.558851]}}, {"type": "Feature", "properties": {"Name_CH": "\u53e4\u664b\u534e\u4eba\u6e14\u8239\u516c\u4f1a", "Name_ML": "Persatuan Kolak Pengankap Ikan Kuching", "Name_EN": "Kuching Fishing Kolak Association", "Location": "P.O.Box 1139, 93712 Kuching, Sarawak.", "Region": "Sarawak", "Category": "\u4e1a\u7f18", "PageNumber": 362, "Country": "Malaysia", "latitude": 1.553504, "longitude": 110.3592927}, "geometry": {"type": "Point", "coordinates": [110.3592927, 1.553504]}}, {"type": "Feature", "properties": {"Name_CH": "\u53e4\u664b\u7701\u62d6\u7eb2\u6e14\u8239\u516c\u4f1a", "Name_ML": "Persatuan Kapal Pukat Tunda Bahagian Kuching", "Name_EN": "Kuching Division Trawlers' Association", "Location": "P.O.Box 1139, 93712 Kuching, Sarawak.", "Region": "Sarawak", "Category": "\u4e1a\u7f18", "PageNumber": 362, "Country": "Malaysia", "latitude": 1.553504, "longitude": 110.3592927}, "geometry": {"type": "Point", "coordinates": [110.3592927, 1.553504]}}, {"type": "Feature", "properties": {"Name_CH": "\u664b\u6c49\u7701\u5efa\u7b51\u5546\u516c\u4f1a", "Name_ML": "Persatuan Kontraktor Binaan Dan Kejuruteraan Bahagian Kuching Dan Samarahan", "Name_EN": "Kuching Samarahan Division Building & Civil Engineering Contractors Association", "Location": "2nd Floor, Lot 493 Jalan Ang Cleeng Ho, Lorong 11A, 93100 Kuching, Sarawak.", "Region": "Sarawak", "Category": "\u4e1a\u7f18", "PageNumber": 362, "Country": "Malaysia", "latitude": 1.554369, "longitude": 110.356202}, "geometry": {"type": "Point", "coordinates": [110.356202, 1.554369]}}, {"type": "Feature", "properties": {"Name_CH": "\u664b\u6c49\u7701\u5c60\u4e1a\u516c\u4f1a", "Name_ML": "Persatuan T'  oo Nyap Bahagian Kuching Dan Samarahan", "Name_EN": null, "Location": "Lot 818, Sungai Hoping Road, 93450 Kuching, Sarawak.", "Region": "Sarawak", "Category": "\u4e1a\u7f18", "PageNumber": 362, "Country": "Malaysia", "latitude": 1.3629577, "longitude": 110.2951364}, "geometry": {"type": "Point", "coordinates": [110.2951364, 1.3629577]}}, {"type": "Feature", "properties": {"Name_CH": "\u53e4\u664b\u4e94\u91d1\u5546\u516c\u4f1a", "Name_ML": null, "Name_EN": "Kuching Hardware Merchants' Association", "Location": "169 Padungan Road, 93100 Kuching, Sarawak.", "Region": "Sarawak", "Category": "\u4e1a\u7f18", "PageNumber": 362, "Country": "Malaysia", "latitude": 1.5548488, "longitude": 110.3568189}, "geometry": {"type": "Point", "coordinates": [110.3568189, 1.5548488]}}, {"type": "Feature", "properties": {"Name_CH": "\u664b\u6c49\u7701\u8d29\u5546\u8054\u5408\u4f1a", "Name_ML": "Persatuan Penjaja Dan Peniaga Bahagian Kuching Dan Samarahan", "Name_EN": null, "Location": "2nd Floor, Lot 231, Padungan Road, Kuching, Sarawak.", "Region": "Sarawak", "Category": "\u4e1a\u7f18", "PageNumber": 362, "Country": "Malaysia", "latitude": 1.553903, "longitude": 110.358086}, "geometry": {"type": "Point", "coordinates": [110.358086, 1.553903]}}, {"type": "Feature", "properties": {"Name_CH": "\u53e4\u664b\u7701\u5496\u5561\u5546\u516c\u4f1a", "Name_ML": "Persatuan Keoai Kopi", "Name_EN": "Kuching Coffee Shop Association", "Location": "No 37, 1st Floor, Jalan Petanak, 93100 Kuching, Sarawak.", "Region": "Sarawak", "Category": "\u4e1a\u7f18", "PageNumber": 362, "Country": "Malaysia", "latitude": 1.554001, "longitude": 110.362907}, "geometry": {"type": "Point", "coordinates": [110.362907, 1.554001]}}, {"type": "Feature", "properties": {"Name_CH": "\u5cc7\u90fd\u4e2d\u534e\u5546\u4f1a", "Name_ML": null, "Name_EN": "Chinese Chamber of Commerce Matu", "Location": "1, Old Bazaar, Matu, Sarawak.", "Region": "Sarawak", "Category": "\u4e1a\u7f18", "PageNumber": 362, "Country": "Malaysia", "latitude": 2.695497, "longitude": 111.4716679}, "geometry": {"type": "Point", "coordinates": [111.4716679, 2.695497]}}, {"type": "Feature", "properties": {"Name_CH": "\u7b2c\u4e09\u516d\u4e03\u7701\u822f\u8221\u516c\u4f1a", "Name_ML": "Persatuan Tong Kang Bahagian 3, 6, 7", "Name_EN": "3, 6th & 7th Division Tong Kang Assocoation", "Location": "P.O. Box 1443, 4th Floor, Wisma Chinese Chamber of Commerce & Industry Jalan Chamber, 96008 Sibu, Sarawak.", "Region": "Sarawak", "Category": "\u4e1a\u7f18", "PageNumber": 362, "Country": "Malaysia", "latitude": 2.2877289, "longitude": 111.8301589}, "geometry": {"type": "Point", "coordinates": [111.8301589, 2.2877289]}}, {"type": "Feature", "properties": {"Name_CH": "\u6797\u68a6\u5496\u5561\u9152\u9910\u5546\u516c\u4f1a", "Name_ML": null, "Name_EN": "Limbang Restaurant & Cafe Association", "Location": "53, Jalan Buangsiol, 98700 Limbang, Sarawak.", "Region": "Sarawak", "Category": "\u4e1a\u7f18", "PageNumber": 362, "Country": "Malaysia", "latitude": 4.7576197, "longitude": 115.0070135}, "geometry": {"type": "Point", "coordinates": [115.0070135, 4.7576197]}}, {"type": "Feature", "properties": {"Name_CH": "\u664b\u6c49\u7701\u50a8\u84c4\u4e1a\u516c\u4f1a", "Name_ML": "Persatuan Perternak Bintang Peliharan Bhg Kuching Sarawak", "Name_EN": "Kuching & Samarahan Division Livestock Breaders Association", "Location": "No.119, 1st Floor Kota Sentosa, 7th Miles Jalan Penrissen, 93250 Kuching, Sarawak.", "Region": "Sarawak", "Category": "\u4e1a\u7f18", "PageNumber": 362, "Country": "Malaysia", "latitude": 1.4739225, "longitude": 110.3293087}, "geometry": {"type": "Point", "coordinates": [110.3293087, 1.4739225]}}, {"type": "Feature", "properties": {"Name_CH": "\u6c11\u4e39\u83aa\u8f66\u8f86\u4fee\u7406\u540c\u4e1a\u516c\u4f1a", "Name_ML": "Persatuan Pembaiki Automobil Bintangor", "Name_EN": "Bintangor Automobil Repairer Association", "Location": "21A, Jalan Ted Kui Ngok, 96500 Bintangor, Sarawak.", "Region": "Sarawak", "Category": "\u4e1a\u7f18", "PageNumber": 363, "Country": "Malaysia", "latitude": 2.102612, "longitude": 111.7137694}, "geometry": {"type": "Point", "coordinates": [111.7137694, 2.102612]}}, {"type": "Feature", "properties": {"Name_CH": "\u9a6c\u62c9\u7aef\u79cd\u690d\u4eba\u516c\u4f1a", "Name_ML": "Persatuan Kebajikan & Sosial Pekebun Meradong", "Name_EN": null, "Location": "17, Janlan Mahkamah 96507 Bintangor, Sarawak.", "Region": "Sarawak", "Category": "\u4e1a\u7f18", "PageNumber": 363, "Country": "Malaysia", "latitude": 2.1699284, "longitude": 111.6356296}, "geometry": {"type": "Point", "coordinates": [111.6356296, 2.1699284]}}, {"type": "Feature", "properties": {"Name_CH": "\u7f8e\u91cc\u7701\u836f\u5546\u516c\u4f1a", "Name_ML": "Persatuan Perniagaan Ubat Bahagian Miri", "Name_EN": "Miri Drug Merchants' Association", "Location": "Lot 1815, 2nd Floor, Lorong 6, Krokop, 98000 Miri, Sarawak. P.O.Box1488, 98008 Miri, Sarawak.", "Region": "Sarawak", "Category": "\u4e1a\u7f18", "PageNumber": 363, "Country": "Malaysia", "latitude": 4.422484, "longitude": 113.997806}, "geometry": {"type": "Point", "coordinates": [113.997806, 4.422484]}}, {"type": "Feature", "properties": {"Name_CH": "\u7f8e\u91cc\u7f57\u5398\u8f66\u4e3b\u516c\u4f1a", "Name_ML": "Persatuan Pemilik Lori Miri", "Name_EN": "Miri Lorry Owner' s Association", "Location": "Lot 1410, Miri Pujut Road, 98000 Miri, Sarawak. P.O.Box 868, 98000 Miri, Sarawak.", "Region": "Sarawak", "Category": "\u4e1a\u7f18", "PageNumber": 363, "Country": "Malaysia", "latitude": 4.396652, "longitude": 113.993744}, "geometry": {"type": "Point", "coordinates": [113.993744, 4.396652]}}, {"type": "Feature", "properties": {"Name_CH": "\u7f8e\u91cc\u5e97\u5458\u4e92\u52a9\u793e", "Name_ML": null, "Name_EN": "Miri Shop Workers Associaion", "Location": "Lot 653, Nahkoda Gampar Road, 98000 Miri, Sarawak.", "Region": "Sarawak", "Category": "\u4e1a\u7f18", "PageNumber": 363, "Country": "Malaysia", "latitude": 4.3950783, "longitude": 113.9876894}, "geometry": {"type": "Point", "coordinates": [113.9876894, 4.3950783]}}, {"type": "Feature", "properties": {"Name_CH": "\u7f8e\u91cc\u6e14\u4e1a\u516c\u4f1a", "Name_ML": "Persatuan Perusahan Ikan Miri", "Name_EN": "The Miri Fishery Association", "Location": "1st Floor, No.2, Jalan Bendahara, 98000 Miri, Sarawak.", "Region": "Sarawak", "Category": "\u4e1a\u7f18", "PageNumber": 363, "Country": "Malaysia", "latitude": 4.3936199, "longitude": 113.98632}, "geometry": {"type": "Point", "coordinates": [113.98632, 4.3936199]}}, {"type": "Feature", "properties": {"Name_CH": "\u7f8e\u91cc\u4e2d\u534e\u5de5\u5546\u603b\u4f1a", "Name_ML": null, "Name_EN": "Miri Chinese Chamber of Commerce and Industry", "Location": "28, High Street, 98000 Miri, Sarawak.", "Region": "Sarawak", "Category": "\u4e1a\u7f18", "PageNumber": 363, "Country": "Malaysia", "latitude": 4.39264, "longitude": 113.987347}, "geometry": {"type": "Point", "coordinates": [113.987347, 4.39264]}}, {"type": "Feature", "properties": {"Name_CH": "\u6797\u68a6\u4e2d\u534e\u5546\u4f1a", "Name_ML": null, "Name_EN": "Chinese Chamber of Commerce Limbang", "Location": "Lot 316, 3rd Floor, Bank Street, 98700 Limbang, Sarawak.", "Region": "Sarawak", "Category": "\u4e1a\u7f18", "PageNumber": 363, "Country": "Malaysia", "latitude": 4.760441, "longitude": 115.006378}, "geometry": {"type": "Point", "coordinates": [115.006378, 4.760441]}}, {"type": "Feature", "properties": {"Name_CH": "\u6797\u68a6\u5c0f\u8d29\u8054\u516c\u4f1a", "Name_ML": null, "Name_EN": "Limbang United Hawkers Association", "Location": "Ang Ching Hong Buiding, Jalan Bangkita, Limbang, Sarawak.", "Region": "Sarawak", "Category": "\u4e1a\u7f18", "PageNumber": 363, "Country": "Malaysia", "latitude": 4.754785, "longitude": 115.009688}, "geometry": {"type": "Point", "coordinates": [115.009688, 4.754785]}}, {"type": "Feature", "properties": {"Name_CH": "\u7f8e\u91cc\u624b\u673a\u540c\u4e1a\u516c\u4f1a", "Name_ML": "Persatuan Pengedar Telefon Bimbit Miri", "Name_EN": "Miri Mobile Phone Dealer' s Association", "Location": "P.O.Box 916, No. 10, Jalan Parry 98008 Miri, Sarawak.", "Region": "Sarawak", "Category": "\u4e1a\u7f18", "PageNumber": 363, "Country": "Malaysia", "latitude": 4.3982585, "longitude": 113.990535}, "geometry": {"type": "Point", "coordinates": [113.990535, 4.3982585]}}, {"type": "Feature", "properties": {"Name_CH": "\u7f8e\u91cc\u517b\u7272\u516c\u4f1a", "Name_ML": "Persatuan Penternak Dan Ayam Itik", "Name_EN": "Miri Animal And Poultry Breders Association", "Location": "P.O.Box 917, 98008 Miri Sarawak.", "Region": "Sarawak", "Category": "\u4e1a\u7f18", "PageNumber": 363, "Country": "Malaysia", "latitude": 4.399493, "longitude": 113.9913832}, "geometry": {"type": "Point", "coordinates": [113.9913832, 4.399493]}}, {"type": "Feature", "properties": {"Name_CH": "\u9a6c\u4e2d\u8d38\u6613\u8fdb\u51fa\u53e3\u5546\u4f1a", "Name_ML": "Persatuan Pengimport Dan Pengekspot Perniagaan Negera Cina, Kuching", "Name_EN": "Kuching China Trades Importers & Exporters Association", "Location": null, "Region": "Sarawak", "Category": "\u4e1a\u7f18", "PageNumber": 363, "Country": "Malaysia", "latitude": 0.0, "longitude": 0.0}, "geometry": {"type": "Point", "coordinates": [0.0, 0.0]}}, {"type": "Feature", "properties": {"Name_CH": "\u7802\u62c9\u8d8a\u7b2c\u4e00\u7701\u6d0b\u670d\u5546\u516c\u4f1a", "Name_ML": null, "Name_EN": "Sarawak First Division Tailors' Association", "Location": "Floor 1, Br 207 Batu Kawah New Township, Jalan Batu Kawa, 92250 Kuching, Sarawak.", "Region": "Sarawak", "Category": "\u4e1a\u7f18", "PageNumber": 364, "Country": "Malaysia", "latitude": 1.5149729, "longitude": 110.306264}, "geometry": {"type": "Point", "coordinates": [110.306264, 1.5149729]}}, {"type": "Feature", "properties": {"Name_CH": "\u7802\u62c9\u8d8a\u77f3\u6cb9\u4ea7\u54c1\u4ee3\u7406\u5546\u516c\u4f1a", "Name_ML": null, "Name_EN": "Sarawak Petroleum Product Agents Association", "Location": "Lot 98-99(1st Floor) Kuching Hockien Association Building, Jalan Green, 93100 Kuching, Sarawak.", "Region": "Sarawak", "Category": "\u4e1a\u7f18", "PageNumber": 364, "Country": "Malaysia", "latitude": 1.5564078, "longitude": 110.3490035}, "geometry": {"type": "Point", "coordinates": [110.3490035, 1.5564078]}}, {"type": "Feature", "properties": {"Name_CH": "\u7802\u62c9\u8d8a\u53e4\u664b\u7701\u836f\u5546\u516c\u4f1a", "Name_ML": null, "Name_EN": "Kuching Drug Merchants Association, Sarawak", "Location": "No.63, Ban Hock 93100 Kuching, Sarawak.", "Region": "Sarawak", "Category": "\u4e1a\u7f18", "PageNumber": 364, "Country": "Malaysia", "latitude": 1.5525659, "longitude": 110.3511753}, "geometry": {"type": "Point", "coordinates": [110.3511753, 1.5525659]}}, {"type": "Feature", "properties": {"Name_CH": "\u7802\u62c9\u8d8a\u7535\u5668\u516c\u4f1a", "Name_ML": null, "Name_EN": "Sarawak Electrical Association", "Location": "Lot 412, (2nd Floor) Lorong 11-D, Off Jalan Ang Cheng Ho, 93100 Kuching, Sarawak. P.O.Box 16, 93700 Kuching, Sarawak.", "Region": "Sarawak", "Category": "\u4e1a\u7f18", "PageNumber": 364, "Country": "Malaysia", "latitude": 1.5531106, "longitude": 110.3640985}, "geometry": {"type": "Point", "coordinates": [110.3640985, 1.5531106]}}, {"type": "Feature", "properties": {"Name_CH": "\u519c\u5de5\u8054\u5408\u516c\u4f1a", "Name_ML": null, "Name_EN": "Farmers & Labourers Association", "Location": "1st Floor, 45 Repok Road, Sarikei, Sarawak.", "Region": "Sarawak", "Category": "\u4e1a\u7f18", "PageNumber": 364, "Country": "Malaysia", "latitude": 2.1307979, "longitude": 111.5216646}, "geometry": {"type": "Point", "coordinates": [111.5216646, 2.1307979]}}, {"type": "Feature", "properties": {"Name_CH": "\u7802\u62c9\u8d8a\u5927\u53a6\u79df\u6237\u8054\u5408\u4f1a", "Name_ML": null, "Name_EN": "Sarawak House United Tenants Association", "Location": "Sarawak House, 96000 Sibu, Sarawak.", "Region": "Sarawak", "Category": "\u4e1a\u7f18", "PageNumber": 364, "Country": "Malaysia", "latitude": 2.289487, "longitude": 111.8299852}, "geometry": {"type": "Point", "coordinates": [111.8299852, 2.289487]}}, {"type": "Feature", "properties": {"Name_CH": "\u7802\u62c9\u8d8a\u8bd7\u5deb\uff0c \u6cd7\u91cc\u8857\uff0c \u52a0\u5e1b\u7701\u4e2d\u533b\u5e08\u516c\u4f1a", "Name_ML": null, "Name_EN": "Sarawak Sibu Sarikei Kapit Division Chinese Doctor Association", "Location": "1st Floor, Kang Eng Beng Building, Channel Road, 96000 Sibu, Sarawak.", "Region": "Sarawak", "Category": "\u4e1a\u7f18", "PageNumber": 364, "Country": "Malaysia", "latitude": 2.2869693, "longitude": 111.8269247}, "geometry": {"type": "Point", "coordinates": [111.8269247, 2.2869693]}}, {"type": "Feature", "properties": {"Name_CH": "\u7802\u62c9\u8d8a\u4fec\u5236\u9020\u5546\u516c\u4f1a", "Name_ML": null, "Name_EN": "Sarawak Furniture Manufacturer' s Association(Sibu Branch)", "Location": "6F, 3rd Floor, Lorong 2, Eik Dee Road, 96000 Sibu, Sarawak.", "Region": "Sarawak", "Category": "\u4e1a\u7f18", "PageNumber": 364, "Country": "Malaysia", "latitude": 2.3198095, "longitude": 111.8304888}, "geometry": {"type": "Point", "coordinates": [111.8304888, 2.3198095]}}, {"type": "Feature", "properties": {"Name_CH": "\u6c11\u4e39\u83aa\u5496\u5561\u9152\u9910\u5546\u516c\u4f1a", "Name_ML": "Persatuan Pemilik Kedai Kopi Dan Restaran, Bintangor", "Name_EN": "Bintangor Coffee Shop And Restaurant Owners' Association", "Location": "P.O.Box 489, North Jalan Bintang, 96507 Bintangor, Sarawak.", "Region": "Sarawak", "Category": "\u4e1a\u7f18", "PageNumber": 364, "Country": "Malaysia", "latitude": 2.1681553, "longitude": 111.6365178}, "geometry": {"type": "Point", "coordinates": [111.6365178, 2.1681553]}}, {"type": "Feature", "properties": {"Name_CH": "\u6c11\u4e39\u83aa\u519c\u6c11\u516c\u4f1a", "Name_ML": null, "Name_EN": "Bintangor Agricultrist Association", "Location": "No.12, Kelupu Road, 96500 Bintangor, Sarawak.", "Region": "Sarawak", "Category": "\u4e1a\u7f18", "PageNumber": 364, "Country": "Malaysia", "latitude": 2.1695116, "longitude": 111.6354225}, "geometry": {"type": "Point", "coordinates": [111.6354225, 2.1695116]}}, {"type": "Feature", "properties": {"Name_CH": "\u6c90\u80f6\u4e2d\u534e\u5546\u4f1a", "Name_ML": null, "Name_EN": "Chinese Chamber Of Commerce, Mukah", "Location": "Lot 424, Sublot 67, Floor 2, New Town Ship, 96400 Mukah, Sarawak. P.O.Box 31, 96400 Mukah, Sarawak.", "Region": "Sarawak", "Category": "\u4e1a\u7f18", "PageNumber": 364, "Country": "Malaysia", "latitude": 2.8296074, "longitude": 112.28609}, "geometry": {"type": "Point", "coordinates": [112.28609, 2.8296074]}}, {"type": "Feature", "properties": {"Name_CH": "\u7802\u62c9\u8d8a\u7f8e\u91cc\u7701\u5efa\u7b51\u5546\u516c\u4f1a", "Name_ML": "Persatuan Kontrakter Dan Kejuruteraan Awam Bahagian Miri Sarawak", "Name_EN": "Sarawak Miri Division Building & Civil Engineering Contractors' Association", "Location": "P.O.Box 1230, 98000 Miri, Sarawak.", "Region": "Sarawak", "Category": "\u4e1a\u7f18", "PageNumber": 364, "Country": "Malaysia", "latitude": 4.3584652, "longitude": 114.001226}, "geometry": {"type": "Point", "coordinates": [114.001226, 4.3584652]}}, {"type": "Feature", "properties": {"Name_CH": "\u7802\u62c9\u8d8a\u9488\u7078\u5b66\u4f1a", "Name_ML": "Persatuan Akupuntur & Maxibustion", "Name_EN": "The Acupuncture & Maxibustion Society of Sarawak", "Location": "Lot 3177, Tabuan Dusun, Jalan Kedandi, 93350 Kuching, Sarawak.", "Region": "Sarawak", "Category": "\u4e1a\u7f18", "PageNumber": 365, "Country": "Malaysia", "latitude": 1.5194786, "longitude": 110.3751539}, "geometry": {"type": "Point", "coordinates": [110.3751539, 1.5194786]}}, {"type": "Feature", "properties": {"Name_CH": "\u7802\u62c9\u8d8a\u4e2d\u533b\u836f\u5b66\u4f1a", "Name_ML": null, "Name_EN": "The Chinese Medical Institute of Sarawak", "Location": "A3- 18B, Sub Lot 18, 2nd Floor, Jalan Petanak, 93100 Kuching, Sarawak.", "Region": "Sarawak", "Category": "\u4e1a\u7f18", "PageNumber": 365, "Country": "Malaysia", "latitude": 1.5550688, "longitude": 110.3614954}, "geometry": {"type": "Point", "coordinates": [110.3614954, 1.5550688]}}, {"type": "Feature", "properties": {"Name_CH": "\u8bd7\u5deb\uff0c \u6cd7\u91cc\u594e\uff0c \u52a0\u5e1b\u7701\u8f66\u5546\u516c\u4f1a", "Name_ML": null, "Name_EN": "Sibu, Sarikei & Kapit Divisions Bicycle & Motor Vehicles Association", "Location": "5th Floor, Sibu Chinese Chamber Of Commerce & Industry Building, Jalan Chamber, 96000 Sibu, Sarawak.", "Region": "Sarawak", "Category": "\u4e1a\u7f18", "PageNumber": 365, "Country": "Malaysia", "latitude": 2.287745, "longitude": 111.8300436}, "geometry": {"type": "Point", "coordinates": [111.8300436, 2.287745]}}, {"type": "Feature", "properties": {"Name_CH": "\u8bd7\u5deb\uff0c \u6cd7\u91cc\u594e\uff0c\u52a0\u5e1b\u7701\u91d1\u4e1a\u516c\u4f1a", "Name_ML": "Persatuan Tukang Mas Bhg. Sibu, Sarikei Dan Kapit Sarawak", "Name_EN": null, "Location": "5th Floor, Sibu Chinese Chamber Of Commerce & Industry Building, Jalan Chamber, 96000 Sibu, Sarawak.", "Region": "Sarawak", "Category": "\u4e1a\u7f18", "PageNumber": 365, "Country": "Malaysia", "latitude": 2.287745, "longitude": 111.8300436}, "geometry": {"type": "Point", "coordinates": [111.8300436, 2.287745]}}, {"type": "Feature", "properties": {"Name_CH": "\u7802\u62c9\u8d8a\u4e2d\u533a\u8f66\u5546\u516c\u4f1a", "Name_ML": "Persatuan Basikal & Kenderaan Bermotor Bahagian Tengah Sarawak", "Name_EN": "Sarawak Central Region Bicycle & Motor Vehicle Association", "Location": "1st Floor, Wisma Sibu Chinese Chamber, Jalan Chamber, 96000 Sibu, Sarawak.", "Region": "Sarawak", "Category": "\u4e1a\u7f18", "PageNumber": 365, "Country": "Malaysia", "latitude": 2.2878186, "longitude": 111.8300547}, "geometry": {"type": "Point", "coordinates": [111.8300547, 2.2878186]}}, {"type": "Feature", "properties": {"Name_CH": "\u8bd7\u5deb\u5e03\u758b\u6d0b\u8d27\u5165\u53e3\u5546\u516c\u4f1a", "Name_ML": null, "Name_EN": "Sibu Textiles & Foreign Good Importers Association", "Location": "1st Floor, Wisma Sibu Chinese Chamber, Chambers Road, 96000 Sibu, Sarawak.", "Region": "Sarawak", "Category": "\u4e1a\u7f18", "PageNumber": 365, "Country": "Malaysia", "latitude": 2.2878186, "longitude": 111.8300547}, "geometry": {"type": "Point", "coordinates": [111.8300547, 2.2878186]}}, {"type": "Feature", "properties": {"Name_CH": "\u8bd7\u5deb\u8239\u5382\u8054\u5408\u516c\u4f1a", "Name_ML": null, "Name_EN": "Sibu Shipyard Associaion", "Location": "1st, Floor, Wisma Sibu Chinese Chamber, Chamber Road, 96000 Sibu, Sarawak.", "Region": "Sarawak", "Category": "\u4e1a\u7f18", "PageNumber": 365, "Country": "Malaysia", "latitude": 2.2878186, "longitude": 111.8300547}, "geometry": {"type": "Point", "coordinates": [111.8300547, 2.2878186]}}, {"type": "Feature", "properties": {"Name_CH": "\u7802\u62c9\u8d8a\u6587\u5177\u4e66\u4e1a\u516c\u4f1a", "Name_ML": "Persatuan Alatulis Dan Penjual Buku Sarawak", "Name_EN": "Sarawak Stationers And Boosellers Association", "Location": "P.O.Box 1237, 96008 Sibu, Sarawak.", "Region": "Sarawak", "Category": "\u4e1a\u7f18", "PageNumber": 365, "Country": "Malaysia", "latitude": 2.287284, "longitude": 111.830535}, "geometry": {"type": "Point", "coordinates": [111.830535, 2.287284]}}, {"type": "Feature", "properties": {"Name_CH": "\u7802\u62c9\u8d8a\u4e2d\u56fd\u8d38\u6613\u8fdb\u51fa\u53e3\u5546\u603b\u4f1a", "Name_ML": null, "Name_EN": "Sarawak China Trade Importers & Exporters Association", "Location": "51, 2nd Floor, Mission Road, 96000 Sibu, Sarawak.", "Region": "Sarawak", "Category": "\u4e1a\u7f18", "PageNumber": 365, "Country": "Malaysia", "latitude": 2.3556865, "longitude": 111.9522491}, "geometry": {"type": "Point", "coordinates": [111.9522491, 2.3556865]}}, {"type": "Feature", "properties": {"Name_CH": "\u7802\u62c9\u8d8a\u4e2d\u533a\u65c5\u9986\u516c\u4f1a", "Name_ML": "Persatuan Hotel Wilayah Tengah Sarawak", "Name_EN": "Sarawak Central Region Hostels Association", "Location": "34 Cross Road, 96000 Sibu, Sarawak.", "Region": "Sarawak", "Category": "\u4e1a\u7f18", "PageNumber": 365, "Country": "Malaysia", "latitude": 2.3556865, "longitude": 111.9522491}, "geometry": {"type": "Point", "coordinates": [111.9522491, 2.3556865]}}, {"type": "Feature", "properties": {"Name_CH": "\u7802\u7f57\u8d8a\u62c9\u8ba9\u533a\u65b0\u95fb\u4ece\u4e1a\u5458\u534f\u4f1a", "Name_ML": null, "Name_EN": "Institute Wartawan Rejang Sarawak", "Location": "40, Jalan Tuanku Osman, 96000 Sibu, Sarawak.", "Region": "Sarawak", "Category": "\u4e1a\u7f18", "PageNumber": 365, "Country": "Malaysia", "latitude": 2.2932658, "longitude": 111.8271515}, "geometry": {"type": "Point", "coordinates": [111.8271515, 2.2932658]}}, {"type": "Feature", "properties": {"Name_CH": "\u7802\u62c9\u8d8a\u6e14\u8239\u516c\u4f1a\uff08\u7f8e\u91cc\u5206\u4f1a\uff09", "Name_ML": "Persatuan Pengankutan Ikan Bahagian Miri Sarawak", "Name_EN": "Sarawak Fishing Vessels Association( Miri Branch)", "Location": "1st Floor, No.2, Jalan Bendahara, 98000 Miri, Sarawak.", "Region": "Sarawak", "Category": "\u4e1a\u7f18", "PageNumber": 365, "Country": "Malaysia", "latitude": 4.3936199, "longitude": 113.98632}, "geometry": {"type": "Point", "coordinates": [113.98632, 4.3936199]}}, {"type": "Feature", "properties": {"Name_CH": "\u8bd7\u5deb\u7701\u8f66\u8f86\u4fee\u7406\u540c\u4e1a\u516c\u4f1a", "Name_ML": "Persatuan Juru Teknik Kenderaan Sibu", "Name_EN": "Sibu Automobile Repairers Association", "Location": "5th Floor, Sibu Chinese Chamber of Commerce & Industry Building, Jalan Chamber, 96000 Sibu, Sarawak.", "Region": "Sarawak", "Category": "\u4e1a\u7f18", "PageNumber": 366, "Country": "Malaysia", "latitude": 2.287745, "longitude": 111.8300436}, "geometry": {"type": "Point", "coordinates": [111.8300436, 2.287745]}}, {"type": "Feature", "properties": {"Name_CH": "\u8bd7\u5deb\u4e66\u4e1a\u5de5\u5177\u516c\u4f1a", "Name_ML": null, "Name_EN": "Sibu Booksellers & Stationers Association", "Location": "5th Floor, Sibu Chinese Chamber Of Commerce & Industry Building, Jalan Chamber, 96000 Sibu, Sarawak.", "Region": "Sarawak", "Category": "\u4e1a\u7f18", "PageNumber": 366, "Country": "Malaysia", "latitude": 2.287745, "longitude": 111.8300436}, "geometry": {"type": "Point", "coordinates": [111.8300436, 2.287745]}}, {"type": "Feature", "properties": {"Name_CH": "\u8bd7\u5deb\u63a8\u9500\u5458\u516c\u4f1a", "Name_ML": null, "Name_EN": "Sibu Salesmen' s Association", "Location": "5th Floor, Sibu Chinese Chamber Of Commerce & Industry Building, Jalan Chamber, 96000 Sibu, Sarawak.", "Region": "Sarawak", "Category": "\u4e1a\u7f18", "PageNumber": 366, "Country": "Malaysia", "latitude": 2.287745, "longitude": 111.8300436}, "geometry": {"type": "Point", "coordinates": [111.8300436, 2.287745]}}, {"type": "Feature", "properties": {"Name_CH": "\u8bd7\u5deb\u4e94\u91d1\u5165\u53e3\u5546\u516c\u4f1a", "Name_ML": null, "Name_EN": "Sibu Hardware Importers Association", "Location": "5th Floor, Sibu Chinese Chamber Of Commerce & Industry Building, Jalan Chamber, 96000 Sibu, Sarawak.", "Region": "Sarawak", "Category": "\u4e1a\u7f18", "PageNumber": 366, "Country": "Malaysia", "latitude": 2.287745, "longitude": 111.8300436}, "geometry": {"type": "Point", "coordinates": [111.8300436, 2.287745]}}, {"type": "Feature", "properties": {"Name_CH": "\u8bd7\u5deb\u8fdb\u51fa\u53e3\u6279\u53d1\u5546\u8054\u5408\u4f1a", "Name_ML": null, "Name_EN": "Sibu Chamber of Importers, Exporters & Wholesalers", "Location": "1st Floor, Wisma Sibu Chinese Chamber, Chambers Road, 96000 Sibu, Sarawak.", "Region": "Sarawak", "Category": "\u4e1a\u7f18", "PageNumber": 366, "Country": "Malaysia", "latitude": 2.2878186, "longitude": 111.8300547}, "geometry": {"type": "Point", "coordinates": [111.8300547, 2.2878186]}}, {"type": "Feature", "properties": {"Name_CH": "\u8bd7\u5deb\u4eac\u679c\u5546\u516c\u4f1a", "Name_ML": null, "Name_EN": "The Sibu Grocery Dealers Association", "Location": "1st Floor, Wisma Sibu Chinese Chamber, Chamber Road, 96000 Sibu, Sarawak.", "Region": "Sarawak", "Category": "\u4e1a\u7f18", "PageNumber": 366, "Country": "Malaysia", "latitude": 2.2878186, "longitude": 111.8300547}, "geometry": {"type": "Point", "coordinates": [111.8300547, 2.2878186]}}, {"type": "Feature", "properties": {"Name_CH": "\u8bd7\u5deb\u7c73\u6279\u53d1\u5546\u516c\u4f1a", "Name_ML": null, "Name_EN": "Sibu Rice Wholesalers Association", "Location": "1st Floor, Wisma Sibu Chinese Chamber of Commerce & Industry, Chambers Road, 96000 Sibu, Sarawak.", "Region": "Sarawak", "Category": "\u4e1a\u7f18", "PageNumber": 366, "Country": "Malaysia", "latitude": 2.2878186, "longitude": 111.8300547}, "geometry": {"type": "Point", "coordinates": [111.8300547, 2.2878186]}}, {"type": "Feature", "properties": {"Name_CH": "\u8bd7\u5deb\u79bd\u755c\u4e1a\u516c\u4f1a", "Name_ML": "Persatuan Penternak Sibu", "Name_EN": "Sibu Livestock Farmers Association", "Location": "1st Floor, Wisma Sibu Chinese Chamber, Jalan Chambers, 96000 Sibu, Sarawak.", "Region": "Sarawak", "Category": "\u4e1a\u7f18", "PageNumber": 366, "Country": "Malaysia", "latitude": 2.2878186, "longitude": 111.8300547}, "geometry": {"type": "Point", "coordinates": [111.8300547, 2.2878186]}}, {"type": "Feature", "properties": {"Name_CH": "\u8bd7\u5deb\u5efa\u7b51\u5546\u516c\u4f1a", "Name_ML": null, "Name_EN": "Building & Civil Engineering Contractors Association Sibu Division", "Location": "No.9C, Jalan Lanang Sibu, Sarawak", "Region": "Sarawak", "Category": "\u4e1a\u7f18", "PageNumber": 366, "Country": "Malaysia", "latitude": 2.2739224, "longitude": 111.8418565}, "geometry": {"type": "Point", "coordinates": [111.8418565, 2.2739224]}}, {"type": "Feature", "properties": {"Name_CH": "\u8bd7\u5deb\u5496\u5561\u9152\u9910\u5546\u516c\u4f1a", "Name_ML": "Persatuan Pemilik Kedal Kopi Dan Pestor Sibu", "Name_EN": "Sibu Coffee Shop & Restaurant Owner' s Association", "Location": "No.69-71, Lot 34 & 35, Lorong Indah Timur 3, Jalan Teku, 96000 Sibu, Sarawak.", "Region": "Sarawak", "Category": "\u4e1a\u7f18", "PageNumber": 366, "Country": "Malaysia", "latitude": 2.346568, "longitude": 111.8438636}, "geometry": {"type": "Point", "coordinates": [111.8438636, 2.346568]}}, {"type": "Feature", "properties": {"Name_CH": "\u8bd7\u5deb\u52b3\u5de5\u516c\u4f1a", "Name_ML": null, "Name_EN": "Sibu Labourer' s Association", "Location": "2 1st Floor, Island Road, 96000 Sibu, Sarawak.", "Region": "Sarawak", "Category": "\u4e1a\u7f18", "PageNumber": 366, "Country": "Malaysia", "latitude": 2.3556865, "longitude": 111.9522491}, "geometry": {"type": "Point", "coordinates": [111.9522491, 2.3556865]}}, {"type": "Feature", "properties": {"Name_CH": "\u8bd7\u5deb\u5e97\u5c4b\u79df\u6237\u8054\u5408\u4f1a", "Name_ML": "Persatuan Penyewa Rumah Kedai Sibu", "Name_EN": "Sibu Shop-House Tenants Association", "Location": "C/O 1st Floor, Wisma Sibu Chinese Chamber of Commerce & Industry Building, Jalan Chamber, 96000 Sibu, Sarawak.", "Region": "Sarawak", "Category": "\u4e1a\u7f18", "PageNumber": 366, "Country": "Malaysia", "latitude": 2.287745, "longitude": 111.8300436}, "geometry": {"type": "Point", "coordinates": [111.8300436, 2.287745]}}, {"type": "Feature", "properties": {"Name_CH": "\u77f3\u5c71\u4e2d\u534e\u5546\u4f1a", "Name_ML": null, "Name_EN": "Chinese Chamber of Commerce Batu Niah", "Location": "Lot 103, 1st Floor, Batu Niah Bazaar, 98200 Batu Niah, Sarawak.", "Region": "Sarawak", "Category": "\u4e1a\u7f18", "PageNumber": 367, "Country": "Malaysia", "latitude": 3.8025259, "longitude": 113.754909}, "geometry": {"type": "Point", "coordinates": [113.754909, 3.8025259]}}, {"type": "Feature", "properties": {"Name_CH": "\u897f\u8fde\u4e2d\u534e\u5546\u4f1a", "Name_ML": "Dewan Perniagaan China Serian", "Name_EN": "Serian Chinese Chamber Of  Commerce", "Location": "No.162, 2nd Floor, Serian Bazaar, 94700 Serian, Sarawak.", "Region": "Sarawak", "Category": "\u4e1a\u7f18", "PageNumber": 367, "Country": "Malaysia", "latitude": 1.1708955, "longitude": 110.5692179}, "geometry": {"type": "Point", "coordinates": [110.5692179, 1.1708955]}}, {"type": "Feature", "properties": {"Name_CH": "\u6cd7\u91cc\u8857\u8f66\u8f86\u4fee\u7406\u540c\u4e1a\u516c\u4f1a", "Name_ML": "Persatuan Pembaik Kerata Sarikei", "Name_EN": "Sarikei Automobile Repairs Association", "Location": "1st Mile Repok Road P.O.Box 762, 96108 Sarikei, Sarawak.", "Region": "Sarawak", "Category": "\u4e1a\u7f18", "PageNumber": 367, "Country": "Malaysia", "latitude": 2.097069, "longitude": 111.523806}, "geometry": {"type": "Point", "coordinates": [111.523806, 2.097069]}}, {"type": "Feature", "properties": {"Name_CH": "\u6cd7\u91cc\u8857\u5496\u5561\u9152\u9910\u5546\u516c\u4f1a", "Name_ML": null, "Name_EN": "Sarikei Coffee & Restaurant Traders Association", "Location": "No.6, Gr, 1st, 2nd Floor, Tiang Soon Heighy, Kg. Seberang, Sarikei, Sarawak.", "Region": "Sarawak", "Category": "\u4e1a\u7f18", "PageNumber": 367, "Country": "Malaysia", "latitude": 2.1304452, "longitude": 111.5010991}, "geometry": {"type": "Point", "coordinates": [111.5010991, 2.1304452]}}, {"type": "Feature", "properties": {"Name_CH": "\u6cd7\u91cc\u8857\u519c\u5de5\u8054\u5408\u4f1a", "Name_ML": null, "Name_EN": "Sarikei Farmers & Labourers Association", "Location": "45, Jalan Repok, 96100 Sarikei, Sarawak.", "Region": "Sarawak", "Category": "\u4e1a\u7f18", "PageNumber": 367, "Country": "Malaysia", "latitude": 2.1307979, "longitude": 111.5216646}, "geometry": {"type": "Point", "coordinates": [111.5216646, 2.1307979]}}, {"type": "Feature", "properties": {"Name_CH": "\u6cd7\u91cc\u8857\u4e2d\u534e\u5de5\u5546\u603b\u4f1a", "Name_ML": "Dewan Perniaggan Dan Perindustrian Cina Sarikei", "Name_EN": null, "Location": "Lot 217, Block 36, Market Road, Sarikei, Sarawak", "Region": "Sarawak", "Category": "\u4e1a\u7f18", "PageNumber": 367, "Country": "Malaysia", "latitude": 2.131703, "longitude": 111.5237279}, "geometry": {"type": "Point", "coordinates": [111.5237279, 2.131703]}}, {"type": "Feature", "properties": {"Name_CH": "\u6cd7\u91cc\u8857\u7701\u571f\u6728\u5efa\u7b51\u5546\u516c\u4f1a", "Name_ML": "Persatuan Kontraktor Pembinaan Dan Kejuruteraan Awan Bahagian Sarikei", "Name_EN": null, "Location": "35, 2nd Floor, Jalan Jubli Mutiara, 96100 Sarikei, Sarawak.", "Region": "Sarawak", "Category": "\u4e1a\u7f18", "PageNumber": 367, "Country": "Malaysia", "latitude": 2.1315324, "longitude": 111.5251067}, "geometry": {"type": "Point", "coordinates": [111.5251067, 2.1315324]}}, {"type": "Feature", "properties": {"Name_CH": "\u8bd7\u5deb\u836f\u5546\u516c\u4f1a", "Name_ML": "Persatuan Pedagangan Ubat Cina", "Name_EN": "Sibu Drug Merchants Association", "Location": "1st Floor, Wisma Sibu Chinese Chamber. Chambers Road, 96000 Sibu, Sarawak.", "Region": "Sarawak", "Category": "\u4e1a\u7f18", "PageNumber": 367, "Country": "Malaysia", "latitude": 2.2878186, "longitude": 111.8300547}, "geometry": {"type": "Point", "coordinates": [111.8300547, 2.2878186]}}, {"type": "Feature", "properties": {"Name_CH": "\u8bd7\u5deb\u4e2d\u534e\u5de5\u5546\u603b\u4f1a", "Name_ML": "Dewan Perniagaan & Perindusstrian Cina Sibu", "Name_EN": "Sibu Chinese Chamber Of Commerce & Industry", "Location": "1st Floor, Wisma Sibu Chinese Chamber, Jalan Chambers, Sibu, Sarawak.", "Region": "Sarawak", "Category": "\u4e1a\u7f18", "PageNumber": 367, "Country": "Malaysia", "latitude": 2.2878186, "longitude": 111.8300547}, "geometry": {"type": "Point", "coordinates": [111.8300547, 2.2878186]}}, {"type": "Feature", "properties": {"Name_CH": "\u52a1\u5b9e\u7684\u4e2d\u534e\u5546\u4f1a", "Name_ML": "Persatuan Perniagaan Cina Sibuti Sarawak", "Name_EN": "Chinese Chamber Of Commerce Sibuti Sarawak", "Location": "P.O.Box 5, 98157, Bekenn, Sibuti, Miri, Sarawak.", "Region": "Sarawak", "Category": "\u4e1a\u7f18", "PageNumber": 367, "Country": "Malaysia", "latitude": 4.045211, "longitude": 113.799896}, "geometry": {"type": "Point", "coordinates": [113.799896, 4.045211]}}, {"type": "Feature", "properties": {"Name_CH": "\u6cd7\u91cc\u8857\u6c7d\u8f66\u8fd0\u8f93\u9a7e\u9a76\u5458\u516c\u4f1a", "Name_ML": null, "Name_EN": "Sarikei Motor Vehicle Driver' s Association", "Location": "P.O.Box 441, 96108, Sarikei, Sarawak.", "Region": "Sarawak", "Category": "\u4e1a\u7f18", "PageNumber": 367, "Country": "Malaysia", "latitude": 2.1175004, "longitude": 111.5212187}, "geometry": {"type": "Point", "coordinates": [111.5212187, 2.1175004]}},