{"type": "FeatureCollection", "name": "region_7", "crs": {"type": "name", "properties": {"name": "urn:ogc:def:crs:OGC:1.3:CRS84"}}, "features": [{"type": "Feature", "properties": {"Name_CH": "\u5df4\u751f\u6ee8\u6d77\u5b89\u6eaa\u4f1a\u9986", "Name_ML": "Persatuan Ann Kway Pantai Klang", "Name_EN": null, "Location": "Lot PT 14236, Jalan Perusahaan 25, Kawasan 11, D/A Jalan Banting, pandamaran, 42000 Pelabuhan Kelang, Selangor.", "Region": "Selangor", "Category": "\u5730\u7f18", "PageNumber": 182, "Country": "Malaysia", "latitude": 2.9964678, "longitude": 101.422384}, "geometry": {"type": "Point", "coordinates": [101.422384, 2.9964678]}}, {"type": "Feature", "properties": {"Name_CH": "\u5df4\u751f\u6ee8\u6d77\u798f\u8386\u4ed9\u540c\u4e61\u4f1a", "Name_ML": null, "Name_EN": "The Klang & Coast Hock Poh Sien Clan Association", "Location": "20, Jalan Goh Hock Huat, 41400 Kelang, Selangor.", "Region": "Selangor", "Category": "\u5730\u7f18", "PageNumber": 182, "Country": "Malaysia", "latitude": 3.05156, "longitude": 101.44688}, "geometry": {"type": "Point", "coordinates": [101.44688, 3.05156]}}, {"type": "Feature", "properties": {"Name_CH": "\u5df4\u751f\u6ee8\u6d77\u5357\u5b89\u4f1a\u9986", "Name_ML": "Persatuan Nam Ann Daerah Klang & Pantai", "Name_EN": null, "Location": "2-B, Jalan Taiping, Klang, 41400 Selangor.", "Region": "Selangor", "Category": "\u5730\u7f18", "PageNumber": 182, "Country": "Malaysia", "latitude": 3.0487665, "longitude": 101.4471039}, "geometry": {"type": "Point", "coordinates": [101.4471039, 3.0487665]}}, {"type": "Feature", "properties": {"Name_CH": "\u5df4\u751f\u6ee8\u6d77\u798f\u5dde\u5341\u9091\u540c\u4e61\u4f1a", "Name_ML": "Persatuan Foochow Klang", "Name_EN": null, "Location": "39, 1st Floor, Lorong Tingkat Klang, 41000 Selangor.", "Region": "Selangor", "Category": "\u5730\u7f18", "PageNumber": 182, "Country": "Malaysia", "latitude": 3.04037, "longitude": 101.4478774}, "geometry": {"type": "Point", "coordinates": [101.4478774, 3.04037]}}, {"type": "Feature", "properties": {"Name_CH": "\u5df4\u751f\u6ee8\u6d77\u6f6e\u5dde\u4f1a\u9986", "Name_ML": "Persatuan Teochew Klang Dan Pantai", "Name_EN": "The Teochew Association Klang & Coast", "Location": "No.16, Jalan Dato Hamzah, 41000 Klang, Selangor.", "Region": "Selangor", "Category": "\u5730\u7f18", "PageNumber": 182, "Country": "Malaysia", "latitude": 3.0411369, "longitude": 101.4484976}, "geometry": {"type": "Point", "coordinates": [101.4484976, 3.0411369]}}, {"type": "Feature", "properties": {"Name_CH": "\u5df4\u751f\u6ee8\u6d77\u5174\u5b89\u4f1a\u9986", "Name_ML": "Persatuan Hin Ann Pantai Klang", "Name_EN": null, "Location": "37A, Jalan Batu Tiga, Klang, 41300 Selangor.", "Region": "Selangor", "Category": "\u5730\u7f18", "PageNumber": 182, "Country": "Malaysia", "latitude": 3.047564, "longitude": 101.4509864}, "geometry": {"type": "Point", "coordinates": [101.4509864, 3.047564]}}, {"type": "Feature", "properties": {"Name_CH": "\u9a6c\u6765\u897f\u4e9a\u4e2d\u534e\u5927\u4f1a\u5802\u603b\u4f1a(\u534e\u603b)", "Name_ML": "Gabungan Pertubuhan Cina Malaysia", "Name_EN": "The Federeation of Chinese Association, Malaysia", "Location": "1, Jalan Maharajalela, 50150 Kuala Lumpur.", "Region": "Selangor", "Category": "\u7efc\u5408", "PageNumber": 182, "Country": "Malaysia", "latitude": 3.1390664, "longitude": 101.6978452}, "geometry": {"type": "Point", "coordinates": [101.6978452, 3.1390664]}}, {"type": "Feature", "properties": {"Name_CH": "\u96ea\u5170\u83aa\u4e2d\u534e\u5927\u4f1a\u5802", "Name_ML": "Dewan Perhimpunan China Selangor", "Name_EN": "The Selangor Chinese Assembly Hall", "Location": "No.1, Jalan Maharajalela, 50150 Kuala Lumpur.", "Region": "Selangor", "Category": "\u7efc\u5408", "PageNumber": 182, "Country": "Malaysia", "latitude": 3.1390664, "longitude": 101.6978452}, "geometry": {"type": "Point", "coordinates": [101.6978452, 3.1390664]}}, {"type": "Feature", "properties": {"Name_CH": "\u5b89\u90a6\u798f\u5efa\u4f1a\u9986", "Name_ML": "Persatuan Hokkien Ampang Jaya", "Name_EN": null, "Location": "15B, Jalan Wawasan 4/1, Bandar baru Ampang, 68000 Ampang, Selangor.", "Region": "Selangor", "Category": "\u5730\u7f18", "PageNumber": 182, "Country": "Malaysia", "latitude": 3.1474663, "longitude": 101.7651945}, "geometry": {"type": "Point", "coordinates": [101.7651945, 3.1474663]}}, {"type": "Feature", "properties": {"Name_CH": "\u6d6e\u7f57\u5409\u80c6\u592a\u539f\u516c\u4f1a", "Name_ML": "Persatuan Tai Guan Pulau Ketam", "Name_EN": null, "Location": "P 1, Jalan Tepi Sungai, Pulau Ketam, 42940 Selangor.", "Region": "Selangor", "Category": "\u5730\u7f18", "PageNumber": 183, "Country": "Malaysia", "latitude": 3.020617, "longitude": 101.252654}, "geometry": {"type": "Point", "coordinates": [101.252654, 3.020617]}}, {"type": "Feature", "properties": {"Name_CH": "\u5df4\u751f\u60e0\u5b89\u6cc9\u6e2f\u516c\u4f1a", "Name_ML": "Persatuan Hwee Ann Klang", "Name_EN": null, "Location": "114, Persiaran Raja Muda Musa, Klang, 41100 Selangor.", "Region": "Selangor", "Category": "\u5730\u7f18", "PageNumber": 183, "Country": "Malaysia", "latitude": 3.0299744, "longitude": 101.4312013}, "geometry": {"type": "Point", "coordinates": [101.4312013, 3.0299744]}}, {"type": "Feature", "properties": {"Name_CH": "\u5df4\u751f\u5ba2\u5bb6\u516c\u4f1a", "Name_ML": "Persatuan Hakka Kelang", "Name_EN": "Association Hakka Klang", "Location": "No.81-B, Persiaran Pegaga, Taman Batu Perdana, 41200 Klang, Selangor.", "Region": "Selangor", "Category": "\u5730\u7f18", "PageNumber": 183, "Country": "Malaysia", "latitude": 3.0187577, "longitude": 101.4323855}, "geometry": {"type": "Point", "coordinates": [101.4323855, 3.0187577]}}, {"type": "Feature", "properties": {"Name_CH": "\u5df4\u751f\u6d77\u5357\u4f1a\u9986", "Name_ML": "Persatuan Hainan Klang", "Name_EN": "Klang Hainan Association", "Location": "4, Tingkat 2, Jalan Tengku Ainudin, Klang, Selangor.", "Region": "Selangor", "Category": "\u5730\u7f18", "PageNumber": 183, "Country": "Malaysia", "latitude": 3.0447462, "longitude": 101.4457874}, "geometry": {"type": "Point", "coordinates": [101.4457874, 3.0447462]}}, {"type": "Feature", "properties": {"Name_CH": "\u5df4\u751f\u5927\u57d4\u540c\u4e61\u4f1a", "Name_ML": "Persatuan Tai Pu Klang", "Name_EN": null, "Location": "40, Jalan Dato Hamzah Klang, 41000 Selangor", "Region": "Selangor", "Category": "\u5730\u7f18", "PageNumber": 183, "Country": "Malaysia", "latitude": 3.0408823, "longitude": 101.4485333}, "geometry": {"type": "Point", "coordinates": [101.4485333, 3.0408823]}}, {"type": "Feature", "properties": {"Name_CH": "\u5df4\u751f\u5e7f\u4e1c\u4f1a\u9986", "Name_ML": null, "Name_EN": "Klang Kwong Tung Association", "Location": "27, Jalan Raja Timur, 41000 Klang Selangor.", "Region": "Selangor", "Category": "\u5730\u7f18", "PageNumber": 183, "Country": "Malaysia", "latitude": 3.1471128, "longitude": 101.6932172}, "geometry": {"type": "Point", "coordinates": [101.6932172, 3.1471128]}}, {"type": "Feature", "properties": {"Name_CH": "\u5df4\u751f\u96ea\u5170\u83aa\u91d1\u95e8\u4f1a\u9986", "Name_ML": null, "Name_EN": "Selangor Kim Mooi Association", "Location": "30A&30B, Tingkat 3, Jalan Bukit Kuda, Klang, 41300 Selangor.", "Region": "Selangor", "Category": "\u5730\u7f18", "PageNumber": 183, "Country": "Malaysia", "latitude": 3.0532666, "longitude": 101.4670766}, "geometry": {"type": "Point", "coordinates": [101.4670766, 3.0532666]}}, {"type": "Feature", "properties": {"Name_CH": "\u5df4\u751f\u798f\u5efa\u4f1a\u9986", "Name_ML": "Persatuan Hokkien Klang/Bangunan Persatuan Hokkien Klang", "Name_EN": null, "Location": "Jalan Batu Tiga Lama, Klang, 41300 Selangor", "Region": "Selangor", "Category": "\u5730\u7f18", "PageNumber": 183, "Country": "Malaysia", "latitude": 3.0536292, "longitude": 101.467874}, "geometry": {"type": "Point", "coordinates": [101.467874, 3.0536292]}}, {"type": "Feature", "properties": {"Name_CH": "\u74dc\u62c9\u51b7\u5cb3\u6d77\u5357\u4f1a\u9986", "Name_ML": "Persatuan Hai Nam Kuala Langat", "Name_EN": null, "Location": "No.91, Jalan Bunga Pekan 2, Keawasan 6, 42700 Banting, Kuala Langat Selangor.", "Region": "Selangor", "Category": "\u5730\u7f18", "PageNumber": 183, "Country": "Malaysia", "latitude": 2.8108082, "longitude": 101.4991517}, "geometry": {"type": "Point", "coordinates": [101.4991517, 2.8108082]}}, {"type": "Feature", "properties": {"Name_CH": "\u74dc\u62c9\u51b7\u5cb3\u798f\u5efa\u4f1a\u9986", "Name_ML": "Persatuan Hokkien Kuala Langat", "Name_EN": null, "Location": "22-24, Tingkat Atas, Jalan Bunga Pekan 5, Kaw 6, 42700 Banting, Selangor.", "Region": "Selangor", "Category": "\u5730\u7f18", "PageNumber": 183, "Country": "Malaysia", "latitude": 2.8131183, "longitude": 101.506167}, "geometry": {"type": "Point", "coordinates": [101.506167, 2.8131183]}}, {"type": "Feature", "properties": {"Name_CH": "\u74dc\u96ea\u53ca\u6c99\u767d\u798f\u5efa\u4f1a\u9986", "Name_ML": "Persatuan Hokkien Sekinchan", "Name_EN": null, "Location": "193, Jalan Gereja, 45400 Sekinchan, Selangor.", "Region": "Selangor", "Category": "\u5730\u7f18", "PageNumber": 184, "Country": "Malaysia", "latitude": 3.5094939, "longitude": 101.1044519}, "geometry": {"type": "Point", "coordinates": [101.1044519, 3.5094939]}}, {"type": "Feature", "properties": {"Name_CH": "\u74dc\u96ea\u66a8\u6c99\u767d\u53bf\u798f\u5efa\u4f1a\u9986", "Name_ML": "Persatuan Hokkien Daerah Kuala Selangor& Sabak Bernam", "Name_EN": null, "Location": "193, Jalan Gereja, Sekinchan, 45400 Selangor.", "Region": "Selangor", "Category": "\u5730\u7f18", "PageNumber": 184, "Country": "Malaysia", "latitude": 3.5094939, "longitude": 101.1044519}, "geometry": {"type": "Point", "coordinates": [101.1044519, 3.5094939]}}, {"type": "Feature", "properties": {"Name_CH": "\u74dc\u96ea\u53ca\u6c99\u767d\u798f\u5efa\u4f1a\u9986", "Name_ML": "Persatuan Hokkien Sekinchan", "Name_EN": null, "Location": "193, Jalan Gereja, 45400 Sekinchan, Selangor.", "Region": "Selangor", "Category": "\u5730\u7f18", "PageNumber": 184, "Country": "Malaysia", "latitude": 3.5094939, "longitude": 101.1044519}, "geometry": {"type": "Point", "coordinates": [101.1044519, 3.5094939]}}, {"type": "Feature", "properties": {"Name_CH": "\u74dc\u62c9\u51b7\u5cb3\u5ba2\u5c5e\u516c\u4f1a", "Name_ML": "Persatuan Hakka Kuala Langat", "Name_EN": null, "Location": "26, Jalan Telok Bunut Banting, Kuala Langat, 42700 Selangor.", "Region": "Selangor", "Category": "\u5730\u7f18", "PageNumber": 184, "Country": "Malaysia", "latitude": 2.8137932, "longitude": 101.4997891}, "geometry": {"type": "Point", "coordinates": [101.4997891, 2.8137932]}}, {"type": "Feature", "properties": {"Name_CH": "\u9f99\u90a6\u798f\u5efa\u4f1a\u9986", "Name_ML": "Persekutuan Hokkien Kalumpang", "Name_EN": null, "Location": "379, Kg. Baru Kalumpang, 44100 Hulu Selangor.", "Region": "Selangor", "Category": "\u5730\u7f18", "PageNumber": 184, "Country": "Malaysia", "latitude": 3.640068, "longitude": 101.567478}, "geometry": {"type": "Point", "coordinates": [101.567478, 3.640068]}}, {"type": "Feature", "properties": {"Name_CH": "\u5409\u7075\u4e24\u5e7f\u540c\u4e61\u4f1a", "Name_ML": null, "Name_EN": "Kwang-Tong, Kwang-Sai Assn", "Location": "97A, Kg. Air Panas, Kerling, 44100 Ulu Selangor, Selangor.", "Region": "Selangor", "Category": "\u5730\u7f18", "PageNumber": 184, "Country": "Malaysia", "latitude": 3.5969192, "longitude": 101.6139225}, "geometry": {"type": "Point", "coordinates": [101.6139225, 3.5969192]}}, {"type": "Feature", "properties": {"Name_CH": "\u53fb\u601d\u66a8\u7b54\u51ac\u52a0\u91cc\u798f\u5efa\u516c\u6240", "Name_ML": "Persatuan Hokkien Rasa Dan Batang Kali", "Name_EN": null, "Location": "22A, Jalan Kuala kali, 44200 Rasa, Selangor.", "Region": "Selangor", "Category": "\u5730\u7f18", "PageNumber": 184, "Country": "Malaysia", "latitude": 3.4963635, "longitude": 101.6330512}, "geometry": {"type": "Point", "coordinates": [101.6330512, 3.4963635]}}, {"type": "Feature", "properties": {"Name_CH": "\u53fb\u601d\u66a8\u7b54\u51ac\u52a0\u91cc\u798f\u5efa\u516c\u6240", "Name_ML": "Persatuan Hokkien Rasa Dan Batang Kali", "Name_EN": null, "Location": "22A, Jalan Kuala kali, 44200 Rasa, Selangor.", "Region": "Selangor", "Category": "\u5730\u7f18", "PageNumber": 184, "Country": "Malaysia", "latitude": 3.4963635, "longitude": 101.6330512}, "geometry": {"type": "Point", "coordinates": [101.6330512, 3.4963635]}}, {"type": "Feature", "properties": {"Name_CH": "\u7532\u6d1e\u5ba2\u5bb6\u4f1a\u9986", "Name_ML": "Persatuan Hakka Kepong", "Name_EN": null, "Location": "95-2, Jalan Besar, Kepong 52100 Kuala Lumpur.", "Region": "Selangor", "Category": "\u5730\u7f18", "PageNumber": 184, "Country": "Malaysia", "latitude": 3.2140292, "longitude": 101.636861}, "geometry": {"type": "Point", "coordinates": [101.636861, 3.2140292]}}, {"type": "Feature", "properties": {"Name_CH": "\u5409\u9686\u5761\u7532\u6d1e\u798f\u5efa\u4f1a\u9986", "Name_ML": "Persatuan Hokkien Kepong", "Name_EN": null, "Location": "2162, Jalan Jinjang, 52000 Jinjang Utara, Kuala Lumpur.", "Region": "Selangor", "Category": "\u5730\u7f18", "PageNumber": 184, "Country": "Malaysia", "latitude": 3.2096438, "longitude": 101.6590969}, "geometry": {"type": "Point", "coordinates": [101.6590969, 3.2096438]}}, {"type": "Feature", "properties": {"Name_CH": "\u9686\u96ea\u60e0\u5b89\u6cc9\u6e2f\u516c\u4f1a", "Name_ML": "Persatuan Hwee Ann Kuala Lumpur & Selangor", "Name_EN": null, "Location": "107, Jalan Raja Laut, 50350 Kuala Lumpur.", "Region": "Selangor", "Category": "\u5730\u7f18", "PageNumber": 184, "Country": "Malaysia", "latitude": 3.165536, "longitude": 101.6961289}, "geometry": {"type": "Point", "coordinates": [101.6961289, 3.165536]}}, {"type": "Feature", "properties": {"Name_CH": "\u5409\u9686\u5761\u8d64\u6eaa\u516c\u4f1a", "Name_ML": "Persatuan Chak Kai Koong Kon Kuala Lumpur", "Name_EN": null, "Location": "85, 4th Floor, Jalan Sultan, 50000 Kuala Lumpur.", "Region": "Selangor", "Category": "\u5730\u7f18", "PageNumber": 184, "Country": "Malaysia", "latitude": 3.1425562, "longitude": 101.6971714}, "geometry": {"type": "Point", "coordinates": [101.6971714, 3.1425562]}}, {"type": "Feature", "properties": {"Name_CH": "\u5409\u9686\u5761\u6c38\u6625\u4f1a\u9986", "Name_ML": "KL Eng Choon Hoey Kuan", "Name_EN": null, "Location": "55-59, Tingkat 6, Bangunan Eng Choon, 50450 Jalan Ampang, Kuala Lumpur.", "Region": "Selangor", "Category": "\u5730\u7f18", "PageNumber": 184, "Country": "Malaysia", "latitude": 3.1515214, "longitude": 101.6981589}, "geometry": {"type": "Point", "coordinates": [101.6981589, 3.1515214]}}, {"type": "Feature", "properties": {"Name_CH": "\u5409\u9686\u5761\u5357\u6d77\u4f1a\u9986", "Name_ML": "Persatuan Nam Hoi Kuala Lumpur", "Name_EN": null, "Location": "250B, Jalan Pudu, 55100 Kuala Lumpur.", "Region": "Selangor", "Category": "\u5730\u7f18", "PageNumber": 184, "Country": "Malaysia", "latitude": 3.1426313, "longitude": 101.7076579}, "geometry": {"type": "Point", "coordinates": [101.7076579, 3.1426313]}}, {"type": "Feature", "properties": {"Name_CH": "\u5409\u9686\u5761\u6cb3\u5a46\u540c\u4e61\u4f1a", "Name_ML": "Persatuan Ho Po Kuala Lumpur", "Name_EN": null, "Location": "65&67, 5th Floor Wisma Hopo, Changkat Thambi Dollah, 55100 Kuala Lumpur", "Region": "Selangor", "Category": "\u5730\u7f18", "PageNumber": 184, "Country": "Malaysia", "latitude": 3.1406, "longitude": 101.7109699}, "geometry": {"type": "Point", "coordinates": [101.7109699, 3.1406]}}, {"type": "Feature", "properties": {"Name_CH": "\u9686\u96ea\u5ba2\u5bb6\u603b\u4f1a", "Name_ML": "Persatuan Hakka Wilayah Persekutuan Kuala Lumpur & Selangor", "Name_EN": null, "Location": "No.30B, Jalan Mutiara Raya, Taman Mutiara Cheras, 56000 Kuala Lumpur.", "Region": "Selangor", "Category": "\u5730\u7f18", "PageNumber": 184, "Country": "Malaysia", "latitude": 3.0911939, "longitude": 101.7397478}, "geometry": {"type": "Point", "coordinates": [101.7397478, 3.0911939]}}, {"type": "Feature", "properties": {"Name_CH": "\u8549\u8d56\u533a\u798f\u5efa\u516c\u4f1a", "Name_ML": "Persatuan Hokkien Cheras", "Name_EN": null, "Location": "9, 2nd Floor, Pekan Batu 11, Cheras, Jalan Belakong, 43200 Kajangz Selangor.", "Region": "Selangor", "Category": "\u5730\u7f18", "PageNumber": 184, "Country": "Malaysia", "latitude": 3.0419454, "longitude": 101.77176}, "geometry": {"type": "Point", "coordinates": [101.77176, 3.0419454]}}, {"type": "Feature", "properties": {"Name_CH": "\u8549\u8d56\u533a\u798f\u5efa\u516c\u4f1a", "Name_ML": "Persatuan Hokkien Cheras", "Name_EN": null, "Location": "9, 2nd Floor, Pekan Batu 11, Cheras, Jalan Belakong, 43200 Kajangz Selangor.", "Region": "Selangor", "Category": "\u5730\u7f18", "PageNumber": 184, "Country": "Malaysia", "latitude": 3.0419454, "longitude": 101.77176}, "geometry": {"type": "Point", "coordinates": [101.77176, 3.0419454]}}, {"type": "Feature", "properties": {"Name_CH": "\u9a6c\u6765\u897f\u4e9a\u5357\u5b89\u793e\u56e2\u8054\u5408\u4f1a", "Name_ML": null, "Name_EN": "Federation of Nam Ann Association Malaysia", "Location": "No.1 Lorong Haji Taib Satu, 50350 Kuala Lumpur.", "Region": "Selangor", "Category": "\u5730\u7f18", "PageNumber": 185, "Country": "Malaysia", "latitude": 3.164227, "longitude": 101.6972284}, "geometry": {"type": "Point", "coordinates": [101.6972284, 3.164227]}}, {"type": "Feature", "properties": {"Name_CH": "\u9a6c\u6765\u897f\u4e9a\u4f1a\u5b81\u603b\u4f1a", "Name_ML": "Gabungan Persatuan Hui Ning Malaysia", "Name_EN": "The Federation of Hui Ning Association Malaysia", "Location": "8, Jalan Panggong 50000 Kuala Lumpur.", "Region": "Selangor", "Category": "\u5730\u7f18", "PageNumber": 185, "Country": "Malaysia", "latitude": 3.1418593, "longitude": 101.6972892}, "geometry": {"type": "Point", "coordinates": [101.6972892, 3.1418593]}}, {"type": "Feature", "properties": {"Name_CH": "\u9a6c\u6765\u897f\u4e9a\u5b89\u6eaa\u4f1a\u9986\u8054\u5408\u4f1a", "Name_ML": "Persekutuan Persatuan Persatuan Ann Koai Malaysia", "Name_EN": null, "Location": "Room 5, 5th Floor, Wisma Ann Koai, No.67, Jalan Ampang, 50450 Kuala Lumpur.", "Region": "Selangor", "Category": "\u5730\u7f18", "PageNumber": 185, "Country": "Malaysia", "latitude": 3.1517617, "longitude": 101.6983768}, "geometry": {"type": "Point", "coordinates": [101.6983768, 3.1517617]}}, {"type": "Feature", "properties": {"Name_CH": "\u9a6c\u6765\u897f\u4e9a\u5e7f\u897f\u603b\u4f1a", "Name_ML": "Persatuan Guangxi Malaysia", "Name_EN": null, "Location": "27, Mezzanine Floor, Jalan Maharajalela, 50150 Kuala Lumpur.", "Region": "Selangor", "Category": "\u5730\u7f18", "PageNumber": 185, "Country": "Malaysia", "latitude": 3.1379989, "longitude": 101.6997843}, "geometry": {"type": "Point", "coordinates": [101.6997843, 3.1379989]}}, {"type": "Feature", "properties": {"Name_CH": "\u9a6c\u6765\u897f\u4e9a\u5e7f\u4e1c\u4f1a\u9986\u8054\u5408\u4f1a", "Name_ML": "Gabungan Persatuan Kwang Malaysia", "Name_EN": "The Federation of Kwang Tung Association Malaysia", "Location": "Suite 501, 5th Floor, 44, Jalan Pudu, 55100 Kuala Lumpur.", "Region": "Selangor", "Category": "\u5730\u7f18", "PageNumber": 185, "Country": "Malaysia", "latitude": 3.145935, "longitude": 101.701755}, "geometry": {"type": "Point", "coordinates": [101.701755, 3.145935]}}, {"type": "Feature", "properties": {"Name_CH": "\u9a6c\u6765\u897f\u4e9a\u6d77\u5357\u4f1a\u9986\u8054\u5408\u4f1a", "Name_ML": "Persekutuan Persatuan Hainan Malaysia", "Name_EN": "The Federation of Hainan Association Malaysia", "Location": "Wisma Hainan, 1st Floor, 112- 114, Jalan Pudu, 55100 Kuala Lumpur.", "Region": "Selangor", "Category": "\u5730\u7f18", "PageNumber": 185, "Country": "Malaysia", "latitude": 3.1446807, "longitude": 101.7056426}, "geometry": {"type": "Point", "coordinates": [101.7056426, 3.1446807]}}, {"type": "Feature", "properties": {"Name_CH": "\u9a6c\u6765\u897f\u4e9a\u9ad8\u5dde\u603b\u4f1a", "Name_ML": "Persatuan Kochow Malaysia", "Name_EN": "Malaysia Kochow Association", "Location": "272, Jalan Pudu, 55100 Kuala Lumpur.", "Region": "Selangor", "Category": "\u5730\u7f18", "PageNumber": 185, "Country": "Malaysia", "latitude": 3.1427486, "longitude": 101.7075772}, "geometry": {"type": "Point", "coordinates": [101.7075772, 3.1427486]}}, {"type": "Feature", "properties": {"Name_CH": "\u9a6c\u6765\u897f\u4e9a\u798f\u5efa\u793e\u56e2\u8054\u5408\u4f1a", "Name_ML": "Persekutuan Persatuan-Persatuan Hokkien Malaysia", "Name_EN": "The Federation of Hokkien Association of Malaysia", "Location": "Wisma Fujian, No.6&8, 3rd Floor, Lorong Thambi Dua, Pudu, 55100 Kuala Lumpur.", "Region": "Selangor", "Category": "\u5730\u7f18", "PageNumber": 185, "Country": "Malaysia", "latitude": 3.139647, "longitude": 101.712883}, "geometry": {"type": "Point", "coordinates": [101.712883, 3.139647]}}, {"type": "Feature", "properties": {"Name_CH": "\u9a6c\u6765\u897f\u4e9a\u798f\u5dde\u793e\u56e2\u8054\u5408\u603b\u4f1a", "Name_ML": null, "Name_EN": "The Federation of Foochow Associations of Malaysia", "Location": "18-M, Lorong Thambi Dua, Pudu, 55100 Kuala Lumpur.", "Region": "Selangor", "Category": "\u5730\u7f18", "PageNumber": 185, "Country": "Malaysia", "latitude": 3.1394676, "longitude": 101.7133265}, "geometry": {"type": "Point", "coordinates": [101.7133265, 3.1394676]}}, {"type": "Feature", "properties": {"Name_CH": "\u9a6c\u6765\u897f\u4e9a\u6f6e\u5dde\u516c\u4f1a\u8054\u5408\u4f1a", "Name_ML": "Persekutuan Persatuan-Persatuan Teochew Malaysia", "Name_EN": "The Federation Teochew Association of Malaysia", "Location": "35, 1st Floor, Jalan Ampang, 50450 Kuala Lumpur.", "Region": "Selangor", "Category": "\u5730\u7f18", "PageNumber": 185, "Country": "Malaysia", "latitude": 3.1590323, "longitude": 101.7142178}, "geometry": {"type": "Point", "coordinates": [101.7142178, 3.1590323]}}, {"type": "Feature", "properties": {"Name_CH": "\u9a6c\u6765\u897f\u4e9a\u6e56\u5317\u540c\u4e61\u4f1a", "Name_ML": "Persatuan Hubei Malaysia", "Name_EN": "Hubei Association of Malaysia", "Location": "No.53, Jalan Midah 3, Taman Midah, Cheros, 56000 Kuala Lumpur.", "Region": "Selangor", "Category": "\u5730\u7f18", "PageNumber": 185, "Country": "Malaysia", "latitude": 3.103608, "longitude": 101.731916}, "geometry": {"type": "Point", "coordinates": [101.731916, 3.103608]}}, {"type": "Feature", "properties": {"Name_CH": "\u9a6c\u6765\u897f\u4e9a\u5ba2\u5bb6\u516c\u4f1a\u8054\u5408\u4f1a", "Name_ML": "Persekutuan Persatuan-Persatuan Hakka Malaysia", "Name_EN": "The Federation of Hakka Association of Malaysia", "Location": "30A, Jalan Mutiara Raya, Taman Mutiara, Cheras, 56000 Kuala Lumpur.", "Region": "Selangor", "Category": "\u5730\u7f18", "PageNumber": 185, "Country": "Malaysia", "latitude": 3.0911939, "longitude": 101.7397478}, "geometry": {"type": "Point", "coordinates": [101.7397478, 3.0911939]}}, {"type": "Feature", "properties": {"Name_CH": "\u9002\u8015\u5e84\u6f6e\u5dde\u4f1a\u9986", "Name_ML": "Persatuan Teo Chew Sekinchan", "Name_EN": null, "Location": "135, Jalan Teo Chew, Bagan Sekinchan, Sekinchan, 45400 Selangor.", "Region": "Selangor", "Category": "\u5730\u7f18", "PageNumber": 186, "Country": "Malaysia", "latitude": 3.5039652, "longitude": 101.1000431}, "geometry": {"type": "Point", "coordinates": [101.1000431, 3.5039652]}}, {"type": "Feature", "properties": {"Name_CH": "\u592a\u539f\u516c\u4f1a", "Name_ML": "Peresatuan Tai Guan", "Name_EN": null, "Location": "P1, Jalan Tepi Sungai, 42940 Pulau Kertam, P. Kelang, Selangor.", "Region": "Selangor", "Category": "\u5730\u7f18", "PageNumber": 186, "Country": "Malaysia", "latitude": 3.0458187, "longitude": 101.4360575}, "geometry": {"type": "Point", "coordinates": [101.4360575, 3.0458187]}}, {"type": "Feature", "properties": {"Name_CH": "\u592a\u539f\u516c\u4f1a", "Name_ML": "Peresatuan Tai Guan", "Name_EN": null, "Location": "P1, Jalan Tepi Sungai, 42940 Pulau Kertam, P. Kelang, Selangor.", "Region": "Selangor", "Category": "\u5730\u7f18", "PageNumber": 186, "Country": "Malaysia", "latitude": 3.0458187, "longitude": 101.4360575}, "geometry": {"type": "Point", "coordinates": [101.4360575, 3.0458187]}}, {"type": "Feature", "properties": {"Name_CH": "\u4e07\u6320\u9ad8\u5dde\u4f1a\u9986", "Name_ML": "Persatuan Koh Chow Rawang", "Name_EN": null, "Location": "2-B, Jalan Silang, Rawang, 48000 Selangor.", "Region": "Selangor", "Category": "\u5730\u7f18", "PageNumber": 186, "Country": "Malaysia", "latitude": 3.3060524, "longitude": 101.5825027}, "geometry": {"type": "Point", "coordinates": [101.5825027, 3.3060524]}}, {"type": "Feature", "properties": {"Name_CH": "\u4e07\u6320\u5174\u5b89\u4f1a\u9986", "Name_ML": "Persatuan Shing An Rawang", "Name_EN": null, "Location": "14-B, Batu 18, Jalan lpoh, 48000 Rawang, Selangor.", "Region": "Selangor", "Category": "\u5730\u7f18", "PageNumber": 186, "Country": "Malaysia", "latitude": 3.310462, "longitude": 101.587514}, "geometry": {"type": "Point", "coordinates": [101.587514, 3.310462]}}, {"type": "Feature", "properties": {"Name_CH": "\u4e07\u6320\u5e7f\u4e1c\u4f1a\u9986", "Name_ML": "Persatuan Kwang Tung Rawang", "Name_EN": null, "Location": "71 Jalan Silang, 48000, Rawang, Selangor.", "Region": "Selangor", "Category": "\u5730\u7f18", "PageNumber": 186, "Country": "Malaysia", "latitude": 3.333378, "longitude": 101.5827452}, "geometry": {"type": "Point", "coordinates": [101.5827452, 3.333378]}}, {"type": "Feature", "properties": {"Name_CH": "\u53cc\u6eaa\u5a01\u798f\u5efa\u4f1a\u9986", "Name_ML": null, "Name_EN": "Sungai Way Hokkien Association", "Location": "1-12, 1st floor, Plaza Seri Setia, Jalan SS9/2, Seri Setia, 47300 Petaling Jaya, Selangor.", "Region": "Selangor", "Category": "\u5730\u7f18", "PageNumber": 186, "Country": "Malaysia", "latitude": 3.0856461, "longitude": 101.6201428}, "geometry": {"type": "Point", "coordinates": [101.6201428, 3.0856461]}}, {"type": "Feature", "properties": {"Name_CH": "\u9a6c\u6765\u897f\u4e9a\u5174\u5b89\u4f1a\u9986\u603b\u4f1a", "Name_ML": null, "Name_EN": "The Federation of Heng Ann Association Malaysia", "Location": "544A, 1st Floor, Batu Complex, Batu 3, Jalan lpoh, 61200 Kuala Lumpur.", "Region": "Selangor", "Category": "\u5730\u7f18", "PageNumber": 186, "Country": "Malaysia", "latitude": 3.175161, "longitude": 101.6865518}, "geometry": {"type": "Point", "coordinates": [101.6865518, 3.175161]}}, {"type": "Feature", "properties": {"Name_CH": "\u9a6c\u6765\u897f\u4e9a\u5174\u5b81\u540c\u4e61\u4f1a", "Name_ML": "Persatuan Kaum Xing Ning Malaysia", "Name_EN": null, "Location": "94A, Jalan Changkat Bukit Bintang, 50200 Kuala Lumpur.", "Region": "Selangor", "Category": "\u5730\u7f18", "PageNumber": 186, "Country": "Malaysia", "latitude": 3.1463094, "longitude": 101.7098054}, "geometry": {"type": "Point", "coordinates": [101.7098054, 3.1463094]}}, {"type": "Feature", "properties": {"Name_CH": "\u9a6c\u6765\u897f\u4e9a\u4e09\u6c5f\u603b\u4f1a", "Name_ML": "Persatuan San Kiang Malaysia", "Name_EN": "The Malaysian Federated San Kiang Association", "Location": "104-2, Jalan 2/23A, Taman Danau Kota, Jalan Genting Klang, 53300 Setapak, Kuala Lumpur.", "Region": "Selangor", "Category": "\u5730\u7f18", "PageNumber": 186, "Country": "Malaysia", "latitude": 3.200222, "longitude": 101.7184439}, "geometry": {"type": "Point", "coordinates": [101.7184439, 3.200222]}}, {"type": "Feature", "properties": {"Name_CH": "\u4e4c\u9c81\u51b7\u5cb3\u5e7f\u4e1c\u4f1a\u9986", "Name_ML": "Persatuan Kwang Tung Ulu Langat Kajang", "Name_EN": null, "Location": "16, 2nd&3rd Floor, Jalan Tun Abdul Aziz, 43000 Kajang, Selangor.", "Region": "Selangor", "Category": "\u5730\u7f18", "PageNumber": 186, "Country": "Malaysia", "latitude": 2.991358, "longitude": 101.7892036}, "geometry": {"type": "Point", "coordinates": [101.7892036, 2.991358]}}, {"type": "Feature", "properties": {"Name_CH": "\u4e4c\u9c81\u51b7\u5cb3\u52a0\u5f71\u5174\u5b89\u4f1a\u9986", "Name_ML": "Persatuan Hin Ann Kajang Ulu Langat", "Name_EN": null, "Location": "15-3, Jalan S10/2, Section 10, 43000 Kajang, Selangor.", "Region": "Selangor", "Category": "\u5730\u7f18", "PageNumber": 186, "Country": "Malaysia", "latitude": 2.9894697, "longitude": 101.7907273}, "geometry": {"type": "Point", "coordinates": [101.7907273, 2.9894697]}}, {"type": "Feature", "properties": {"Name_CH": "\u4e4c\u9c81\u51b7\u5cb3\u52a0\u5f71\u5174\u5b89\u4f1a\u9986", "Name_ML": "Persatuan Hin Ann Kajang Ulu Langat", "Name_EN": null, "Location": "15-3, Jalan S10/2, Section 10, 43000 Kajang, Selangor.", "Region": "Selangor", "Category": "\u5730\u7f18", "PageNumber": 186, "Country": "Malaysia", "latitude": 2.9894697, "longitude": 101.7907273}, "geometry": {"type": "Point", "coordinates": [101.7907273, 2.9894697]}}, {"type": "Feature", "properties": {"Name_CH": "\u4e4c\u9c81\u51b7\u5cb3\u798f\u5efa\u516c\u4f1a", "Name_ML": "Persatuan Hokkien Ulu Langat", "Name_EN": null, "Location": "3, Jalan Timur, 43000 Kajang, Selangor.", "Region": "Selangor", "Category": "\u5730\u7f18", "PageNumber": 186, "Country": "Malaysia", "latitude": 2.996164, "longitude": 101.7929183}, "geometry": {"type": "Point", "coordinates": [101.7929183, 2.996164]}}, {"type": "Feature", "properties": {"Name_CH": "\u4e4c\u96ea\u533a\u5b89\u6eaa\u4f1a\u9986", "Name_ML": "Persatuan Ann Koai Hulu Selangor", "Name_EN": null, "Location": "59A, Jalan Melanti 1, Bandar Utama, 44300 Batang Kali, Selangor.", "Region": "Selangor", "Category": "\u5730\u7f18", "PageNumber": 187, "Country": "Malaysia", "latitude": 3.4582, "longitude": 101.6555339}, "geometry": {"type": "Point", "coordinates": [101.6555339, 3.4582]}}, {"type": "Feature", "properties": {"Name_CH": "\u4e4c\u9c81\u97f3\u7b54\u9c81\u798f\u5efa\u516c\u6240", "Name_ML": "Persatuan Hokkien Ulu Yam Bahru", "Name_EN": null, "Location": "18, Jalan Besar, Ulu Yam Bahru, Btg Kali, 44300 Selangor.", "Region": "Selangor", "Category": "\u5730\u7f18", "PageNumber": 187, "Country": "Malaysia", "latitude": 3.4543733, "longitude": 101.6409085}, "geometry": {"type": "Point", "coordinates": [101.6409085, 3.4543733]}}, {"type": "Feature", "properties": {"Name_CH": "\u65b0\u53e4\u6bdb\u798f\u5efa\u4f1a\u9986", "Name_ML": "Persatuan Kuala Kubu Bharu", "Name_EN": null, "Location": "9, Jalan Maxwell Kuala Kubu Bharu, 44000 Selangor.", "Region": "Selangor", "Category": "\u5730\u7f18", "PageNumber": 187, "Country": "Malaysia", "latitude": 3.5641259, "longitude": 101.658926}, "geometry": {"type": "Point", "coordinates": [101.658926, 3.5641259]}}, {"type": "Feature", "properties": {"Name_CH": "\u65b0\u53e4\u6bdb\u9ad8\u5dde\u4f1a\u9986", "Name_ML": "Persatuan Kow Chow Kuala Kubu Bharu", "Name_EN": null, "Location": "49, Jalan Kamaruddun, 44000 Kuala Kubu Bharu, Hulu Selangor, Selangor.", "Region": "Selangor", "Category": "\u5730\u7f18", "PageNumber": 187, "Country": "Malaysia", "latitude": 3.5646081, "longitude": 101.6593674}, "geometry": {"type": "Point", "coordinates": [101.6593674, 3.5646081]}}, {"type": "Feature", "properties": {"Name_CH": "\u4e4c\u9c81\u96ea\u5170\u83aa\u60e0\u5dde\u4f1a\u9986", "Name_ML": "Persatuan Fui Chiu Ulu Selangor", "Name_EN": null, "Location": "1, Jalan Rasathurai, K Kubu Bahru, 44000 Ulu Selangor, Selangor.", "Region": "Selangor", "Category": "\u5730\u7f18", "PageNumber": 187, "Country": "Malaysia", "latitude": 3.5645434, "longitude": 101.6612919}, "geometry": {"type": "Point", "coordinates": [101.6612919, 3.5645434]}}, {"type": "Feature", "properties": {"Name_CH": "\u96ea\u90a6\u798f\u5efa\u4f1a\u9986", "Name_ML": "Persatuan Hokkien Sepang Selangor", "Name_EN": null, "Location": "76, Jalan Besar, Sg. Pelek, 43950 Selangor.", "Region": "Selangor", "Category": "\u5730\u7f18", "PageNumber": 187, "Country": "Malaysia", "latitude": 2.6756453, "longitude": 101.6782802}, "geometry": {"type": "Point", "coordinates": [101.6782802, 2.6756453]}}, {"type": "Feature", "properties": {"Name_CH": "\u96ea\u5170\u83aa\u66a8\u5409\u9686\u5761\u5357\u5b89\u4f1a\u9986", "Name_ML": "Persatuan Nan Ann Selangor Dan Kuala Lumpur", "Name_EN": "The Selangor And Kuala Lumpur Nan Ann Association", "Location": "1, Lorong Haji Taib Satu, 50350 Kuala Lumpur.", "Region": "Selangor", "Category": "\u5730\u7f18", "PageNumber": 187, "Country": "Malaysia", "latitude": 3.164227, "longitude": 101.6972284}, "geometry": {"type": "Point", "coordinates": [101.6972284, 3.164227]}}, {"type": "Feature", "properties": {"Name_CH": "\u96ea\u5170\u83aa\u798f\u5efa\u4f1a\u9986", "Name_ML": null, "Name_EN": "Selangor Hokkien Association", "Location": "41-C, Jalan Hang Lekiu, 50100 Kuala Lumpur.", "Region": "Selangor", "Category": "\u5730\u7f18", "PageNumber": 187, "Country": "Malaysia", "latitude": 3.14833, "longitude": 101.6983102}, "geometry": {"type": "Point", "coordinates": [101.6983102, 3.14833]}}, {"type": "Feature", "properties": {"Name_CH": "\u96ea\u5170\u83aa\u5b89\u6eaa\u4f1a\u9986", "Name_ML": null, "Name_EN": "Selangor Ann Khoe Association", "Location": "5th Floor, Room 5, 67 Jalan Ampang, 50450 Kuala Lumpur.", "Region": "Selangor", "Category": "\u5730\u7f18", "PageNumber": 187, "Country": "Malaysia", "latitude": 3.15178, "longitude": 101.6984599}, "geometry": {"type": "Point", "coordinates": [101.6984599, 3.15178]}}, {"type": "Feature", "properties": {"Name_CH": "\u96ea\u5170\u83aa\u5b89\u6eaa\u4f1a\u9986", "Name_ML": null, "Name_EN": "Selangor Ann Khoe Association", "Location": "5th Floor, Room 5, 67 Jalan Ampang, 50450 Kuala Lumpur.", "Region": "Selangor", "Category": "\u5730\u7f18", "PageNumber": 187, "Country": "Malaysia", "latitude": 3.15178, "longitude": 101.6984599}, "geometry": {"type": "Point", "coordinates": [101.6984599, 3.15178]}}, {"type": "Feature", "properties": {"Name_CH": "\u96ea\u90a6\u743c\u5dde\u4f1a\u9986", "Name_ML": null, "Name_EN": "Sepang Keng Chew Assn", "Location": "132, Jln Besar, Salak, Sepang, 43900 Selangor.", "Region": "Selangor", "Category": "\u5730\u7f18", "PageNumber": 187, "Country": "Malaysia", "latitude": 2.7831561, "longitude": 101.7506754}, "geometry": {"type": "Point", "coordinates": [101.7506754, 2.7831561]}}, {"type": "Feature", "properties": {"Name_CH": "\u4e4c\u9c81\u51b7\u5cb3\u5ba2\u5bb6\u516c\u4f1a", "Name_ML": "Persatuan Hakka Hulu Langat", "Name_EN": null, "Location": "6A, Jalan Besac Kajang, 43000 Selangor.", "Region": "Selangor", "Category": "\u5730\u7f18", "PageNumber": 187, "Country": "Malaysia", "latitude": 2.9926786, "longitude": 101.7877796}, "geometry": {"type": "Point", "coordinates": [101.7877796, 2.9926786]}}, {"type": "Feature", "properties": {"Name_CH": "\u4e4c\u9c81\u51b7\u5cb3\u5174\u5b89\u4f1a\u9986", "Name_ML": "Persatuan Hin Ann Hulu langat Selangor", "Name_EN": null, "Location": "15-3, Jalan S10/2, Section 10, 43000 Kajang, Selangor.", "Region": "Selangor", "Category": "\u5730\u7f18", "PageNumber": 187, "Country": "Malaysia", "latitude": 2.9894697, "longitude": 101.7907273}, "geometry": {"type": "Point", "coordinates": [101.7907273, 2.9894697]}}, {"type": "Feature", "properties": {"Name_CH": "\u96ea\u5170\u83aa\u53a6\u95e8\u516c\u4f1a", "Name_ML": "Persatuan Amoy Selangor", "Name_EN": "Selangor Amoy Association", "Location": "77A, Jalan Raya Barat, 41000 Klang, Selangor.", "Region": "Selangor", "Category": "\u5730\u7f18", "PageNumber": 188, "Country": "Malaysia", "latitude": 3.0457076, "longitude": 101.4429028}, "geometry": {"type": "Point", "coordinates": [101.4429028, 3.0457076]}}, {"type": "Feature", "properties": {"Name_CH": "\u96ea\u5170\u83aa\u8bcf\u5b89\u4e1c\u5c71\u4f1a\u9986", "Name_ML": null, "Name_EN": "Selangor Chau Tong Sun Association", "Location": "20, Jalan Pasar, Klang, 41400 Selangor.", "Region": "Selangor", "Category": "\u5730\u7f18", "PageNumber": 188, "Country": "Malaysia", "latitude": 3.0490671, "longitude": 101.4450683}, "geometry": {"type": "Point", "coordinates": [101.4450683, 3.0490671]}}, {"type": "Feature", "properties": {"Name_CH": "\u96ea\u5170\u83aa\u6c38\u6625\u4f1a\u9986", "Name_ML": "Persatuan Eng Choon Selangor", "Name_EN": null, "Location": "10, 2nd Floor, Jalan Tengku Diauddin, 41000 Klang, Selangor.", "Region": "Selangor", "Category": "\u5730\u7f18", "PageNumber": 188, "Country": "Malaysia", "latitude": 3.0422452, "longitude": 101.4477142}, "geometry": {"type": "Point", "coordinates": [101.4477142, 3.0422452]}}, {"type": "Feature", "properties": {"Name_CH": "\u96ea\u5170\u83aa\u53cc\u6587\u4e39\u798f\u5efa\u4f1a\u9986", "Name_ML": "Hokkien Hoay Kuan Serendah", "Name_EN": null, "Location": "1, Jalan Tokong, Serendah, Ulu Selangor. 48200 Selangor.", "Region": "Selangor", "Category": "\u5730\u7f18", "PageNumber": 188, "Country": "Malaysia", "latitude": 3.3240128, "longitude": 101.574118}, "geometry": {"type": "Point", "coordinates": [101.574118, 3.3240128]}}, {"type": "Feature", "properties": {"Name_CH": "\u96ea\u5170\u83aa\u4e4c\u9c81\u97f3\u5bb9\u9c81\u5e7f\u4e1c\u4f1a\u9986", "Name_ML": null, "Name_EN": "The Ulu Yam Bahru Kwang Tung Association Selan", "Location": "74 Jalan Besar, Ulu Yam Bahru, 44300 Selangor.", "Region": "Selangor", "Category": "\u5730\u7f18", "PageNumber": 188, "Country": "Malaysia", "latitude": 3.3323498, "longitude": 101.5719489}, "geometry": {"type": "Point", "coordinates": [101.5719489, 3.3323498]}}, {"type": "Feature", "properties": {"Name_CH": "\u96ea\u5170\u83aa\u66a8\u8054\u90a6\u76f4\u8f96\u533a\u4e2d\u5c71\u540c\u4e61\u4f1a", "Name_ML": "Persatuan Chung Shan Selangor & WP Chung San", "Name_EN": null, "Location": "80 Jalan Rotan, Off Jalan Kg Attap, 50460 Kuala Lumpur.", "Region": "Selangor", "Category": "\u5730\u7f18", "PageNumber": 188, "Country": "Malaysia", "latitude": 3.1381006, "longitude": 101.6966197}, "geometry": {"type": "Point", "coordinates": [101.6966197, 3.1381006]}}, {"type": "Feature", "properties": {"Name_CH": "\u96ea\u5170\u83aa\u66a8\u8054\u90a6\u76f4\u8f96\u533a\u9ad8\u8981\u4f1a\u9986", "Name_ML": null, "Name_EN": "Selangor & FT Koh Yew Association", "Location": "26-A, Lorong Meranti Satu, Off Jalan Kenanga, 52100 Kuala Lumpur.", "Region": "Selangor", "Category": "\u5730\u7f18", "PageNumber": 188, "Country": "Malaysia", "latitude": 3.137263, "longitude": 101.707367}, "geometry": {"type": "Point", "coordinates": [101.707367, 3.137263]}}, {"type": "Feature", "properties": {"Name_CH": "\u96ea\u5170\u83aa\u4e09\u6c5f\u516c\u4f1a", "Name_ML": "Persatuan San Kiang Selangor", "Name_EN": "Selangor San Kiang Association", "Location": "104-2, Jalan 2/23A, Taman Danau Kota, Jalan Genting Klang, Setapak, 53300 Kuala Lumpur.", "Region": "Selangor", "Category": "\u5730\u7f18", "PageNumber": 188, "Country": "Malaysia", "latitude": 3.200222, "longitude": 101.7184439}, "geometry": {"type": "Point", "coordinates": [101.7184439, 3.200222]}}, {"type": "Feature", "properties": {"Name_CH": "\u96ea\u5170\u83aa\u4e09\u6c5f\u516c\u4f1a", "Name_ML": "Persatuan San Kiang Selangor", "Name_EN": null, "Location": "104-2, Jalan 2/23A, Taman Danau Kota, Jalan Genting Klang, 53300 Setapak, Kuala Lumpur.", "Region": "Selangor", "Category": "\u5730\u7f18", "PageNumber": 188, "Country": "Malaysia", "latitude": 3.200222, "longitude": 101.7184439}, "geometry": {"type": "Point", "coordinates": [101.7184439, 3.200222]}}, {"type": "Feature", "properties": {"Name_CH": "\u96ea\u5170\u83aa\u4e09\u6c5f\u516c\u4f1a", "Name_ML": "Persatuan San Kiang Selangor", "Name_EN": "Selangor San Kiang Association", "Location": "104-2, Jalan 2/23A, Taman Danau Kota, Jalan Genting Klang, Setapak, 53300 Kuala Lumpur.", "Region": "Selangor", "Category": "\u5730\u7f18", "PageNumber": 188, "Country": "Malaysia", "latitude": 3.200222, "longitude": 101.7184439}, "geometry": {"type": "Point", "coordinates": [101.7184439, 3.200222]}}, {"type": "Feature", "properties": {"Name_CH": "\u96ea\u5170\u83aa\u4e09\u6c5f\u516c\u4f1a", "Name_ML": "Persatuan San Kiang Selangor", "Name_EN": null, "Location": "104-2, Jalan 2/23A, Taman Danau Kota, Jalan Genting Klang, 53300 Setapak, Kuala Lumpur.", "Region": "Selangor", "Category": "\u5730\u7f18", "PageNumber": 188, "Country": "Malaysia", "latitude": 3.200222, "longitude": 101.7184439}, "geometry": {"type": "Point", "coordinates": [101.7184439, 3.200222]}}, {"type": "Feature", "properties": {"Name_CH": "\u96ea\u5170\u83aa\u4e09\u6c34\u4f1a\u9986", "Name_ML": "Persatuan Sam Shui Selangor", "Name_EN": null, "Location": "15-1A, Jalan Perdana 6/6, Pandan Perdana, 55300 Kuala Lumpur.", "Region": "Selangor", "Category": "\u5730\u7f18", "PageNumber": 188, "Country": "Malaysia", "latitude": 3.1127911, "longitude": 101.7436214}, "geometry": {"type": "Point", "coordinates": [101.7436214, 3.1127911]}}, {"type": "Feature", "properties": {"Name_CH": "\u96ea\u5170\u83aa\u8549\u8d56\u533a\u798f\u5efa\u516c\u4f1a", "Name_ML": "Persatuan Hokkien Cheras, Selangor", "Name_EN": null, "Location": "No.9, 2nd Floor, Pekan Batu l1, Cheras, Jalan Balakang, 43200 Selangor.", "Region": "Selangor", "Category": "\u5730\u7f18", "PageNumber": 188, "Country": "Malaysia", "latitude": 3.0406528, "longitude": 101.7707561}, "geometry": {"type": "Point", "coordinates": [101.7707561, 3.0406528]}}, {"type": "Feature", "properties": {"Name_CH": "\u96ea\u9686\u6d77\u5357\u4f1a\u9986", "Name_ML": "Persatuan Hainan Selangor & Wilayah Persekutuan", "Name_EN": "The Selangor & Federal Territory Hainan Association", "Location": "65, Persiaran Endah, Off Jalan Syed Putra, 50460 Kuala Lumpur.", "Region": "Selangor", "Category": "\u5730\u7f18", "PageNumber": 189, "Country": "Malaysia", "latitude": 3.1219425, "longitude": 101.6876447}, "geometry": {"type": "Point", "coordinates": [101.6876447, 3.1219425]}}, {"type": "Feature", "properties": {"Name_CH": "\u96ea\u9686\u5e7f\u8087\u4f1a\u9986", "Name_ML": "Persatuan Kwong Siew Selangor Dan Wilayah Persekutuan", "Name_EN": "Selangor And Federal Territory Kwong Siew Association", "Location": "168, Jalan Tun H.S.Lee, 50000 Kuala Lumpur. 147-149, 3rd Floor, Wisma Kwong Siew.", "Region": "Selangor", "Category": "\u5730\u7f18", "PageNumber": 189, "Country": "Malaysia", "latitude": 3.144192, "longitude": 101.696607}, "geometry": {"type": "Point", "coordinates": [101.696607, 3.144192]}}, {"type": "Feature", "properties": {"Name_CH": "\u96ea\u9686\u756a\u79ba\u4f1a\u9986", "Name_ML": "Persatuan Poon Yu Selangor & Kuala Lumpur", "Name_EN": null, "Location": "404, Tingkat 1, Jalan Pudu, 55100 Kuala Lumpur.", "Region": "Selangor", "Category": "\u5730\u7f18", "PageNumber": 189, "Country": "Malaysia", "latitude": 3.1454349, "longitude": 101.6988886}, "geometry": {"type": "Point", "coordinates": [101.6988886, 3.1454349]}}, {"type": "Feature", "properties": {"Name_CH": "\u96ea\u9686\u5e7f\u897f\u4f1a\u9986", "Name_ML": "Persatuan Kwangsi Selangor & Kuala Lumpur", "Name_EN": null, "Location": "12&14, Tingkat 3, Jalan Pudu, 55100 Kuala Lumpur.", "Region": "Selangor", "Category": "\u5730\u7f18", "PageNumber": 189, "Country": "Malaysia", "latitude": 3.145635, "longitude": 101.7003086}, "geometry": {"type": "Point", "coordinates": [101.7003086, 3.145635]}}, {"type": "Feature", "properties": {"Name_CH": "\u96ea\u9686\u5e7f\u4e1c\u4f1a\u9986", "Name_ML": null, "Name_EN": "The Sei & FT Kwang Tung Association", "Location": "Suite 501, 5th Floor, 44, Jalan Pudu, 55100 Kuala Lumpur.", "Region": "Selangor", "Category": "\u5730\u7f18", "PageNumber": 189, "Country": "Malaysia", "latitude": 3.145935, "longitude": 101.701755}, "geometry": {"type": "Point", "coordinates": [101.701755, 3.145935]}}, {"type": "Feature", "properties": {"Name_CH": "\u96ea\u9686\u4e1c\u5b89\u4f1a\u9986", "Name_ML": "Persatuan Tong On Selangor & Wilayah Persekutuan", "Name_EN": null, "Location": "46-48, Jalan Berangan, 50200 Kuala Lumpur.", "Region": "Selangor", "Category": "\u5730\u7f18", "PageNumber": 189, "Country": "Malaysia", "latitude": 3.1478071, "longitude": 101.7089226}, "geometry": {"type": "Point", "coordinates": [101.7089226, 3.1478071]}}, {"type": "Feature", "properties": {"Name_CH": "\u96ea\u9686\u5188\u5dde\u4f1a\u9986", "Name_ML": "Persatuan Kong Chau Kuala Lumpur & Selangor", "Name_EN": null, "Location": "306C-308C, Jalan Pudu, 55100 Kuala Lumpur.", "Region": "Selangor", "Category": "\u5730\u7f18", "PageNumber": 189, "Country": "Malaysia", "latitude": 3.1389998, "longitude": 101.7099702}, "geometry": {"type": "Point", "coordinates": [101.7099702, 3.1389998]}}, {"type": "Feature", "properties": {"Name_CH": "\u96ea\u9686\u8336\u9633(\u5927\u57d4)\u4f1a\u9986", "Name_ML": "Persatuan Char Yong Selangor Dan Wilayah Persekutuan", "Name_EN": null, "Location": "2-4, Jalan Lengkongan Brunei Off Jalan Pudu, 55100 Kuala Lumpur.", "Region": "Selangor", "Category": "\u5730\u7f18", "PageNumber": 189, "Country": "Malaysia", "latitude": 3.1380545, "longitude": 101.7110369}, "geometry": {"type": "Point", "coordinates": [101.7110369, 3.1380545]}}, {"type": "Feature", "properties": {"Name_CH": "\u96ea\u9686\u8336\u9633\u56de\u6625\u9986", "Name_ML": "Persatuan Chha Yong Fay Choon Kuan Selangor & Wilayah Persekutuan", "Name_EN": null, "Location": "2-4, Jalan Lengkongan Brunei Off Jalan Pudu, 55100 Kuala Lumpur.", "Region": "Selangor", "Category": "\u5730\u7f18", "PageNumber": 189, "Country": "Malaysia", "latitude": 3.1380545, "longitude": 101.7110369}, "geometry": {"type": "Point", "coordinates": [101.7110369, 3.1380545]}}, {"type": "Feature", "properties": {"Name_CH": "\u96ea\u9686\u8336\u9633\u52b1\u5fd7\u793e", "Name_ML": "Persatuan Cha Yong Li Chee Selangor Dan Wilayah Persekutuan", "Name_EN": null, "Location": "2-4, Jalan Lengkongan Brunei, Off Jalan Pudu, 55100 Kuala Lumpur.", "Region": "Selangor", "Category": "\u5730\u7f18", "PageNumber": 189, "Country": "Malaysia", "latitude": 3.1380545, "longitude": 101.7110369}, "geometry": {"type": "Point", "coordinates": [101.7110369, 3.1380545]}}, {"type": "Feature", "properties": {"Name_CH": "\u96ea\u9686\u8336\u9633\u56de\u6625\u9986", "Name_ML": "Persatuan Chha Yong Fay Choon Kuan Selangor & Wilayah Persekutuan", "Name_EN": null, "Location": "2-4, Jalan Lengkongan Brunei Off Jalan Pudu, 55100 Kuala Lumpur.", "Region": "Selangor", "Category": "\u5730\u7f18", "PageNumber": 189, "Country": "Malaysia", "latitude": 3.1380545, "longitude": 101.7110369}, "geometry": {"type": "Point", "coordinates": [101.7110369, 3.1380545]}}, {"type": "Feature", "properties": {"Name_CH": "\u96ea\u9686\u8336\u9633\u52b1\u5fd7\u793e", "Name_ML": "Persatuan Cha Yong Li Chee Selangor Dan Wilayah Persekutuan", "Name_EN": null, "Location": "2-4, Jalan Lengkongan Brunei, Off Jalan Pudu, 55100 Kuala Lumpur.", "Region": "Selangor", "Category": "\u5730\u7f18", "PageNumber": 189, "Country": "Malaysia", "latitude": 3.1380545, "longitude": 101.7110369}, "geometry": {"type": "Point", "coordinates": [101.7110369, 3.1380545]}}, {"type": "Feature", "properties": {"Name_CH": "\u96ea\u9686\u798f\u5dde\u4f1a\u9986", "Name_ML": "Persatuan Foochow Selangor & Kuala Lumpur", "Name_EN": null, "Location": "18M, Lorong Thambi 2, Jalan Pudu, 55100 Kuala Lumpur.", "Region": "Selangor", "Category": "\u5730\u7f18", "PageNumber": 189, "Country": "Malaysia", "latitude": 3.1394676, "longitude": 101.7133265}, "geometry": {"type": "Point", "coordinates": [101.7133265, 3.1394676]}}, {"type": "Feature", "properties": {"Name_CH": "\u96ea\u9686\u6f6e\u5dde\u4f1a\u9986", "Name_ML": "Persatuan Teo Chew Selangor Dan Kuala Lumpur", "Name_EN": "The Selangor And Kuala Lumpur Teo Chew Association", "Location": "35, (1st Floor), Jalan Ampang, 50450 Kuala Lumpur.", "Region": "Selangor", "Category": "\u5730\u7f18", "PageNumber": 189, "Country": "Malaysia", "latitude": 3.1590323, "longitude": 101.7142178}, "geometry": {"type": "Point", "coordinates": [101.7142178, 3.1590323]}}, {"type": "Feature", "properties": {"Name_CH": "\u96ea\u9686\u540c\u5b89\u4f1a\u9986", "Name_ML": "Persatuan Tong Ann Sei & Wilayah Persekutuan Kuala Lumpur", "Name_EN": null, "Location": "203, Jalan Kangsar, Off Jalan Meru, Klang, 41050 Selangor.", "Region": "Selangor", "Category": "\u5730\u7f18", "PageNumber": 190, "Country": "Malaysia", "latitude": 3.069025, "longitude": 101.450142}, "geometry": {"type": "Point", "coordinates": [101.450142, 3.069025]}}, {"type": "Feature", "properties": {"Name_CH": "\u96ea\u9686\u4e07\u5b81\u540c\u4e61\u4f1a", "Name_ML": "Persatuan Ban Ning Selangor Dan Wilayah Pesekutuan", "Name_EN": "The Ban Ning Association of The Selangor & Federal Territory", "Location": "12-2-6, Jalan Sri Jati Satu, Taman Sri Jati, Off Jalan Puchong, 58200 Kuala Lumpur.", "Region": "Selangor", "Category": "\u5730\u7f18", "PageNumber": 190, "Country": "Malaysia", "latitude": 3.0760177, "longitude": 101.6645537}, "geometry": {"type": "Point", "coordinates": [101.6645537, 3.0760177]}}, {"type": "Feature", "properties": {"Name_CH": "\u96ea\u9686\u5609\u5e94\u4f1a\u9986", "Name_ML": "Persatuan Ku Yin Wilayah Persekutuan Kuala Lumpur & Selangor", "Name_EN": null, "Location": "63B, (Tingkat 3) Jalan Sultan, 50000 Kuala Lumpur.", "Region": "Selangor", "Category": "\u5730\u7f18", "PageNumber": 190, "Country": "Malaysia", "latitude": 3.1425805, "longitude": 101.6970129}, "geometry": {"type": "Point", "coordinates": [101.6970129, 3.1425805]}}, {"type": "Feature", "properties": {"Name_CH": "\u96ea\u9686\u5357\u5b89\u4f1a\u9986", "Name_ML": null, "Name_EN": "Selangor & Kuala Lumpur Nam Ann Association", "Location": "1, Lorong Haji Taib Satu, Off Jalan Tuanku Abdul Rahman, 50350 Kuala Lumpur.", "Region": "Selangor", "Category": "\u5730\u7f18", "PageNumber": 190, "Country": "Malaysia", "latitude": 3.164227, "longitude": 101.6972284}, "geometry": {"type": "Point", "coordinates": [101.6972284, 3.164227]}}, {"type": "Feature", "properties": {"Name_CH": "\u96ea\u9686\u5357\u5b89\u4f1a\u9986", "Name_ML": null, "Name_EN": "Selangor & Kuala Lumpur Nam Ann Association", "Location": "1, Lorong Haji Taib Satu, Off Jalan Tuanku Abdul Rahman, 50350 Kuala Lumpur.", "Region": "Selangor", "Category": "\u5730\u7f18", "PageNumber": 190, "Country": "Malaysia", "latitude": 3.164227, "longitude": 101.6972284}, "geometry": {"type": "Point", "coordinates": [101.6972284, 3.164227]}}, {"type": "Feature", "properties": {"Name_CH": "\u96ea\u9686\u4f1a\u752f\u516c\u4f1a", "Name_ML": "Persatuan Wui Leng Selangor Dan Kuala Lumpur", "Name_EN": "Selangor & Kuala Lumput Wui Leng Association", "Location": "8, Jalan Panggong, 50000 Kuala Lumpur.", "Region": "Selangor", "Category": "\u5730\u7f18", "PageNumber": 190, "Country": "Malaysia", "latitude": 3.1418593, "longitude": 101.6972892}, "geometry": {"type": "Point", "coordinates": [101.6972892, 3.1418593]}}, {"type": "Feature", "properties": {"Name_CH": "\u96ea\u9686\u4f1a\u752f\u516c\u4f1a", "Name_ML": "Persatuan Wui Leng Selangor Dan Kuala Lumpur", "Name_EN": "Selangor & Kuala Lumput Wui Leng Association", "Location": "8, Jalan Panggong, 50000 Kuala Lumpur.", "Region": "Selangor", "Category": "\u5730\u7f18", "PageNumber": 190, "Country": "Malaysia", "latitude": 3.1418593, "longitude": 101.6972892}, "geometry": {"type": "Point", "coordinates": [101.6972892, 3.1418593]}}, {"type": "Feature", "properties": {"Name_CH": "\u96ea\u9686\u60e0\u5dde\u4f1a\u9986", "Name_ML": "Persatuan Fui Chiu Wilayah Persekutuan Dan Selangor", "Name_EN": "The Selangor And Federal Territory Fui Chiu Wilayah Persekutuan Dan Selangor", "Location": "Tingkat 6, Wisma Fui Chiu, 8-12, Jalan Petaling, 50000 Kuala Lumpur.", "Region": "Selangor", "Category": "\u5730\u7f18", "PageNumber": 190, "Country": "Malaysia", "latitude": 3.1456439, "longitude": 101.6974449}, "geometry": {"type": "Point", "coordinates": [101.6974449, 3.1456439]}}, {"type": "Feature", "properties": {"Name_CH": "\u96ea\u9686\u664b\u6c5f\u4f1a\u9986", "Name_ML": null, "Name_EN": "Selangor & Kuala Lumpur Chin Kang Association", "Location": "64, Jalan Kuantan, 53200 Kuala Lumpur.", "Region": "Selangor", "Category": "\u5730\u7f18", "PageNumber": 190, "Country": "Malaysia", "latitude": 3.1753433, "longitude": 101.7025628}, "geometry": {"type": "Point", "coordinates": [101.7025628, 3.1753433]}}, {"type": "Feature", "properties": {"Name_CH": "\u96ea\u9686\u53f0\u5c71\u4f1a\u9986", "Name_ML": "Persatuan Thoy San Selangor & Kuala Lumpur", "Name_EN": null, "Location": "13, Tingkat 2, Jalan Tong Shin, 50200 Kuala Lumpur.", "Region": "Selangor", "Category": "\u5730\u7f18", "PageNumber": 190, "Country": "Malaysia", "latitude": 3.1448262, "longitude": 101.7069977}, "geometry": {"type": "Point", "coordinates": [101.7069977, 3.1448262]}}, {"type": "Feature", "properties": {"Name_CH": "\u96ea\u9686\u987a\u5fb7\u4f1a\u9986", "Name_ML": "Persatuan Soon Tuck Selangor & Wilayah Persekutuan", "Name_EN": null, "Location": "61-3, Jalan SP 2/2, Taman Serdang Perdana Seksyen 2, 43300 Seri Kembangan Selangor.", "Region": "Selangor", "Category": "\u5730\u7f18", "PageNumber": 190, "Country": "Malaysia", "latitude": 3.0317934, "longitude": 101.7077598}, "geometry": {"type": "Point", "coordinates": [101.7077598, 3.0317934]}}, {"type": "Feature", "properties": {"Name_CH": "\u96ea\u9686\u9e64\u5c71\u4f1a\u9986", "Name_ML": "Selangor & Kuala Lumpur Hock San Association", "Name_EN": null, "Location": "8, Jalan Rembia, 50200 Kuala Lumpur.", "Region": "Selangor", "Category": "\u5730\u7f18", "PageNumber": 190, "Country": "Malaysia", "latitude": 3.146555, "longitude": 101.7086214}, "geometry": {"type": "Point", "coordinates": [101.7086214, 3.146555]}}, {"type": "Feature", "properties": {"Name_CH": "\u96ea\u9686\u6e05\u8fdc\u4f1a\u9986", "Name_ML": "Persatuan Ching Yuen Selangor Dan Wilayah Persekutuan", "Name_EN": null, "Location": "35A, Jalan Berangan, 50200 Kuala Lumpur.", "Region": "Selangor", "Category": "\u5730\u7f18", "PageNumber": 190, "Country": "Malaysia", "latitude": 3.1476312, "longitude": 101.7086542}, "geometry": {"type": "Point", "coordinates": [101.7086542, 3.1476312]}}, {"type": "Feature", "properties": {"Name_CH": "\u96ea\u9686\u9f99\u5ca9\u4f1a\u9986", "Name_ML": "Persatuan Lung Yen Kuala Lumpur & Selangor", "Name_EN": null, "Location": "57C, Jalan Jejaka 1, Taman Maluri Cheras, 55100 Kuala Lumpur.", "Region": "Selangor", "Category": "\u5730\u7f18", "PageNumber": 190, "Country": "Malaysia", "latitude": 3.1299393, "longitude": 101.7347544}, "geometry": {"type": "Point", "coordinates": [101.7347544, 3.1299393]}}, {"type": "Feature", "properties": {"Name_CH": "\u96ea\u9686\u5ba2\u5bb6\u603b\u4f1a", "Name_ML": "Persatuan Hakka Wilayah Persekutuan Kuala Lumpur & Selangor", "Name_EN": null, "Location": "30A, Jalan Mutiara Raya, Tmn Mutiara, Cheras, 56000 Kuala Lumpur.", "Region": "Selangor", "Category": "\u5730\u7f18", "PageNumber": 190, "Country": "Malaysia", "latitude": 3.0911939, "longitude": 101.7397478}, "geometry": {"type": "Point", "coordinates": [101.7397478, 3.0911939]}}, {"type": "Feature", "properties": {"Name_CH": "\u96ea\u9686\u5ba2\u5bb6\u603b\u4f1a", "Name_ML": "Persatuan Hakka Wilayah Persekutuan Kuala Lumpur & Selangor", "Name_EN": null, "Location": "30A, Jalan Mutiara Raya, Tmn Mutiara, Cheras, 56000 Kuala Lumpur.", "Region": "Selangor", "Category": "\u5730\u7f18", "PageNumber": 190, "Country": "Malaysia", "latitude": 3.0911939, "longitude": 101.7397478}, "geometry": {"type": "Point", "coordinates": [101.7397478, 3.0911939]}}, {"type": "Feature", "properties": {"Name_CH": "\u6d6e\u7f57\u5409\u80c6\u8521\u6c0f\u516c\u4f1a", "Name_ML": null, "Name_EN": null, "Location": "76-K, Pulau Ketam, 42490 Selangor.", "Region": "Selangor", "Category": "\u8840\u7f18", "PageNumber": 191, "Country": "Malaysia", "latitude": 3.0334114, "longitude": 101.2467116}, "geometry": {"type": "Point", "coordinates": [101.2467116, 3.0334114]}}, {"type": "Feature", "properties": {"Name_CH": "\u5df4\u751f\u6ee8\u6d77\u533a\u6797\u6c0f\u5b97\u4eb2\u4f1a", "Name_ML": "Persatuan Keturunan Um Pantai Klang", "Name_EN": null, "Location": "69-B, Lebuh Berangan, 42000 Pelabuhan Klang, Selangor", "Region": "Selangor", "Category": "\u8840\u7f18", "PageNumber": 191, "Country": "Malaysia", "latitude": 3.0049088, "longitude": 101.3985821}, "geometry": {"type": "Point", "coordinates": [101.3985821, 3.0049088]}}, {"type": "Feature", "properties": {"Name_CH": "\u6d6e\u7f57\u5409\u80c6\u8c22\u6c0f\u516c\u4f1a", "Name_ML": "Persatuan Keturunan Chia", "Name_EN": null, "Location": "6P, Jalan Merdeka, Pulau Ketam, Port Klang, 42940 Selangor.", "Region": "Selangor", "Category": "\u8840\u7f18", "PageNumber": 191, "Country": "Malaysia", "latitude": 3.0197374, "longitude": 101.2530745}, "geometry": {"type": "Point", "coordinates": [101.2530745, 3.0197374]}}, {"type": "Feature", "properties": {"Name_CH": "\u4e1c\u5173\u4f1f\u516c\u9648\u6c0f\u516c\u4f1a", "Name_ML": "Persatuan Tong Kwan Wee Kong Tan Sze", "Name_EN": null, "Location": "114B, Jalan Pekan Baru, Off Jalan Meru, 41050 Klang Selangor.", "Region": "Selangor", "Category": "\u8840\u7f18", "PageNumber": 191, "Country": "Malaysia", "latitude": 3.066211, "longitude": 101.4526587}, "geometry": {"type": "Point", "coordinates": [101.4526587, 3.066211]}}, {"type": "Feature", "properties": {"Name_CH": "\u5df4\u751f\u6ee8\u6d77\u9648\u6c0f\u5b97\u4eb2\u4f1a", "Name_ML": "Persatuan Tan Klang Dan Pantai Klang", "Name_EN": null, "Location": "No.32-B, Jalan Dato Yusof Shahbudin 44,Taman Mewah Jaya, 41200 Klang Selangor.", "Region": "Selangor", "Category": "\u8840\u7f18", "PageNumber": 191, "Country": "Malaysia", "latitude": 3.0091313, "longitude": 101.4691725}, "geometry": {"type": "Point", "coordinates": [101.4691725, 3.0091313]}}, {"type": "Feature", "properties": {"Name_CH": "\u4e39\u7ed2\u58eb\u62d4\u8c22\u6c0f\u5b97\u7960", "Name_ML": null, "Name_EN": "Chia Ancestral Temple Tanjung Sepat", "Location": "660, Jalan Timur, Tanjung Sepat Kuala Langat, 42800 Selangor.", "Region": "Selangor", "Category": "\u8840\u7f18", "PageNumber": 191, "Country": "Malaysia", "latitude": 2.6593901, "longitude": 101.5628156}, "geometry": {"type": "Point", "coordinates": [101.5628156, 2.6593901]}}, {"type": "Feature", "properties": {"Name_CH": "\u4e39\u7ed2\u58eb\u62d4\u8c22\u6c0f\u5b97\u7960", "Name_ML": null, "Name_EN": "Chia Ancestral Temple Tanjung Sepat", "Location": "660, Jalan Timur, Tanjung Sepat Kuala Langat, 42800 Selangor.", "Region": "Selangor", "Category": "\u8840\u7f18", "PageNumber": 191, "Country": "Malaysia", "latitude": 2.6593901, "longitude": 101.5628156}, "geometry": {"type": "Point", "coordinates": [101.5628156, 2.6593901]}}, {"type": "Feature", "properties": {"Name_CH": "\u5401\u9c81\u5b89\u5357\u9ad8\u5dde\u4f1a\u9986", "Name_ML": null, "Name_EN": "Kho Chow Association Ulu Bernam Tanjung Malim", "Location": "76, Jalan Besar Ulu Bernam, 35900 Tanjung Malim, Perak.", "Region": "Selangor", "Category": "\u5730\u7f18", "PageNumber": 191, "Country": "Malaysia", "latitude": 3.6713369, "longitude": 101.5263564}, "geometry": {"type": "Point", "coordinates": [101.5263564, 3.6713369]}}, {"type": "Feature", "properties": {"Name_CH": "\u6609\u601d\u6c5f\u590f\u5802", "Name_ML": "Rasa Kong Har Tong Association", "Name_EN": null, "Location": "21,Jalan Kuala Kali, Rasa, Ulu Selangor, 44200 Selangor", "Region": "Selangor", "Category": "\u8840\u7f18", "PageNumber": 191, "Country": "Malaysia", "latitude": 3.4963635, "longitude": 101.6330512}, "geometry": {"type": "Point", "coordinates": [101.6330512, 3.4963635]}}, {"type": "Feature", "properties": {"Name_CH": "\u6609\u601d\u6c5f\u590f\u5802", "Name_ML": "Rasa Kong Har Tong Association", "Name_EN": null, "Location": "21,Jalan Kuala Kali, Rasa, Ulu Selangor, 44200 Selangor", "Region": "Selangor", "Category": "\u8840\u7f18", "PageNumber": 191, "Country": "Malaysia", "latitude": 3.4963635, "longitude": 101.6330512}, "geometry": {"type": "Point", "coordinates": [101.6330512, 3.4963635]}}, {"type": "Feature", "properties": {"Name_CH": "\u96ea\u9686\u5174\u5b89\u4f1a\u9986", "Name_ML": "Persatuan Shing An Selangor & Wilayah Persekutuan", "Name_EN": null, "Location": "13-15, Jalan Thambapillal Brickfields, 50470 Kuala Lumpur.", "Region": "Selangor", "Category": "\u5730\u7f18", "PageNumber": 191, "Country": "Malaysia", "latitude": 3.1328658, "longitude": 101.6887144}, "geometry": {"type": "Point", "coordinates": [101.6887144, 3.1328658]}}, {"type": "Feature", "properties": {"Name_CH": "\u5409\u9686\u5761\u8c22\u6c0f\u8054\u5b97\u4f1a", "Name_ML": null, "Name_EN": "The Chia Clansmen Association Of Kuala Lumpur", "Location": "48, 3rd Floor, Jalan Kampung Attap, 50460 Kuala Lumpur", "Region": "Selangor", "Category": "\u8840\u7f18", "PageNumber": 191, "Country": "Malaysia", "latitude": 3.1382044, "longitude": 101.6964811}, "geometry": {"type": "Point", "coordinates": [101.6964811, 3.1382044]}}, {"type": "Feature", "properties": {"Name_CH": "\u9a6c\u6765\u897f\u4e9a\u57d4\u8054\u603b\u4f1a", "Name_ML": null, "Name_EN": "The Federation of Taipu (Cha Yong) Associations Malaysia", "Location": "2-4, Jalan Lengkongan Brunal, off Jalan Pudu, 55100 Kuala Lumpur.", "Region": "Selangor", "Category": "\u5730\u7f18", "PageNumber": 191, "Country": "Malaysia", "latitude": 3.1380545, "longitude": 101.7110369}, "geometry": {"type": "Point", "coordinates": [101.7110369, 3.1380545]}}, {"type": "Feature", "properties": {"Name_CH": "\u9a6c\u6765\u897f\u4e9a\u57d4\u8054\u603b\u4f1a", "Name_ML": null, "Name_EN": "The Federation of Taipu (Cha Yong) Associations Malaysia", "Location": "2-4, Jalan Lengkongan Brunal, off Jalan Pudu, 55100 Kuala Lumpur.", "Region": "Selangor", "Category": "\u5730\u7f18", "PageNumber": 191, "Country": "Malaysia", "latitude": 3.1380545, "longitude": 101.7110369}, "geometry": {"type": "Point", "coordinates": [101.7110369, 3.1380545]}}, {"type": "Feature", "properties": {"Name_CH": "\u9a6c\u6765\u897f\u4e9a\u9ec4\u6c0f\u767b\u8fdb\u5bb6\u65cf\u4f1a", "Name_ML": "Persatuan Keluarga Ng Teng Chin Malaysia", "Name_EN": null, "Location": "No.2616, Wisma Teng Chin, Persiaran Tengku Ampuan Rahimah, 41200 Klang, Selangor.", "Region": "Selangor", "Category": "\u8840\u7f18", "PageNumber": 192, "Country": "Malaysia", "latitude": 3.029238, "longitude": 101.4423181}, "geometry": {"type": "Point", "coordinates": [101.4423181, 3.029238]}}, {"type": "Feature", "properties": {"Name_CH": "\u9a6c\u6765\u897f\u4e9a\u3001\u96ea\u9686\u90d1\u6c0f\u516c\u4f1a", "Name_ML": "Persatuan Keturunan Kaum Keluarga Tee Selangor Dan Wilayah Persekutuan P.K.K.K.Tee Selangor, Wilayah Persekutuan Malaysia", "Name_EN": null, "Location": "8400 Lot 4868, Jalan E1/1 Light Industrial Area, Taman Ehsan, 52100 Kepong, Selangor.", "Region": "Selangor", "Category": "\u8840\u7f18", "PageNumber": 192, "Country": "Malaysia", "latitude": 3.2175554, "longitude": 101.6199544}, "geometry": {"type": "Point", "coordinates": [101.6199544, 3.2175554]}}, {"type": "Feature", "properties": {"Name_CH": "\u9a6c\u6765\u897f\u4e9a\u3001\u96ea\u9686\u90d1\u6c0f\u516c\u4f1a", "Name_ML": "Persatuan Keturunan Kaum Keluarga Tee Selangor Dan Wilayah Persekutuan P.K.K.K.Tee Selangor, Wilayah Persekutuan Malaysia", "Name_EN": null, "Location": "8400 Lot 4868, Jalan E1/1 Light Industrial Area, Taman Ehsan, 52100 Kepong, Selangor.", "Region": "Selangor", "Category": "\u8840\u7f18", "PageNumber": 192, "Country": "Malaysia", "latitude": 3.2175554, "longitude": 101.6199544}, "geometry": {"type": "Point", "coordinates": [101.6199544, 3.2175554]}}, {"type": "Feature", "properties": {"Name_CH": "\u9a6c\u6765\u897f\u4e9a\u9648\u6c0f\u5b97\u4eb2\u603b\u4f1a", "Name_ML": "Persekutuan Persatuan-Persatuan Chen (Tan) Malaysia", "Name_EN": "The Federation Of Chan (Tan) Clan Association Malaysia", "Location": "5, Jalan 3/33A, Batu 7 Off Jalan Kepong, 52100 Kuala Lumpur.", "Region": "Selangor", "Category": "\u8840\u7f18", "PageNumber": 192, "Country": "Malaysia", "latitude": 3.2123104, "longitude": 101.6448774}, "geometry": {"type": "Point", "coordinates": [101.6448774, 3.2123104]}}, {"type": "Feature", "properties": {"Name_CH": "\u9a6c\u6765\u897f\u4e9a\u9ad8\u6c0f\u516c\u4f1a", "Name_ML": "Persatuan Gao Malaysia", "Name_EN": null, "Location": "1-2-2, Jalan 7/18D, Taman Mastiara, Jalan Ipoh, 52100 Kuala Lumpur.", "Region": "Selangor", "Category": "\u8840\u7f18", "PageNumber": 192, "Country": "Malaysia", "latitude": 3.2143825, "longitude": 101.6733753}, "geometry": {"type": "Point", "coordinates": [101.6733753, 3.2143825]}}, {"type": "Feature", "properties": {"Name_CH": "\u9a6c\u6765\u897f\u4e9a\u4f55\u6c0f\u603b\u4f1a", "Name_ML": null, "Name_EN": "Ho Association Of Malaysia", "Location": "129, Jalan Bukit Candan, Batu 41/4, Off Jalan lpoh, 51100 Kuala Lumpur.", "Region": "Selangor", "Category": "\u8840\u7f18", "PageNumber": 192, "Country": "Malaysia", "latitude": 3.200004, "longitude": 101.678477}, "geometry": {"type": "Point", "coordinates": [101.678477, 3.200004]}}, {"type": "Feature", "properties": {"Name_CH": "\u9a6c\u6765\u897f\u4e9a\u5173\u6c0f\u516c\u4f1a", "Name_ML": "Persatuan Kaum Kuan Malaysia", "Name_EN": "Malaysia Kuan Clansmen Association", "Location": "38A, Jalan Tekukor, Off Jalan Ipoh Batu 3, 51100 Kuala Lumpur.", "Region": "Selangor", "Category": "\u8840\u7f18", "PageNumber": 192, "Country": "Malaysia", "latitude": 3.1811972, "longitude": 101.6829534}, "geometry": {"type": "Point", "coordinates": [101.6829534, 3.1811972]}}, {"type": "Feature", "properties": {"Name_CH": "\u9a6c\u6765\u897f\u4e9a\u6d77\u5357\u6797\u6c0f\u516c\u4f1a", "Name_ML": "Persatuan Keturunan Lim Hainan Malaysia", "Name_EN": null, "Location": "149-151, Jalan Sultan Abdul Samad, Brickfields, 50470 Kuala Lumpur", "Region": "Selangor", "Category": "\u8840\u7f18", "PageNumber": 192, "Country": "Malaysia", "latitude": 3.1329997, "longitude": 101.6903605}, "geometry": {"type": "Point", "coordinates": [101.6903605, 3.1329997]}}, {"type": "Feature", "properties": {"Name_CH": "\u9a6c\u6765\u897f\u4e9a\u9ec4\u6c0f\u5b97\u7960", "Name_ML": null, "Name_EN": null, "Location": "44B, Jalan Chow Kit, 50350 Kuala Lumpur", "Region": "Selangor", "Category": "\u8840\u7f18", "PageNumber": 192, "Country": "Malaysia", "latitude": 3.1666046, "longitude": 101.6966769}, "geometry": {"type": "Point", "coordinates": [101.6966769, 3.1666046]}}, {"type": "Feature", "properties": {"Name_CH": "\u9678\u96ea\u9648\u6c0f\u4e66\u9662(\u5b97\u4eb2\u4f1a)", "Name_ML": "Persatuan Keturunan Chan She Shu Yuen Kuala Lumpur & Selangor", "Name_EN": null, "Location": "172, Jalan Petaling, 50000 Kuala Lumpur.", "Region": "Selangor", "Category": "\u8840\u7f18", "PageNumber": 192, "Country": "Malaysia", "latitude": 3.1402903, "longitude": 101.6983789}, "geometry": {"type": "Point", "coordinates": [101.6983789, 3.1402903]}}, {"type": "Feature", "properties": {"Name_CH": "\u9a6c\u6765\u897f\u4e9a\u5085\u6c0f\u516c\u4f1a", "Name_ML": "Persatuan Keturunan Poh Malaysia", "Name_EN": "Poh Association Of Malaysia", "Location": "6A, Jalan SG1/2, Taman Seri Gombak, Batu Caves, 68100 Selangor.", "Region": "Selangor", "Category": "\u8840\u7f18", "PageNumber": 192, "Country": "Malaysia", "latitude": 3.2364654, "longitude": 101.6988424}, "geometry": {"type": "Point", "coordinates": [101.6988424, 3.2364654]}}, {"type": "Feature", "properties": {"Name_CH": "\u9a6c\u6765\u897f\u4e9a\u7b26\u6c0f\u603b\u4f1a", "Name_ML": "Persekutuan Persatuan Keturunan Foo Malaysia", "Name_EN": "Foo Clan Association Malaysia", "Location": "7, Tengkat Tong Shin, 50200 Kuala Lumpur.", "Region": "Selangor", "Category": "\u8840\u7f18", "PageNumber": 192, "Country": "Malaysia", "latitude": 3.1454711, "longitude": 101.7071796}, "geometry": {"type": "Point", "coordinates": [101.7071796, 3.1454711]}}, {"type": "Feature", "properties": {"Name_CH": "\u9a6c\u6765\u897f\u4e9a\u674e\u6c0f\u603b\u4f1a", "Name_ML": "Persekutuan Persatuan Lee Malaysia", "Name_EN": "The United Lee' s Federation Of Malaysia", "Location": "57- A, Changkat Tambi Dollan, Pudu 55100 Kuala Lumpur.", "Region": "Selangor", "Category": "\u8840\u7f18", "PageNumber": 192, "Country": "Malaysia", "latitude": 3.1407272, "longitude": 101.7106991}, "geometry": {"type": "Point", "coordinates": [101.7106991, 3.1407272]}}, {"type": "Feature", "properties": {"Name_CH": "\u9a6c\u6765\u897f\u4e9a\u6c38\u6625\u7f8e\u5c71\u6797\u6c0f\u5bb6\u65cf\u4f1a", "Name_ML": "Persatuan Keturunan Bee San Lim (Eng Choon) Malaysia", "Name_EN": null, "Location": "Lot 578D, Sungai Rasa, Jalan Batu Tiga, 41300 Klang, Selangor.", "Region": "Selangor", "Category": "\u8840\u7f18", "PageNumber": 193, "Country": "Malaysia", "latitude": 3.0583535, "longitude": 101.4850464}, "geometry": {"type": "Point", "coordinates": [101.4850464, 3.0583535]}}, {"type": "Feature", "properties": {"Name_CH": "\u9a6c\u6765\u897f\u4e9a\u9a6c\u6c0f\u5b97\u4eb2\u603b\u4f1a", "Name_ML": null, "Name_EN": "Malaysian Mah Clan Assciation", "Location": "86, Jalan Badminton 13/29, Shah Alam, 40000 Selangor.", "Region": "Selangor", "Category": "\u8840\u7f18", "PageNumber": 193, "Country": "Malaysia", "latitude": 3.0907861, "longitude": 101.5459847}, "geometry": {"type": "Point", "coordinates": [101.5459847, 3.0907861]}}, {"type": "Feature", "properties": {"Name_CH": "\u9a6c\u6765\u897f\u4e9a\u84ec\u83b1\u5218\u6c0f\u516c\u4f1a", "Name_ML": "Persatuan Hong Lai Low Malaysia", "Name_EN": "Malaysia Hong Lai Low' s Assciation", "Location": "35, Jalan Arang, Kepong Baru, 52000 Kuala Lumpur.", "Region": "Selangor", "Category": "\u8840\u7f18", "PageNumber": 193, "Country": "Malaysia", "latitude": 3.2090694, "longitude": 101.6423615}, "geometry": {"type": "Point", "coordinates": [101.6423615, 3.2090694]}}, {"type": "Feature", "properties": {"Name_CH": "\u9a6c\u6765\u897f\u4e9a\u8427\u6c0f\u516c\u4f1a", "Name_ML": null, "Name_EN": "Siow Assn Of Malaysia", "Location": "147-2, 3 1/4 Miles, Jalan Klang Lama, 58000 Kuala Lumpur.", "Region": "Selangor", "Category": "\u8840\u7f18", "PageNumber": 193, "Country": "Malaysia", "latitude": 3.1135264, "longitude": 101.6785803}, "geometry": {"type": "Point", "coordinates": [101.6785803, 3.1135264]}}, {"type": "Feature", "properties": {"Name_CH": "\u9a6c\u6765\u897f\u4e9a\u5434\u6c0f\u516c\u4f1a", "Name_ML": "Persatuan Wu Malaysia", "Name_EN": null, "Location": "10-B, Laman Raja Laut, Off Jalan Raja Laut, 50350 Kuala Lumpur.", "Region": "Selangor", "Category": "\u8840\u7f18", "PageNumber": 193, "Country": "Malaysia", "latitude": 3.165974, "longitude": 101.695697}, "geometry": {"type": "Point", "coordinates": [101.695697, 3.165974]}}, {"type": "Feature", "properties": {"Name_CH": "\u9a6c\u6765\u897f\u4e9a\u8c22\u6c0f\u603b\u4f1a", "Name_ML": "Persatuan Keturunan Chia Malaysia", "Name_EN": "The Federation Of Cina Clansmen Association Malaysia", "Location": "48, 3rd, Floor, Jalan Kampong Attap, 50460 Kuala Lumpur.", "Region": "Selangor", "Category": "\u8840\u7f18", "PageNumber": 193, "Country": "Malaysia", "latitude": 3.1382044, "longitude": 101.6964811}, "geometry": {"type": "Point", "coordinates": [101.6964811, 3.1382044]}}, {"type": "Feature", "properties": {"Name_CH": "\u9a6c\u6765\u897f\u4e9a\u8c22\u6c0f\u603b\u4f1a", "Name_ML": "Persatuan Keturunan Chia Malaysia", "Name_EN": "The Federation Of Cina Clansmen Association Malaysia", "Location": "48, 3rd, Floor, Jalan Kampong Attap, 50460 Kuala Lumpur.", "Region": "Selangor", "Category": "\u8840\u7f18", "PageNumber": 193, "Country": "Malaysia", "latitude": 3.1382044, "longitude": 101.6964811}, "geometry": {"type": "Point", "coordinates": [101.6964811, 3.1382044]}}, {"type": "Feature", "properties": {"Name_CH": "\u9a6c\u6765\u897f\u4e9a\u5357\u9633\u5b97\u4eb2\u603b\u4f1a", "Name_ML": null, "Name_EN": "The Federation Of Nanyang Association Malaysia", "Location": "No.102 & 104, Jalan Tun H S Lee, 50000 Kuala Lumpur.", "Region": "Selangor", "Category": "\u8840\u7f18", "PageNumber": 193, "Country": "Malaysia", "latitude": 3.146459, "longitude": 101.696688}, "geometry": {"type": "Point", "coordinates": [101.696688, 3.146459]}}, {"type": "Feature", "properties": {"Name_CH": "\u9a6c\u6765\u897f\u4e9a\u5357\u9633\u5b97\u4eb2\u603b\u4f1a", "Name_ML": null, "Name_EN": "The Federation Of Nanyang Association Malaysia", "Location": "No.102 & 104, Jalan Tun H S Lee, 50000 Kuala Lumpur.", "Region": "Selangor", "Category": "\u8840\u7f18", "PageNumber": 193, "Country": "Malaysia", "latitude": 3.146459, "longitude": 101.696688}, "geometry": {"type": "Point", "coordinates": [101.696688, 3.146459]}}, {"type": "Feature", "properties": {"Name_CH": "\u9a6c\u6765\u897f\u4e9a\u9646\u6c0f\u5b97\u4eb2\u4f1a", "Name_ML": "Persatuan Loke Malaysia", "Name_EN": "Loke Association Of Malaysia", "Location": "25-1 Jalan Maharajalela, 50150 Kuala Lumpur.", "Region": "Selangor", "Category": "\u8840\u7f18", "PageNumber": 193, "Country": "Malaysia", "latitude": 3.1379788, "longitude": 101.699702}, "geometry": {"type": "Point", "coordinates": [101.699702, 3.1379788]}}, {"type": "Feature", "properties": {"Name_CH": "\u9a6c\u6765\u897f\u4e9a\u8c2d\u6c0f\u5b97\u4eb2\u4f1a", "Name_ML": "Persatuan Keturunan Tham Malaysia", "Name_EN": null, "Location": "24A, Jalan 10/118B, Desa Tun Razak, 56000 Kuala Lumpur.", "Region": "Selangor", "Category": "\u8840\u7f18", "PageNumber": 193, "Country": "Malaysia", "latitude": 3.0792143, "longitude": 101.7184274}, "geometry": {"type": "Point", "coordinates": [101.7184274, 3.0792143]}}, {"type": "Feature", "properties": {"Name_CH": "\u9a6c\u6765\u897f\u4e9a\u7f57\u6c0f\u516c\u4f1a", "Name_ML": "Persatuan Keturunan Orang-Orang Loh Malaysia", "Name_EN": null, "Location": "34-3-1, Jalan 1/101 C, Cheras Business Centre, Batu 5, Jalan Cheras, 56100 Kuala Lumpur.", "Region": "Selangor", "Category": "\u8840\u7f18", "PageNumber": 193, "Country": "Malaysia", "latitude": 3.1000671, "longitude": 101.739363}, "geometry": {"type": "Point", "coordinates": [101.739363, 3.1000671]}}, {"type": "Feature", "properties": {"Name_CH": "\u9a6c\u6765\u897f\u4e9a\u5357\u5b89\u5218\u6c0f\u516c\u4f1a", "Name_ML": "Persatuan Kaum Nam Ann Low Malaysia", "Name_EN": null, "Location": "17-1 & 19-1, Jalan 45/26, Taman Seri Rampai, 53300 Setapak, Kuala Lumpur.", "Region": "Selangor", "Category": "\u8840\u7f18", "PageNumber": 193, "Country": "Malaysia", "latitude": 3.1947075, "longitude": 101.7323461}, "geometry": {"type": "Point", "coordinates": [101.7323461, 3.1947075]}}, {"type": "Feature", "properties": {"Name_CH": "\u9a6c\u6765\u897f\u4e9a\u6e29\u6c0f\u5b97\u4eb2\u4f1a", "Name_ML": "Persatuan Keturunan Woon Malaysia", "Name_EN": null, "Location": "46B, Jalan Cerdas, Taman Connaught 56000 Kuala Lumpur.", "Region": "Selangor", "Category": "\u8840\u7f18", "PageNumber": 193, "Country": "Malaysia", "latitude": 3.0813099, "longitude": 101.7379884}, "geometry": {"type": "Point", "coordinates": [101.7379884, 3.0813099]}}, {"type": "Feature", "properties": {"Name_CH": "\u4e94\u59d3\u516c\u4f1a\uff08\u6d6e\u7f57\u5409\u80c6\uff09", "Name_ML": null, "Name_EN": "Loo, Loh, Koh, Kho & Kee Association", "Location": "79-K, Branch Street, Pulau Ketam, 42490 Selangor.", "Region": "Selangor", "Category": "\u8840\u7f18", "PageNumber": 194, "Country": "Malaysia", "latitude": 3.0334114, "longitude": 101.2467116}, "geometry": {"type": "Point", "coordinates": [101.2467116, 3.0334114]}}, {"type": "Feature", "properties": {"Name_CH": "\u96ea\u5170\u83aa\u6d2a\u6c0f\u516c\u4f1a", "Name_ML": null, "Name_EN": "Selangor Ang Clan Association", "Location": "322 & 435, Sg. Jarom, Jenjarom, Kuala Langat, 42600 Selangor.", "Region": "Selangor", "Category": "\u8840\u7f18", "PageNumber": 194, "Country": "Malaysia", "latitude": 2.8883565, "longitude": 101.5134398}, "geometry": {"type": "Point", "coordinates": [101.5134398, 2.8883565]}}, {"type": "Feature", "properties": {"Name_CH": "\u9a6c\u6765\u897f\u4e9a\u6c38\u751c\u573a\u6797\u6c0f\u516c\u4f1a", "Name_ML": "Persatuan Orang-Orang Eng Choon Tow Teong Yang Bernama Lim", "Name_EN": null, "Location": "35, Jalan 3/18C, Taman Mastiara, Batu 5, Jalan lpoh, 51200 Kuala Lumpur.", "Region": "Selangor", "Category": "\u8840\u7f18", "PageNumber": 194, "Country": "Malaysia", "latitude": 3.214305, "longitude": 101.676013}, "geometry": {"type": "Point", "coordinates": [101.676013, 3.214305]}}, {"type": "Feature", "properties": {"Name_CH": "\u9a6c\u6765\u897f\u4e9a\u6c38\u751c\u573a\u6797\u6c0f\u516c\u4f1a", "Name_ML": "Persatuan Orang-Orang Eng Choon Tow Teong Yang Bernama Lim", "Name_EN": null, "Location": "35, Jalan 3/18C, Taman Mastiara, Batu 5, Jalan lpoh, 51200 Kuala Lumpur.", "Region": "Selangor", "Category": "\u8840\u7f18", "PageNumber": 194, "Country": "Malaysia", "latitude": 3.214305, "longitude": 101.676013}, "geometry": {"type": "Point", "coordinates": [101.676013, 3.214305]}}, {"type": "Feature", "properties": {"Name_CH": "\u9a6c\u91c6\u4e9a\u82cf\u6c0f\u8054\u4eac\u4f1a", "Name_ML": null, "Name_EN": "Saw Clansmen Association Of The State Of Malaya", "Location": "30A, Jalan Balam, Off Jalan Ipoh, Batu Tiga, 52100 Kuala Lumpur.", "Region": "Selangor", "Category": "\u8840\u7f18", "PageNumber": 194, "Country": "Malaysia", "latitude": 3.1831512, "longitude": 101.6824142}, "geometry": {"type": "Point", "coordinates": [101.6824142, 3.1831512]}}, {"type": "Feature", "properties": {"Name_CH": "\u96ea\u5170\u83aa\u66a8\u8054\u90a6\u76f4\u8f96\u533a\u5ed6\u6c0f\u516c\u4f1a", "Name_ML": null, "Name_EN": "The Leow\uff0cs Association Of Selangor & FT", "Location": "9-B, Jalan Batu Bata, Off Jalan Ipoh, 50400 Kuala Lumpur.", "Region": "Selangor", "Category": "\u8840\u7f18", "PageNumber": 194, "Country": "Malaysia", "latitude": 3.1719909, "longitude": 101.6945591}, "geometry": {"type": "Point", "coordinates": [101.6945591, 3.1719909]}}, {"type": "Feature", "properties": {"Name_CH": "\u9a6c\u6765\u897f\u4e9a\u6731\u6c0f\u8054\u5408\u4f1a", "Name_ML": "Persatuan Keturunan Choo Malaysia", "Name_EN": "Malaysia Choo Clan Association", "Location": "No.4, Jalan Chow Kit Kiri, 50350 Kuala Lumpur.", "Region": "Selangor", "Category": "\u8840\u7f18", "PageNumber": 194, "Country": "Malaysia", "latitude": 3.1668657, "longitude": 101.6942184}, "geometry": {"type": "Point", "coordinates": [101.6942184, 3.1668657]}}, {"type": "Feature", "properties": {"Name_CH": "\u6b27\u9633\u5bb6\u65cf\u4f1a", "Name_ML": "Persatuan Keturunan Au Yong", "Name_EN": "Au Yong Association", "Location": "47, Changkat Bukit Bintang, 50200, Kuala Lumpur.", "Region": "Selangor", "Category": "\u8840\u7f18", "PageNumber": 194, "Country": "Malaysia", "latitude": 3.1472356, "longitude": 101.7079192}, "geometry": {"type": "Point", "coordinates": [101.7079192, 3.1472356]}}, {"type": "Feature", "properties": {"Name_CH": "\u96ea\u5170\u83aa\u66a8\u8054\u90a6\u76f4\u8f96\u533a\uff08\u9601\u5dde\uff09\u8bb8\u6c0f\u516c\u4f1a", "Name_ML": "Persatuan Keluarga Koh WP & Selangor", "Name_EN": null, "Location": "28, Jalan Gelang, Off Jalan Sg Besi, 55200 Kuala Lumpur.", "Region": "Selangor", "Category": "\u8840\u7f18", "PageNumber": 194, "Country": "Malaysia", "latitude": 3.1311426, "longitude": 101.7109178}, "geometry": {"type": "Point", "coordinates": [101.7109178, 3.1311426]}}, {"type": "Feature", "properties": {"Name_CH": "\u5357\u6d0b\u8336\u9633\u8d75\u6c0f\u516c\u4f1a", "Name_ML": null, "Name_EN": "Nanyang Char Yong Chow Clan Association", "Location": "68-C, Jalan Brunei Utara, 55100 Pudu, Kuala Lumpur.", "Region": "Selangor", "Category": "\u8840\u7f18", "PageNumber": 194, "Country": "Malaysia", "latitude": 3.138878, "longitude": 101.7125251}, "geometry": {"type": "Point", "coordinates": [101.7125251, 3.138878]}}, {"type": "Feature", "properties": {"Name_CH": "\u96ea\u5170\u83aa\u66a8\u8054\u90a6\u76f4\u8f96\u533a\u65b9\u6c0f\u516c\u4f1a", "Name_ML": "Persatuan Keturunan Fang Selangor & Wilayah Persekutuan", "Name_EN": null, "Location": "124-C, Jalan Imbi, 55100 Kuala Lumpur.", "Region": "Selangor", "Category": "\u8840\u7f18", "PageNumber": 194, "Country": "Malaysia", "latitude": 3.1455731, "longitude": 101.7147373}, "geometry": {"type": "Point", "coordinates": [101.7147373, 3.1455731]}}, {"type": "Feature", "properties": {"Name_CH": "\u9a6c\u6765\u897f\u4e9a\u6c38\u6625\u5468\u6c0f\u516c\u4f1a", "Name_ML": null, "Name_EN": "Eng Choon Chew' s Association Malaysia", "Location": "49B, Jalan Yew, Pudu, 55100 Kuala Lumpur.", "Region": "Selangor", "Category": "\u8840\u7f18", "PageNumber": 194, "Country": "Malaysia", "latitude": 3.1331545, "longitude": 101.7165561}, "geometry": {"type": "Point", "coordinates": [101.7165561, 3.1331545]}}, {"type": "Feature", "properties": {"Name_CH": "\u5170\u83aa\u53ca\u8054\u90a6\u76f4\u8f96\u533a\u5f6d\u6c0f\u8054\u5b97\u4f1a", "Name_ML": "Persatuan Puak Peng Selangor Dan Wilayah Persekutuan", "Name_EN": "Selangor & Federal Territory Peng Clan Association", "Location": "158-2-9, Compleks Maluri, Jalan Jejaka, Taman Malurl 55100 Kuala Lumpur.", "Region": "Selangor", "Category": "\u8840\u7f18", "PageNumber": 194, "Country": "Malaysia", "latitude": 3.13048, "longitude": 101.7343001}, "geometry": {"type": "Point", "coordinates": [101.7343001, 3.13048]}}, {"type": "Feature", "properties": {"Name_CH": "\u5170\u83aa\u53ca\u8054\u90a6\u76f4\u8f96\u533a\u5f6d\u6c0f\u8054\u5b97\u4f1a", "Name_ML": "Persatuan Puak Peng Selangor Dan Wilayah Persekutuan", "Name_EN": "Selangor & Federal Territory Peng Clan Association", "Location": "158-2-9, Compleks Maluri, Jalan Jejaka, Taman Malurl 55100 Kuala Lumpur.", "Region": "Selangor", "Category": "\u8840\u7f18", "PageNumber": 194, "Country": "Malaysia", "latitude": 3.13048, "longitude": 101.7343001}, "geometry": {"type": "Point", "coordinates": [101.7343001, 3.13048]}}, {"type": "Feature", "properties": {"Name_CH": "\u96ea\u5170\u83aa\u6f58\u6c0f\u65cf\u4eb2\u4f1a", "Name_ML": "Persatuan Kaum Kerabat Pan Selangor", "Name_EN": null, "Location": "92, Jalan Sabak Bernam, Sekinchan, 45400 Selangor.", "Region": "Selangor", "Category": "\u8840\u7f18", "PageNumber": 195, "Country": "Malaysia", "latitude": 3.7943763, "longitude": 100.9190555}, "geometry": {"type": "Point", "coordinates": [100.9190555, 3.7943763]}}, {"type": "Feature", "properties": {"Name_CH": "\u96ea\u9686\u989c\u6c0f\u516c\u4f1a", "Name_ML": "Persatuan Gan Selangor & Wilayah Persekutuan", "Name_EN": null, "Location": "18B & C, Jalan Kapar, Klang, 41400 Selangor.", "Region": "Selangor", "Category": "\u8840\u7f18", "PageNumber": 195, "Country": "Malaysia", "latitude": 3.0506362, "longitude": 101.4484151}, "geometry": {"type": "Point", "coordinates": [101.4484151, 3.0506362]}}, {"type": "Feature", "properties": {"Name_CH": "\u96ea\u5170\u83aa\u66a8\u8054\u90a6\u76f4\u8f96\u533a\u5510\u6c0f\u516c\u4f1a", "Name_ML": "Persatuan Keturunan Tang Wilayah Persekutuan & Selangor", "Name_EN": null, "Location": "KT-11, Taman Evergreen, Batu 41/4, Jalan Klang, 58000 Kuala Lumpur.", "Region": "Selangor", "Category": "\u8840\u7f18", "PageNumber": 195, "Country": "Malaysia", "latitude": 3.095581, "longitude": 101.675099}, "geometry": {"type": "Point", "coordinates": [101.675099, 3.095581]}}, {"type": "Feature", "properties": {"Name_CH": "\u96ea\u9686\u8bb8\u6c0f\u5b97\u4eb2\u4f1a", "Name_ML": "Persatuan Ko Yong Koh Si", "Name_EN": null, "Location": "NO.152A, Jalan Batu Kantonment, Batu 4, Jalan lpoh, 51200 Kuala Lumpur.", "Region": "Selangor", "Category": "\u8840\u7f18", "PageNumber": 195, "Country": "Malaysia", "latitude": 3.1953363, "longitude": 101.6793684}, "geometry": {"type": "Point", "coordinates": [101.6793684, 3.1953363]}}, {"type": "Feature", "properties": {"Name_CH": "\u96ea\u5170\u83aa\u5357\u9633\u53f6\u6c0f\u516c\u4f1a", "Name_ML": null, "Name_EN": "Selangor Nam Yong \uff08Yap Si\uff09 Association", "Location": "537-A, Jalan Tiong, Off Jalan Ipoh, 51100 Kuala Lumpur.", "Region": "Selangor", "Category": "\u8840\u7f18", "PageNumber": 195, "Country": "Malaysia", "latitude": 3.1832466, "longitude": 101.6818282}, "geometry": {"type": "Point", "coordinates": [101.6818282, 3.1832466]}}, {"type": "Feature", "properties": {"Name_CH": "\u96ea\u9686\u6c5f\u590f\u5802", "Name_ML": "Persatuan Kaum Huang Sei. Dan Kuala Lumpur", "Name_EN": "Huang Clan Assn Selangor & Kuala Lumpur", "Location": "44B, Jalan Chow Kit, 50350 Kuala Lumpur.", "Region": "Selangor", "Category": "\u8840\u7f18", "PageNumber": 195, "Country": "Malaysia", "latitude": 3.1666046, "longitude": 101.6966769}, "geometry": {"type": "Point", "coordinates": [101.6966769, 3.1666046]}}, {"type": "Feature", "properties": {"Name_CH": "\u96ea\u9686\u4f0d\u6c0f\u5b97\u4eb2\u4f1a", "Name_ML": "Persatuan Kaum Ng Selangor Dan Wilayah Persekutuan", "Name_EN": null, "Location": "18, Jalan Sin Chew Kee, Off Jalan Pudu, 50150 Kuala Lumpur.", "Region": "Selangor", "Category": "\u8840\u7f18", "PageNumber": 195, "Country": "Malaysia", "latitude": 3.143188, "longitude": 101.7047149}, "geometry": {"type": "Point", "coordinates": [101.7047149, 3.143188]}}, {"type": "Feature", "properties": {"Name_CH": "\u96ea\u9686\u7b26\u6c0f\u5b97\u4eb2\u4f1a", "Name_ML": "Persatuan Keturunan Foo Selangor & Kuala Lumpur", "Name_EN": null, "Location": "7, Tingkat Tong Shin, 50200 Kuala Lumpur.", "Region": "Selangor", "Category": "\u8840\u7f18", "PageNumber": 195, "Country": "Malaysia", "latitude": 3.1454711, "longitude": 101.7071796}, "geometry": {"type": "Point", "coordinates": [101.7071796, 3.1454711]}}, {"type": "Feature", "properties": {"Name_CH": "\u96ea\u9686\u674e\u6c0f\u5b97\u4eb2", "Name_ML": null, "Name_EN": "The United Lee' s Association Selangor & Kuala Lumpur", "Location": "57- A, Changkat Thambi Dollah, Pudu, 55100 Kuala Lumpur.", "Region": "Selangor", "Category": "\u8840\u7f18", "PageNumber": 195, "Country": "Malaysia", "latitude": 3.1407272, "longitude": 101.7106991}, "geometry": {"type": "Point", "coordinates": [101.7106991, 3.1407272]}}, {"type": "Feature", "properties": {"Name_CH": "\u96ea\u9686\u5218\u5173\u5f20\u8d75\u53e4\u57ce\u4f1a", "Name_ML": "Persatuan Koo Seng, Kuala Lumpur & Selangor", "Name_EN": null, "Location": "35-B, Jalan Yew, 55100 Pudu, Kuala Lumpur.", "Region": "Selangor", "Category": "\u8840\u7f18", "PageNumber": 195, "Country": "Malaysia", "latitude": 3.133475, "longitude": 101.7168031}, "geometry": {"type": "Point", "coordinates": [101.7168031, 3.133475]}}, {"type": "Feature", "properties": {"Name_CH": "\u96ea\u9686\u6797\u6c0f\u5b97\u7960", "Name_ML": "Persatuan Keturunan Um Selangor & Kuala Lumpur", "Name_EN": null, "Location": "Lot 14121, Jalan Air Keroh, Kg. Air Panas Baru, 53200 Setapak, Kuala Lumpur.", "Region": "Selangor", "Category": "\u8840\u7f18", "PageNumber": 195, "Country": "Malaysia", "latitude": 3.18885, "longitude": 101.7207884}, "geometry": {"type": "Point", "coordinates": [101.7207884, 3.18885]}}, {"type": "Feature", "properties": {"Name_CH": "\u96ea\u9686\u5b98\u6c0f\uff08\u4e0a\u5bab\uff09\u516c\u4f1a", "Name_ML": "Persatuan Kaum Shang Kuan Wilayah Persekutuan & Selangor", "Name_EN": null, "Location": "224, Jalan Berjaya 1, Taman Berjaya, Sg. Chua, 43000 Kajang, Selangor.", "Region": "Selangor", "Category": "\u8840\u7f18", "PageNumber": 195, "Country": "Malaysia", "latitude": 2.986281, "longitude": 101.7794049}, "geometry": {"type": "Point", "coordinates": [101.7794049, 2.986281]}}, {"type": "Feature", "properties": {"Name_CH": "\u5df4\u751f\u6e2f\u53e3\u4e2d\u534e\u5546\u4f1a", "Name_ML": "Dewan Perniagaan China Pelabuhan Klang", "Name_EN": null, "Location": "80-A, Jalan Tnegku Badar, Port Klang, 42000 Selangor.", "Region": "Selangor", "Category": "\u4e1a\u7f18", "PageNumber": 196, "Country": "Malaysia", "latitude": 3.0052527, "longitude": 101.3979388}, "geometry": {"type": "Point", "coordinates": [101.3979388, 3.0052527]}}, {"type": "Feature", "properties": {"Name_CH": "\u96ea\u9686\u5e84\u4e25\u540c\u5b97\u4f1a", "Name_ML": "Persatuan Chuang & Yam Selangor & Wilayah Persekutuan", "Name_EN": null, "Location": "5-2A, Jalan Temoh, Klang, 41400 Selangor.", "Region": "Selangor", "Category": "\u8840\u7f18", "PageNumber": 196, "Country": "Malaysia", "latitude": 3.051218, "longitude": 101.444125}, "geometry": {"type": "Point", "coordinates": [101.444125, 3.051218]}}, {"type": "Feature", "properties": {"Name_CH": "\u96ea\u9686\u8a79\u6c0f\u516c\u4f1a", "Name_ML": "Persatuan Keturunan Cham Selangor Dan Wilayah Persekutuan (1997)", "Name_EN": null, "Location": "No. 33(Tingkat Satu) Lorong Temenggung 15A, Off Jalan Jati, 41200 Klang, Selangor.", "Region": "Selangor", "Category": "\u8840\u7f18", "PageNumber": 196, "Country": "Malaysia", "latitude": 3.00534, "longitude": 101.4835}, "geometry": {"type": "Point", "coordinates": [101.4835, 3.00534]}}, {"type": "Feature", "properties": {"Name_CH": "\u96ea\u9686\u90d1\u6c0f\u516c\u4f1a", "Name_ML": "Persatuan Keturunan Kaum Keluarga Tee Selangor & Wilayah Persekutuan", "Name_EN": null, "Location": "8400 Lot 4868, Jalan E1/1 Light Industrial Area, Taman Ehsan Kepong, 52100 Selangor.", "Region": "Selangor", "Category": "\u8840\u7f18", "PageNumber": 196, "Country": "Malaysia", "latitude": 3.2175554, "longitude": 101.6199544}, "geometry": {"type": "Point", "coordinates": [101.6199544, 3.2175554]}}, {"type": "Feature", "properties": {"Name_CH": "\u96ea\u9686\u90d1\u6c0f\u516c\u4f1a", "Name_ML": "Persatuan Keturunan Kaum Keluarga Tee Selangor & Wilayah Persekutuan", "Name_EN": null, "Location": "8400 Lot 4868, Jalan E1/1 Light Industrial Area, Taman Ehsan Kepong, 52100 Selangor.", "Region": "Selangor", "Category": "\u8840\u7f18", "PageNumber": 196, "Country": "Malaysia", "latitude": 3.2175554, "longitude": 101.6199544}, "geometry": {"type": "Point", "coordinates": [101.6199544, 3.2175554]}}, {"type": "Feature", "properties": {"Name_CH": "\u516b\u6253\u7075\u518d\u4e5f\u5c0f\u8d29\u5546\u4e1a\u516c\u4f1a", "Name_ML": "Persatuan Penjaja-Penjaja & Peniaga-Peniaga Kecil Petaling Jaya (1972)", "Name_EN": null, "Location": "27, Jalan 1/10, Petaling Jaya, 46000 Selangor.", "Region": "Selangor", "Category": "\u4e1a\u7f18", "PageNumber": 196, "Country": "Malaysia", "latitude": 3.0854716, "longitude": 101.6500422}, "geometry": {"type": "Point", "coordinates": [101.6500422, 3.0854716]}}, {"type": "Feature", "properties": {"Name_CH": "\u96ea\u5dde\u9646\u6c0f\u8054\u5b97\u4f1a", "Name_ML": "Persatuan Keturunan Loke Selangor 1988", "Name_EN": null, "Location": "1166, Jalan Temple, Jinjang Utara 52000 Kuala Lumpur", "Region": "Selangor", "Category": "\u8840\u7f18", "PageNumber": 196, "Country": "Malaysia", "latitude": 3.2099021, "longitude": 101.6577725}, "geometry": {"type": "Point", "coordinates": [101.6577725, 3.2099021]}}, {"type": "Feature", "properties": {"Name_CH": "\u8363\u9633\u5802\u8054\u5b97\u4f1a", "Name_ML": "Persatuan Eng Yong Tong", "Name_EN": null, "Location": "11, Jalan Union 4, 51100 Kuala Lumpur.", "Region": "Selangor", "Category": "\u8840\u7f18", "PageNumber": 196, "Country": "Malaysia", "latitude": 3.1776554, "longitude": 101.6910839}, "geometry": {"type": "Point", "coordinates": [101.6910839, 3.1776554]}}, {"type": "Feature", "properties": {"Name_CH": "\u96ea\u9686\u53f6\u6c0f\u5b97\u7960", "Name_ML": "Persatuan Yap Selangor Dan Wilayah Persekutuan", "Name_EN": "Selangor And Federal Territory Yap Si Choong Chi", "Location": "102-104 Jalan Tun H.S. Lee, 50000 Kuala Lumpur", "Region": "Selangor", "Category": "\u8840\u7f18", "PageNumber": 196, "Country": "Malaysia", "latitude": 3.1466125, "longitude": 101.6967778}, "geometry": {"type": "Point", "coordinates": [101.6967778, 3.1466125]}}, {"type": "Feature", "properties": {"Name_CH": "\u4e2d\u9a6c\u516d\u6842\u5802", "Name_ML": null, "Name_EN": "Central Malaysia Liu Kwee Tang Clansmen", "Location": "124- C, Jalan Imbi 55100 Kuala Lumpur.", "Region": "Selangor", "Category": "\u8840\u7f18", "PageNumber": 196, "Country": "Malaysia", "latitude": 3.1455731, "longitude": 101.7147373}, "geometry": {"type": "Point", "coordinates": [101.7147373, 3.1455731]}}, {"type": "Feature", "properties": {"Name_CH": "\u96ea\u9686\u6768\u6c0f\u516c\u4f1a", "Name_ML": "Persatuan Yang Selangor & Wilayah Persekutuan", "Name_EN": null, "Location": "70-B, Jalan Pasat Baharu, 55100 Kuala Lumpur.", "Region": "Selangor", "Category": "\u8840\u7f18", "PageNumber": 196, "Country": "Malaysia", "latitude": 3.1345945, "longitude": 101.7164614}, "geometry": {"type": "Point", "coordinates": [101.7164614, 3.1345945]}}, {"type": "Feature", "properties": {"Name_CH": "\u96ea\u5170\u83aa\u53ca\u8054\u90a6\u76f4\u8f96\u533a\u5f6d\u6c0f\u8054\u5b97\u4f1a", "Name_ML": "Persatuan Puak Peng Selangor Dan Wilayah Persekutuan", "Name_EN": "Selangor And Fedaral Territory Peng Clan Association", "Location": "158-2-9, Compleks Malurl Jalan Jejaka, Taman Maluri, 55100 Kuala Lumpur", "Region": "Selangor", "Category": "\u8840\u7f18", "PageNumber": 196, "Country": "Malaysia", "latitude": 3.13048, "longitude": 101.7343001}, "geometry": {"type": "Point", "coordinates": [101.7343001, 3.13048]}}, {"type": "Feature", "properties": {"Name_CH": "\u74dc\u96ea\u66a8\u6c99\u767d\u53bf\u4e2d\u534e\u5546\u4f1a", "Name_ML": null, "Name_EN": "Chiense Chamber Of Commerce Kuala Selangor & Sabak Bernam District", "Location": "52-B, Jalan Melati 3 /1, Bandar Melawati, 45000 Kuala Selangor, Selangor.", "Region": "Selangor", "Category": "\u4e1a\u7f18", "PageNumber": 197, "Country": "Malaysia", "latitude": 3.3298637, "longitude": 101.2572715}, "geometry": {"type": "Point", "coordinates": [101.2572715, 3.3298637]}}, {"type": "Feature", "properties": {"Name_CH": "\u7f57\u5409\u80c6\u6d77\u4ea7\u516c\u4f1a", "Name_ML": "Persatuan Hai San Pulau Ketam", "Name_EN": null, "Location": "P 5, Jalan Polis Stesyen, Pulau Ketam, 42940 Selangor.", "Region": "Selangor", "Category": "\u4e1a\u7f18", "PageNumber": 197, "Country": "Malaysia", "latitude": 3.0099168, "longitude": 101.4141242}, "geometry": {"type": "Point", "coordinates": [101.4141242, 3.0099168]}}, {"type": "Feature", "properties": {"Name_CH": "\u5df4\u751f\u534e\u4fa8\u4ec0\u8d27\u5546\u4f1a", "Name_ML": null, "Name_EN": "The Klang Chinese Grocery Guild ", "Location": "10, Jalan Yeo Guan Hup, Klang, 41000 Selangor.", "Region": "Selangor", "Category": "\u4e1a\u7f18", "PageNumber": 197, "Country": "Malaysia", "latitude": 3.0409155, "longitude": 101.4461152}, "geometry": {"type": "Point", "coordinates": [101.4461152, 3.0409155]}}, {"type": "Feature", "properties": {"Name_CH": "\u5df4\u751f\u6811\u80f6\u516c\u4f1a", "Name_ML": null, "Name_EN": "The Klang Rubber Growers' & Trade Association", "Location": "21, Jalan Dato Hamzah, Klang, 41000 Selangor.", "Region": "Selangor", "Category": "\u4e1a\u7f18", "PageNumber": 197, "Country": "Malaysia", "latitude": 3.0414697, "longitude": 101.4479132}, "geometry": {"type": "Point", "coordinates": [101.4479132, 3.0414697]}}, {"type": "Feature", "properties": {"Name_CH": "\u5df4\u751f\u4e2d\u534e\u603b\u5546\u4f1a", "Name_ML": "Dewan Perniagaan & Perindustrian Cina Klang ", "Name_EN": "Klang Chinese Chamber of Commerce and Industry", "Location": "42A, Lebuh Enggang, 41050 Klang, Selangor.", "Region": "Selangor", "Category": "\u4e1a\u7f18", "PageNumber": 197, "Country": "Malaysia", "latitude": 3.0569719, "longitude": 101.4558398}, "geometry": {"type": "Point", "coordinates": [101.4558398, 3.0569719]}}, {"type": "Feature", "properties": {"Name_CH": "\u5409\u9686\u5761\u6d77\u5546\u516c\u4f1a", "Name_ML": "Persatuan Hoi Seong Kuala Lumpur", "Name_EN": null, "Location": "22-2, 2nd Floor, Jalan 2/3A, Pusat Banddar Utama, KM12, Jalan Ipoh, 68100 Batu Caves, Kuala Lumpur", "Region": "Selangor", "Category": "\u4e1a\u7f18", "PageNumber": 197, "Country": "Malaysia", "latitude": 3.2368368, "longitude": 101.6700535}, "geometry": {"type": "Point", "coordinates": [101.6700535, 3.2368368]}}, {"type": "Feature", "properties": {"Name_CH": "\u5409\u9686\u5761\u3001\u96ea\u3001\u68ee\u3001\u5f6d\u91d1\u94bb\u73e0\u5b9d\u5546\u516c\u4f1a", "Name_ML": "Persatuan Perniagaan Emas & Permata Wilayah Persekutuan Selangor, Negeri Sembilan & Pahang", "Name_EN": null, "Location": "89, Tingkat 4, Jalan Sultan, 50000 Kuala Lumpur.", "Region": "Selangor", "Category": "\u4e1a\u7f18", "PageNumber": 197, "Country": "Malaysia", "latitude": 3.142758, "longitude": 101.6969643}, "geometry": {"type": "Point", "coordinates": [101.6969643, 3.142758]}}, {"type": "Feature", "properties": {"Name_CH": "\u5409\u9686\u5761\u5e03\u4e1a\u8054\u8c0a\u4f1a", "Name_ML": "The Kuala Lumpur Textile Merchants Friendly Association", "Name_EN": null, "Location": "No, 15A Lorong Meranti 1, Off Jalan Kenanga 55200 Kuala Lumpur.", "Region": "Selangor", "Category": "\u4e1a\u7f18", "PageNumber": 197, "Country": "Malaysia", "latitude": 3.1375482, "longitude": 101.7067915}, "geometry": {"type": "Point", "coordinates": [101.7067915, 3.1375482]}}, {"type": "Feature", "properties": {"Name_CH": "\u5409\u9686\u5761\u5fb7\u58eb\u5de5\u53cb\u534f\u4f1a", "Name_ML": "Persatuan Pekerja-Pekerja Teksi Kuala Lumpur", "Name_EN": null, "Location": "3H, Jalan Jubilee, Jubilee Court 55200 Kuala Lumpur.", "Region": "Selangor", "Category": "\u4e1a\u7f18", "PageNumber": 197, "Country": "Malaysia", "latitude": 3.1308, "longitude": 101.70851}, "geometry": {"type": "Point", "coordinates": [101.70851, 3.1308]}}, {"type": "Feature", "properties": {"Name_CH": "\u5409\u9686\u5761\u91d1\u6cb3\u5e7f\u573a\u5546\u4e1a\u516c\u4f1a", "Name_ML": null, "Name_EN": "Sungei Wang Plaza Merchants Association Kuala Lumpur", "Location": "T136, Tingkat 3, Sungei Wang Plaza, Jalan Sultan Ismail, 50250 Kuala Lumpur.", "Region": "Selangor", "Category": "\u4e1a\u7f18", "PageNumber": 197, "Country": "Malaysia", "latitude": 3.1448866, "longitude": 101.7109328}, "geometry": {"type": "Point", "coordinates": [101.7109328, 3.1448866]}}, {"type": "Feature", "properties": {"Name_CH": "\u5409\u9686\u5761\u534a\u5c71\u5427\u5c0f\u8d29\u5c0f\u5546\u516c\u4f1a", "Name_ML": "Persatuan Penjaja-Penjaja & Peniaga-Peniaga Kecil Pudu", "Name_EN": null, "Location": "86A, Jalan PasarBaru, Pudu, 55100 Kuala Lumpur.", "Region": "Selangor", "Category": "\u4e1a\u7f18", "PageNumber": 197, "Country": "Malaysia", "latitude": 3.1339212, "longitude": 101.7155072}, "geometry": {"type": "Point", "coordinates": [101.7155072, 3.1339212]}}, {"type": "Feature", "properties": {"Name_CH": "\u5409\u9686\u5761\u66a8\u96ea\u5170\u83aa\u4e2d\u534e\u5de5\u5546\u603b\u4f1a", "Name_ML": "Dewan Perniagaan Dan Perindustrian China Kuala Lumpur", "Name_EN": "The Chinese Chamber of Commerce And Industry Of Kuala Lumpur And Selangor (KLSCCCI)", "Location": "7th Floor, Wisma Chinese Chamber, 258, Jalan Ampang, 50450 Kuala Lumpur.", "Region": "Selangor", "Category": "\u4e1a\u7f18", "PageNumber": 197, "Country": "Malaysia", "latitude": 3.1611004, "longitude": 101.7326528}, "geometry": {"type": "Point", "coordinates": [101.7326528, 3.1611004]}}, {"type": "Feature", "properties": {"Name_CH": "\u7532\u6d1e\u533a\u5546\u4e1a\u534f\u4f1a", "Name_ML": null, "Name_EN": "Kepong Businessmen Association", "Location": "JKR1032, Cross Street Kepong, 52100 Kuala Lumpur.", "Region": "Selangor", "Category": "\u4e1a\u7f18", "PageNumber": 198, "Country": "Malaysia", "latitude": 3.213966, "longitude": 101.6355931}, "geometry": {"type": "Point", "coordinates": [101.6355931, 3.213966]}}, {"type": "Feature", "properties": {"Name_CH": "\u7532\u6d1e\u533a\u5c0f\u578b\u5de5\u4e1a\u8054\u5408\u4f1a", "Name_ML": "Persatuan Industri Ringan Kawasan Kepong", "Name_EN": null, "Location": "34-3, Jalan 13/34A, Kepong Enterprenuers Park, 52100 Kuala Lumpur.", "Region": "Selangor", "Category": "\u4e1a\u7f18", "PageNumber": 198, "Country": "Malaysia", "latitude": 3.2168184, "longitude": 101.6284544}, "geometry": {"type": "Point", "coordinates": [101.6284544, 3.2168184]}}, {"type": "Feature", "properties": {"Name_CH": "\u7532\u6d1e\u533a\u5546\u4e1a\u8054\u5408\u4f1a", "Name_ML": "Persatuan Firma-Firma Perdagangan Kawasan Kepong", "Name_EN": null, "Location": "6-0 -L Jalan 9/32, Taman Jinjang Baru, 52000 Kuala Lumpur.", "Region": "Selangor", "Category": "\u4e1a\u7f18", "PageNumber": 198, "Country": "Malaysia", "latitude": 3.2069552, "longitude": 101.658445}, "geometry": {"type": "Point", "coordinates": [101.658445, 3.2069552]}},