{
"type": "FeatureCollection",
"name": "Category_3",
"crs": { "type": "name", "properties": { "name": "urn:ogc:def:crs:OGC:1.3:CRS84" } },
"features": [
{ "type": "Feature", "properties": { "Name_CH": "槟城道院@世界红卍字会槟城分会", "Name_ML": null, "Name_EN": "Penang Tao Yuan @The World Red Swastika Society (Penang Branch)", "Location": "413, Jalan Masjid Negeri (Green Lane), 11600 Penang.", "Longitude": 100.303626, "Latitude": 5.389855, "Region": "Penang", "Category": "慈善福利", "PageNumber": "131" }, "geometry": { "type": "Point", "coordinates": [ 100.3036, 5.3899, 100.3036 ] } },
{ "type": "Feature", "properties": { "Name_CH": "槟城北海王春添律后芭福德祠华人公冢理事会", "Name_ML": "J\/K Pengurusan Tanah Perkuburan Orang-Orang Awam Cina", "Name_EN": null, "Location": "Jalan Heng Choon Tian, 12000 Butterworth.", "Longitude": 100.3718132, "Latitude": 5.4066946, "Region": "Penang", "Category": "慈善福利", "PageNumber": "131" }, "geometry": { "type": "Point", "coordinates": [ 100.3718, 5.4067, 100.3718 ] } },
{ "type": "Feature", "properties": { "Name_CH": "北海王春天律华人义山管委会", "Name_ML": "Persatuan Pengurusan Tanah Perkuburan Cina-Heng Chong Tian Butterworth", "Name_EN": null, "Location": "1212, Jalan Heng Choon Tian, Butterworth.", "Longitude": 100.3716793, "Latitude": 5.4067213, "Region": "Penang", "Category": "慈善福利", "PageNumber": "131" }, "geometry": { "type": "Point", "coordinates": [ 100.3717, 5.4067, 100.3717 ] } },
{ "type": "Feature", "properties": { "Name_CH": "北海及峇东埔广东公冢理事会", "Name_ML": "Jawatankuasa Pengurusan Perkuburan Kwang Tung Permatang Pauh Dan Butterworth", "Name_EN": null, "Location": "951 Mk.2, Jalan Sama Gagah, Permatang Pauh, Pulau Pinang.", "Longitude": 100.4122539, "Latitude": 5.4117169, "Region": "Penang", "Category": "慈善福利", "PageNumber": "131" }, "geometry": { "type": "Point", "coordinates": [ 100.4123, 5.4117, 100.4123 ] } },
{ "type": "Feature", "properties": { "Name_CH": "槟城救护员协会", "Name_ML": null, "Name_EN": "Penang Emergency Helper Association", "Location": "145, Jalan Dato Kramat, 10150 Pulau Pinang.", "Longitude": 100.3248082, "Latitude": 5.4122947, "Region": "Penang", "Category": "慈善福利", "PageNumber": "131" }, "geometry": { "type": "Point", "coordinates": [ 100.3248, 5.4123, 100.3248 ] } },
{ "type": "Feature", "properties": { "Name_CH": "槟城联合福建公冢", "Name_ML": null, "Name_EN": "United Hokkien Cemeteries", "Location": "161, Jalan Batu Gantong, 10450 Penang.", "Longitude": 100.2953824, "Latitude": 5.4130047, "Region": "Penang", "Category": "慈善福利", "PageNumber": "131" }, "geometry": { "type": "Point", "coordinates": [ 100.2954, 5.413, 100.2954 ] } },
{ "type": "Feature", "properties": { "Name_CH": "陈氏校友会附设互助部", "Name_ML": null, "Name_EN": "Benefit Fund Section Of The Tan Si Chool Unio(1954)", "Location": "No.28, Seh Tan Court, Pulau Pinang.", "Longitude": 100.3326786, "Latitude": 5.4163935, "Region": "Penang", "Category": "慈善福利", "PageNumber": "131" }, "geometry": { "type": "Point", "coordinates": [ 100.3327, 5.4164, 100.3327 ] } },
{ "type": "Feature", "properties": { "Name_CH": "槟城华人一善堂", "Name_ML": null, "Name_EN": "The Chinese Provident Association", "Location": "6-B, Jalan Pantai, 10300 Pulau Pinang.", "Longitude": 100.342567, "Latitude": 5.4178736, "Region": "Penang", "Category": "慈善福利", "PageNumber": "131" }, "geometry": { "type": "Point", "coordinates": [ 100.3426, 5.4179, 100.3426 ] } },
{ "type": "Feature", "properties": { "Name_CH": "白云山广东公冢", "Name_ML": null, "Name_EN": "Kwang Tung & Teng Chew Association Penang", "Location": "50, Lebuh Penang, 10200 Penang.", "Longitude": 100.3406428, "Latitude": 5.4182629, "Region": "Penang", "Category": "慈善福利", "PageNumber": "131" }, "geometry": { "type": "Point", "coordinates": [ 100.3406, 5.4183, 100.3406 ] } },
{ "type": "Feature", "properties": { "Name_CH": "槟州中华总商会慈善基金委员会", "Name_ML": "Jawatankuasa Tabong Dermawan Dewan Perniagaan Tiong Hua Pulau Pinang", "Name_EN": null, "Location": "9th Floor, The PG Chinese Town Hall Building, 22, Jalan Pitt, Pulau Pinang.", "Longitude": 100.3388467, "Latitude": 5.4188249, "Region": "Penang", "Category": "慈善福利", "PageNumber": "131" }, "geometry": { "type": "Point", "coordinates": [ 100.3388, 5.4188, 100.3388 ] } },
{ "type": "Feature", "properties": { "Name_CH": "槟城精武体育会福利部", "Name_ML": null, "Name_EN": "Penang Chinese Chin Woo Athletic Association Provident Fund", "Location": "No.180-A, Burmah Road, Pulau Pinang.", "Longitude": 100.3199451, "Latitude": 5.4247828, "Region": "Penang", "Category": "慈善福利", "PageNumber": "131" }, "geometry": { "type": "Point", "coordinates": [ 100.3199, 5.4248, 100.3199 ] } },
{ "type": "Feature", "properties": { "Name_CH": "浮罗区华人公冢", "Name_ML": null, "Name_EN": "The Balik Pulau Chinese Cemetery Association Penang", "Location": "Pokok Manggis Cemetery SHBD, Mk4, Lot 273, Balik Pulau, Penang.", "Longitude": 100.2349501, "Latitude": 5.350316, "Region": "Penang", "Category": "慈善福利", "PageNumber": "132" }, "geometry": { "type": "Point", "coordinates": [ 100.235, 5.3503, 100.235 ] } },
{ "type": "Feature", "properties": { "Name_CH": "高巴三万福建公冢", "Name_ML": "Tanah PerkuburanKubang Semang, Bukit Mertajam", "Name_EN": null, "Location": "MK.20, Seberang Perai Tengah, Lot.365, 366, 367, 370, 371, 372, 373 & 955.", "Longitude": 100.4517935, "Latitude": 5.353468, "Region": "Penang", "Category": "慈善福利", "PageNumber": "132" }, "geometry": { "type": "Point", "coordinates": [ 100.4518, 5.3535, 100.4518 ] } },
{ "type": "Feature", "properties": { "Name_CH": "大山脚广惠肇会馆互助金", "Name_ML": null, "Name_EN": "Kwong Waai Siew Association Mutual Benefit Fund Bukit Mertajam Province Wellesly", "Location": "No.16 Jalan Stesyen, Bukit Mertajam, Pulau Pinang.", "Longitude": 100.461451, "Latitude": 5.3621357, "Region": "Penang", "Category": "慈善福利", "PageNumber": "132" }, "geometry": { "type": "Point", "coordinates": [ 100.4615, 5.3621, 100.4615 ] } },
{ "type": "Feature", "properties": { "Name_CH": "大山脚韩江公会第二公冢", "Name_ML": null, "Name_EN": null, "Location": "215, Jalan Ooh Chooi Cheng 14000 Bukit Mertajam.", "Longitude": 100.4608809, "Latitude": 5.3650922, "Region": "Penang", "Category": "慈善福利", "PageNumber": "132" }, "geometry": { "type": "Point", "coordinates": [ 100.4609, 5.3651, 100.4609 ] } },
{ "type": "Feature", "properties": { "Name_CH": "浮罗福建公冢", "Name_ML": "Persatuan Hokkien Balik Pulau", "Name_EN": null, "Location": "C\/0 Choon San Temple, Batu Itam, 11000 Balik Pulau, Penang. 257 B, MK 1, Pantiaches, 11010 Balik Pulau, Penang.", "Longitude": 100.2333333, "Latitude": 5.4, "Region": "Penang", "Category": "慈善福利", "PageNumber": "132" }, "geometry": { "type": "Point", "coordinates": [ 100.2333, 5.4, 100.2333 ] } },
{ "type": "Feature", "properties": { "Name_CH": "浮罗华人公冢理事会", "Name_ML": null, "Name_EN": "Balik Pulau Chinese Cemetry Association", "Location": "44, Sungai Pinang, 10150 Pulau Pinang.", "Longitude": 100.3229239, "Latitude": 5.4028031, "Region": "Penang", "Category": "慈善福利", "PageNumber": "132" }, "geometry": { "type": "Point", "coordinates": [ 100.3229, 5.4028, 100.3229 ] } },
{ "type": "Feature", "properties": { "Name_CH": "广东公冢理事会", "Name_ML": "Kwang Tung Cemetery Permatang Pauh", "Name_EN": null, "Location": "951 Mk-2, Jalan Sama Gaga, Permatang Pauh, 13500 P.W..", "Longitude": 100.4122539, "Latitude": 5.4117169, "Region": "Penang", "Category": "慈善福利", "PageNumber": "132" }, "geometry": { "type": "Point", "coordinates": [ 100.4123, 5.4117, 100.4123 ] } },
{ "type": "Feature", "properties": { "Name_CH": "海客园邱公司公冢", "Name_ML": null, "Name_EN": null, "Location": "18,Canno Square, 10200 Penang.", "Longitude": 100.3372189, "Latitude": 5.4146082, "Region": "Penang", "Category": "慈善福利", "PageNumber": "132" }, "geometry": { "type": "Point", "coordinates": [ 100.3372, 5.4146, 100.3372 ] } },
{ "type": "Feature", "properties": { "Name_CH": "丹斯里苏承球纪念基金", "Name_ML": "Jawatankuasa Pengurus Kumpulan Wang Peringkatan Tan Sri Saw Seng Kew D\/A Chin Kang Hoay Kuan", "Name_EN": null, "Location": "120 Macalister Road, Pulau Pinang.", "Longitude": 100.3255353, "Latitude": 5.4156849, "Region": "Penang", "Category": "慈善福利", "PageNumber": "132" }, "geometry": { "type": "Point", "coordinates": [ 100.3255, 5.4157, 100.3255 ] } },
{ "type": "Feature", "properties": { "Name_CH": "浮罗广东公冢", "Name_ML": null, "Name_EN": "Kwant Tung & Teng Chew Association Penang", "Location": "50, Lebuh Penang, 10200 Penang.", "Longitude": 100.3406428, "Latitude": 5.4182629, "Region": "Penang", "Category": "慈善福利", "PageNumber": "132" }, "geometry": { "type": "Point", "coordinates": [ 100.3406, 5.4183, 100.3406 ] } },
{ "type": "Feature", "properties": { "Name_CH": "德教会紫云阁福利基金", "Name_ML": "Yayasan Pertubuhan Pendidikan Akhlak Che Hoon Khor Pulau Pinang", "Name_EN": null, "Location": "No.360, Macalister Road, Pulau Pinang.", "Longitude": 100.3052852, "Latitude": 5.4226103, "Region": "Penang", "Category": "慈善福利", "PageNumber": "132" }, "geometry": { "type": "Point", "coordinates": [ 100.3053, 5.4226, 100.3053 ] } },
{ "type": "Feature", "properties": { "Name_CH": "崔耀才教育基金委员会", "Name_ML": "Yayasan Pelajaran Kenangan C.Y.Choy", "Name_EN": "The C.Y.Choy Memorial Education Fund Committee", "Location": "39-A Jalan Irrawadi, 10050 Pulau Pinang.", "Longitude": 100.321497, "Latitude": 5.4256629, "Region": "Penang", "Category": "慈善福利", "PageNumber": "132" }, "geometry": { "type": "Point", "coordinates": [ 100.3215, 5.4257, 100.3215 ] } },
{ "type": "Feature", "properties": { "Name_CH": "刘关张赵公冢", "Name_ML": "Persatuan Koo Seah Hoay Daerah", "Name_EN": null, "Location": "1417-1418, Jalan Station, 14200 Sugei Bakap, Seberang Perai Selatan, Pulau Pinang.", "Longitude": 100.4948269, "Latitude": 5.226061, "Region": "Penang", "Category": "慈善福利", "PageNumber": "133" }, "geometry": { "type": "Point", "coordinates": [ 100.4948, 5.2261, 100.4948 ] } },
{ "type": "Feature", "properties": { "Name_CH": "韩江公冢", "Name_ML": null, "Name_EN": null, "Location": "215, Jalan Ooh Chooi Cheng, 14000 Bukit Mertajam.", "Longitude": 100.4608809, "Latitude": 5.3650922, "Region": "Penang", "Category": "慈善福利", "PageNumber": "133" }, "geometry": { "type": "Point", "coordinates": [ 100.4609, 5.3651, 100.4609 ] } },
{ "type": "Feature", "properties": { "Name_CH": "惠南同乡会福利金", "Name_ML": "Provident Fund Department Of Hooi Lam Lian Heong Hoay", "Name_EN": null, "Location": "No.46, Presgrave Street Pulau Pinang.", "Longitude": 100.3304396, "Latitude": 5.4111489, "Region": "Penang", "Category": "慈善福利", "PageNumber": "133" }, "geometry": { "type": "Point", "coordinates": [ 100.3304, 5.4111, 100.3304 ] } },
{ "type": "Feature", "properties": { "Name_CH": "联合福建公冢", "Name_ML": "Perkuburan Hokkien Bersatu", "Name_EN": "United Hokkien Cemeteries", "Location": "161, Jalan Batu Gantong, 10450 Penang.", "Longitude": 100.2953824, "Latitude": 5.4130047, "Region": "Penang", "Category": "慈善福利", "PageNumber": "133" }, "geometry": { "type": "Point", "coordinates": [ 100.2954, 5.413, 100.2954 ] } },
{ "type": "Feature", "properties": { "Name_CH": "峇都兰章福建公冢（槟榔屿联合福建公冢）", "Name_ML": null, "Name_EN": "United Hokkien Cemetry Penang", "Location": "Jalan Batu Gantong, 10450 Penang.", "Longitude": 100.2984507, "Latitude": 5.4137542, "Region": "Penang", "Category": "慈善福利", "PageNumber": "133" }, "geometry": { "type": "Point", "coordinates": [ 100.2985, 5.4138, 100.2985 ] } },
{ "type": "Feature", "properties": { "Name_CH": "峇都眼东福建公冢（槟榔屿联合福建公冢）", "Name_ML": null, "Name_EN": "United Hokkien Cemetry Penang", "Location": "Jalan Batu Gantong, 10450 Penang.", "Longitude": 100.2984507, "Latitude": 5.4137542, "Region": "Penang", "Category": "慈善福利", "PageNumber": "133" }, "geometry": { "type": "Point", "coordinates": [ 100.2985, 5.4138, 100.2985 ] } },
{ "type": "Feature", "properties": { "Name_CH": "栳栲店福建公冢（槟榔屿联合福建公冢）", "Name_ML": null, "Name_EN": "United Hokkien Cemetry Penang", "Location": "Jalan Batu Gantong, 10450 Penang.", "Longitude": 100.2984507, "Latitude": 5.4137542, "Region": "Penang", "Category": "慈善福利", "PageNumber": "133" }, "geometry": { "type": "Point", "coordinates": [ 100.2985, 5.4138, 100.2985 ] } },
{ "type": "Feature", "properties": { "Name_CH": "垄尾福建公冢（槟榔屿联合福建公冢）", "Name_ML": null, "Name_EN": "UNITED HOKKIEN CEMETRY PENANG", "Location": "Jalan Batu Gantong, 10450 Penang.", "Longitude": 100.2984507, "Latitude": 5.4137542, "Region": "Penang", "Category": "慈善福利", "PageNumber": "133" }, "geometry": { "type": "Point", "coordinates": [ 100.2985, 5.4138, 100.2985 ] } },
{ "type": "Feature", "properties": { "Name_CH": "华岩寺善後会", "Name_ML": null, "Name_EN": "Huah Giam Temple Provident Fund Penang", "Location": "46, Dato Kramat Road, Pulau Pinang.", "Longitude": 100.327511, "Latitude": 5.413857, "Region": "Penang", "Category": "慈善福利", "PageNumber": "133" }, "geometry": { "type": "Point", "coordinates": [ 100.3275, 5.4139, 100.3275 ] } },
{ "type": "Feature", "properties": { "Name_CH": "峇东埔广东公冢园山仔陈公司", "Name_ML": null, "Name_EN": null, "Location": "18, Jalan Kg. Raya, 12200 Butterworth.", "Longitude": 100.3781718, "Latitude": 5.419234, "Region": "Penang", "Category": "慈善福利", "PageNumber": "133" }, "geometry": { "type": "Point", "coordinates": [ 100.3782, 5.4192, 100.3782 ] } },
{ "type": "Feature", "properties": { "Name_CH": "峇东新托福建龙福公冢", "Name_ML": "Persatuan Tanah Perkuburan Cina Hokkien Leng Hock", "Name_EN": null, "Location": "12, Tingkat Bertam Dua, Kepala Batas, Seberang Prai Utara, Pulau Pinang.", "Longitude": 100.430878, "Latitude": 5.5176132, "Region": "Penang", "Category": "慈善福利", "PageNumber": "133" }, "geometry": { "type": "Point", "coordinates": [ 100.4309, 5.5176, 100.4309 ] } },
{ "type": "Feature", "properties": { "Name_CH": "湖内华人义山", "Name_ML": null, "Name_EN": null, "Location": null, "Longitude": null, "Latitude": null, "Region": "Penang", "Category": "慈善福利", "PageNumber": "133" }, "geometry": null },
{ "type": "Feature", "properties": { "Name_CH": "芒加山公冢", "Name_ML": null, "Name_EN": null, "Location": "2178, Jalan Tengah, Kg. Jawi, 14200 Pulau Pinang.", "Longitude": 100.4951963, "Latitude": 5.2127053, "Region": "Penang", "Category": "慈善福利", "PageNumber": "134" }, "geometry": { "type": "Point", "coordinates": [ 100.4952, 5.2127, 100.4952 ] } },
{ "type": "Feature", "properties": { "Name_CH": "美湖水长华人义山理事会", "Name_ML": "Jawatankuasa Pengurusan Tanah Perkuburan Orang-Orang Awam Cina Gertak Sanggul Dan Bukit Gemuruh", "Name_EN": null, "Location": "C\/O 766, MK 8, Gertak Sanggul 11910 Bayan Lepas, Pulau Pinang.", "Longitude": 100.2318052, "Latitude": 5.2879216, "Region": "Penang", "Category": "慈善福利", "PageNumber": "134" }, "geometry": { "type": "Point", "coordinates": [ 100.2318, 5.2879, 100.2318 ] } },
{ "type": "Feature", "properties": { "Name_CH": "什公司华人义山", "Name_ML": null, "Name_EN": "The Chinese Public Cemetery Sepuluh Kongsi, Penang", "Location": "c\/o. 17, Lorong Mahsuri 7, Bayan Baru, 11950 Pulau Pinang.", "Longitude": 100.2892996, "Latitude": 5.3284627, "Region": "Penang", "Category": "慈善福利", "PageNumber": "134" }, "geometry": { "type": "Point", "coordinates": [ 100.2893, 5.3285, 100.2893 ] } },
{ "type": "Feature", "properties": { "Name_CH": "世界红卍字会槟城分会慈业基金会", "Name_ML": "Yayasan Kedermawanan Pertubuhan Swastika Merah Dunia Pulau Pinang", "Name_EN": "The Penang World Red Swastika Society Charity Foundation", "Location": "413, Jalan Masjid Negeri (Green Lane), 11600 Penang.", "Longitude": 100.303626, "Latitude": 5.389855, "Region": "Penang", "Category": "慈善福利", "PageNumber": "134" }, "geometry": { "type": "Point", "coordinates": [ 100.3036, 5.3899, 100.3036 ] } },
{ "type": "Feature", "properties": { "Name_CH": "世界红卍字会马来西亚总会", "Name_ML": "Persatuan Swastika Merah Se-Dunia Malaysia", "Name_EN": "Malaysia World Red Swastika Society", "Location": "413, Jalan Masjid Negeri (Green Lane), 11600 Penang.", "Longitude": 100.303626, "Latitude": 5.389855, "Region": "Penang", "Category": "慈善福利", "PageNumber": "134" }, "geometry": { "type": "Point", "coordinates": [ 100.3036, 5.3899, 100.3036 ] } },
{ "type": "Feature", "properties": { "Name_CH": "三清慈爱福利会", "Name_ML": "Pertubuhan Kebajikan PrihatinSam Cheng", "Name_EN": "Sam Cheng Everloving Care Welfare Society", "Location": "288C-2-12, Fourtune Courth, Jalan Thean Teik, 11500 Air Itam, Penang", "Longitude": 100.2833849, "Latitude": 5.3916736, "Region": "Penang", "Category": "慈善福利", "PageNumber": "134" }, "geometry": { "type": "Point", "coordinates": [ 100.2834, 5.3917, 100.2834 ] } },
{ "type": "Feature", "properties": { "Name_CH": "南洋同奉善堂槟城分会", "Name_ML": "Nanyang Thong Hong Siang Tong Penang Chapter", "Name_EN": null, "Location": "31-E, Mk-13, Jalan Zoo, 11500 Pulau Pinang", "Longitude": 100.2805357, "Latitude": 5.3933751, "Region": "Penang", "Category": "慈善福利", "PageNumber": "134" }, "geometry": { "type": "Point", "coordinates": [ 100.2805, 5.3934, 100.2805 ] } },
{ "type": "Feature", "properties": { "Name_CH": "普爱学园", "Name_ML": "Persatuan Kebajikan Komuniti Pu Ai", "Name_EN": "Pu Ai Community Service Centre", "Location": "99, (Foreshore) Jalan C.Y.Choy, 10300 Pulau Pinang.", "Longitude": 100.3304126, "Latitude": 5.4081246, "Region": "Penang", "Category": "慈善福利", "PageNumber": "134" }, "geometry": { "type": "Point", "coordinates": [ 100.3304, 5.4081, 100.3304 ] } },
{ "type": "Feature", "properties": { "Name_CH": "世界红卍字会北海分会", "Name_ML": null, "Name_EN": "The World Red Swastika Society Butterworth", "Location": "26, Tingkat Kampung Bengali, 12200 Butterworth.", "Longitude": 100.3720251, "Latitude": 5.4085567, "Region": "Penang", "Category": "慈善福利", "PageNumber": "134" }, "geometry": { "type": "Point", "coordinates": [ 100.372, 5.4086, 100.372 ] } },
{ "type": "Feature", "properties": { "Name_CH": "马来西亚佛教发展基金会", "Name_ML": "Yayasan Bella Buddhist Malaysia", "Name_EN": null, "Location": "129, Jalan Seang Tek, 10400 Pulau Pinang.", "Longitude": 100.3220344, "Latitude": 5.4149293, "Region": "Penang", "Category": "慈善福利", "PageNumber": "134" }, "geometry": { "type": "Point", "coordinates": [ 100.322, 5.4149, 100.322 ] } },
{ "type": "Feature", "properties": { "Name_CH": "双溪浮油华人义山", "Name_ML": null, "Name_EN": null, "Location": "3887, Kg. Simpah, 13400 Butterworth, Penang.", "Longitude": 100.3904626, "Latitude": 5.4273855, "Region": "Penang", "Category": "慈善福利", "PageNumber": "134" }, "geometry": { "type": "Point", "coordinates": [ 100.3905, 5.4274, 100.3905 ] } },
{ "type": "Feature", "properties": { "Name_CH": "双溪浮油义务消防队", "Name_ML": "Persatuan Bomba Sukarela Sg. Puyu Butterworth", "Name_EN": null, "Location": "No.263, Jalan Besar, Sg.Puyu, Butterworth.", "Longitude": 100.3955719, "Latitude": 5.4481628, "Region": "Penang", "Category": "慈善福利", "PageNumber": "134" }, "geometry": { "type": "Point", "coordinates": [ 100.3956, 5.4482, 100.3956 ] } },
{ "type": "Feature", "properties": { "Name_CH": "威南爪夷公冢", "Name_ML": "Rumah Berhala Hock Teik See,Sungei Bakap,", "Name_EN": null, "Location": "Jalan Badak Mali, 14200 Sungai Bakap, Seberang Perai Selatan\/ Pulau Pinang.", "Longitude": 100.5015493, "Latitude": 5.2235939, "Region": "Penang", "Category": "慈善福利", "PageNumber": "135" }, "geometry": { "type": "Point", "coordinates": [ 100.5015, 5.2236, 100.5015 ] } },
{ "type": "Feature", "properties": { "Name_CH": "威南华人义山协会", "Name_ML": "Persatuan Perkuburan Cina Seberang Perai Selatan", "Name_EN": null, "Location": "797, Badak Mati, 14200 Sungai Bakap, Pulau Pinang.", "Longitude": 100.4993307, "Latitude": 5.2247611, "Region": "Penang", "Category": "慈善福利", "PageNumber": "135" }, "geometry": { "type": "Point", "coordinates": [ 100.4993, 5.2248, 100.4993 ] } },
{ "type": "Feature", "properties": { "Name_CH": "威南打昔协天宫二公司华人义山", "Name_ML": "Rumah Berhala Hiap Thean Kong", "Name_EN": null, "Location": "Pekan Tasek, Simpang Ampat, 14120 Province Wellesly.", "Longitude": 100.521174, "Latitude": 5.275479, "Region": "Penang", "Category": "慈善福利", "PageNumber": "135" }, "geometry": { "type": "Point", "coordinates": [ 100.5212, 5.2755, 100.5212 ] } },
{ "type": "Feature", "properties": { "Name_CH": "威省武吉淡汶华人新公冢理事会", "Name_ML": null, "Name_EN": "The Management Committee, New Chinese Cem­etery, Bukit Tambun, P.W.", "Location": "No.44, Jalan Tasek, 14100 Simpang Ampat, Seberang Perai Selatan, Pulau Pinang.", "Longitude": 100.477729, "Latitude": 5.2852522, "Region": "Penang", "Category": "慈善福利", "PageNumber": "135" }, "geometry": { "type": "Point", "coordinates": [ 100.4777, 5.2853, 100.4777 ] } },
{ "type": "Feature", "properties": { "Name_CH": "宋万庆教育基金会", "Name_ML": "Lembaga Tabung Pendidikan Song Ban Kheng", "Name_EN": null, "Location": "138-C, Jalan Mawar, Off Jalan Kulim, 14000 Bukit Mertajam", "Longitude": 100.4934074, "Latitude": 5.3447276, "Region": "Penang", "Category": "慈善福利", "PageNumber": "135" }, "geometry": { "type": "Point", "coordinates": [ 100.4934, 5.3447, 100.4934 ] } },
{ "type": "Feature", "properties": { "Name_CH": "威省慈善组织联谊总会", "Name_ML": "Persatuan Kebajikan Dan Ihsan Seberang Prai", "Name_EN": null, "Location": "3047, Pusat Perniagaan Maju, 14000 Bukit Mertajam, Pulau Pinang.", "Longitude": 100.4667036, "Latitude": 5.3501197, "Region": "Penang", "Category": "慈善福利", "PageNumber": "135" }, "geometry": { "type": "Point", "coordinates": [ 100.4667, 5.3501, 100.4667 ] } },
{ "type": "Feature", "properties": { "Name_CH": "威省刘关张赵古城会华人义山", "Name_ML": "Kubur Cina Persatuan Lau Kwan Teoh Koo Siang Wool Seberang Perai", "Name_EN": null, "Location": "1772, Jalan Kulim, 14000 Bukit Mertajam, Pulau Pinang.", "Longitude": 100.4739922, "Latitude": 5.3526001, "Region": "Penang", "Category": "慈善福利", "PageNumber": "135" }, "geometry": { "type": "Point", "coordinates": [ 100.474, 5.3526, 100.474 ] } },
{ "type": "Feature", "properties": { "Name_CH": "威省北海暨峇东埔广东公冢理事会", "Name_ML": null, "Name_EN": "PW & Permatang Pauh Kwang Tung Cemetry Committee", "Location": "951, MK 2 , Jalan Samagaga, 13500 Permatang Pauh, Pulau Pinang.", "Longitude": 100.4199901, "Latitude": 5.4111956, "Region": "Penang", "Category": "慈善福利", "PageNumber": "135" }, "geometry": { "type": "Point", "coordinates": [ 100.42, 5.4112, 100.42 ] } },
{ "type": "Feature", "properties": { "Name_CH": "同善互助会", "Name_ML": null, "Name_EN": "Tong Sian Provident Fund", "Location": "No.46, Dato Kramat Road, Pulau Pinang.", "Longitude": 100.327511, "Latitude": 5.413857, "Region": "Penang", "Category": "慈善福利", "PageNumber": "135" }, "geometry": { "type": "Point", "coordinates": [ 100.3275, 5.4139, 100.3275 ] } },
{ "type": "Feature", "properties": { "Name_CH": "顺徳(1954)基金会", "Name_ML": null, "Name_EN": "The Soon Tuck (1954) Provident Society", "Location": "51 Love Lane, Pulau Pinang.", "Longitude": 100.3367666, "Latitude": 5.419113, "Region": "Penang", "Category": "慈善福利", "PageNumber": "135" }, "geometry": { "type": "Point", "coordinates": [ 100.3368, 5.4191, 100.3368 ] } },
{ "type": "Feature", "properties": { "Name_CH": "王景城教育基金委员会", "Name_ML": null, "Name_EN": "Mr.Ong Keng Seng Memorial Education Fund Committee", "Location": "22 Malay Street, Pulau Pinang.", "Longitude": 100.3091, "Latitude": 5.4356367, "Region": "Penang", "Category": "慈善福利", "PageNumber": "135" }, "geometry": { "type": "Point", "coordinates": [ 100.3091, 5.4356, 100.3091 ] } },
{ "type": "Feature", "properties": { "Name_CH": "威省巴东新庄福建龙福义山", "Name_ML": "Persatuan Tanah Perkuburan China Hokkien Leng Hock", "Name_EN": null, "Location": "12, Tingkat Bertam Dua, 13200 Kepala Batas, Seberang Perai, Pulau Pinang.", "Longitude": 100.430878, "Latitude": 5.5176132, "Region": "Penang", "Category": "慈善福利", "PageNumber": "135" }, "geometry": { "type": "Point", "coordinates": [ 100.4309, 5.5176, 100.4309 ] } },
{ "type": "Feature", "properties": { "Name_CH": "怡然精舍残障儿童收留协会", "Name_ML": "Persatuan Yee Ran Jing Sheh", "Name_EN": null, "Location": "TBP 3730\/3731, Jalan Belimbing Ladang Chip Joo, Bukit Tengah, Bukit Mertajam.", "Longitude": 100.4381579, "Latitude": 5.3498986, "Region": "Penang", "Category": "慈善福利", "PageNumber": "136" }, "geometry": { "type": "Point", "coordinates": [ 100.4382, 5.3499, 100.4382 ] } },
{ "type": "Feature", "properties": { "Name_CH": "武拉必福建第二公冢", "Name_ML": "Tanah Perkuburan Berapit B.M.", "Name_EN": null, "Location": "Lot 171, Mk 18, Seberang Perai Tengah, Pulau Pinang.", "Longitude": 100.4517935, "Latitude": 5.353468, "Region": "Penang", "Category": "慈善福利", "PageNumber": "136" }, "geometry": { "type": "Point", "coordinates": [ 100.4518, 5.3535, 100.4518 ] } },
{ "type": "Feature", "properties": { "Name_CH": "威省一心扶轮社洗肾中心", "Name_ML": "Pertubuhan Rotary Satu Hati Seberang Perai", "Name_EN": null, "Location": "3-5, Lorong Tembikai 6, Pusat Komersial Sri Rambai, 14000 Bukit Mertajam, Seberang Perai Pulau Pinang.", "Longitude": 100.4478458, "Latitude": 5.3571935, "Region": "Penang", "Category": "慈善福利", "PageNumber": "136" }, "geometry": { "type": "Point", "coordinates": [ 100.4478, 5.3572, 100.4478 ] } },
{ "type": "Feature", "properties": { "Name_CH": "颍川山庄", "Name_ML": null, "Name_EN": null, "Location": "Lot 1951, Mukim 17, Seberang Perai Tengah, 14000 Bukit Mertajam.", "Longitude": 100.5014909, "Latitude": 5.360796, "Region": "Penang", "Category": "慈善福利", "PageNumber": "136" }, "geometry": { "type": "Point", "coordinates": [ 100.5015, 5.3608, 100.5015 ] } },
{ "type": "Feature", "properties": { "Name_CH": "直落巴巷福建公冢(槟榔屿联合福建公冢)", "Name_ML": null, "Name_EN": "United Hokkien Cemetry Penang", "Location": "Jalan Batu Gantong, 10450 Penang.", "Longitude": 100.2984507, "Latitude": 5.4137542, "Region": "Penang", "Category": "慈善福利", "PageNumber": "136" }, "geometry": { "type": "Point", "coordinates": [ 100.2985, 5.4138, 100.2985 ] } },
{ "type": "Feature", "properties": { "Name_CH": "—德互助会", "Name_ML": null, "Name_EN": "It Tek Benefit Society Penang", "Location": "No.46, Dato Keramat Road, Pulau Pinang.", "Longitude": 100.327511, "Latitude": 5.413857, "Region": "Penang", "Category": "慈善福利", "PageNumber": "136" }, "geometry": { "type": "Point", "coordinates": [ 100.3275, 5.4139, 100.3275 ] } },
{ "type": "Feature", "properties": { "Name_CH": "直落巴巷广东公冢", "Name_ML": null, "Name_EN": "Kwang Tung&Teng Chew Association Penang", "Location": "50, Lebuh Penang, 10200 Penang.", "Longitude": 100.3406428, "Latitude": 5.4182629, "Region": "Penang", "Category": "慈善福利", "PageNumber": "136" }, "geometry": { "type": "Point", "coordinates": [ 100.3406, 5.4183, 100.3406 ] } },
{ "type": "Feature", "properties": { "Name_CH": "粤侨兼善会", "Name_ML": "Persatuan Penang Cantonese Mutual Benevolent (1954)", "Name_EN": "Penang Cantonese Mutual Benevolent (1954) Association", "Location": "36-38, Lebuh King, 10200 Pulau Pinang.", "Longitude": 100.3400073, "Latitude": 5.4183662, "Region": "Penang", "Category": "慈善福利", "PageNumber": "136" }, "geometry": { "type": "Point", "coordinates": [ 100.34, 5.4184, 100.34 ] } },
{ "type": "Feature", "properties": { "Name_CH": "新会会馆关帝案", "Name_ML": "Sun Wui Wui Koon Kwan-Tai-On Mutual Aid Fung Penang", "Name_EN": null, "Location": "38z Lebuh Bishop, Pulau Pinang.", "Longitude": 100.3413643, "Latitude": 5.4189255, "Region": "Penang", "Category": "慈善福利", "PageNumber": "136" }, "geometry": { "type": "Point", "coordinates": [ 100.3414, 5.4189, 100.3414 ] } },
{ "type": "Feature", "properties": { "Name_CH": "阳光普照世家", "Name_ML": "Persatuan Rumah Cahaya Harapan Pulau Pinang", "Name_EN": "The Enlightment Home Association Penang", "Location": "16, Jalan Bawasah, 10050 Penang.", "Longitude": 100.3257886, "Latitude": 5.4209683, "Region": "Penang", "Category": "慈善福利", "PageNumber": "136" }, "geometry": { "type": "Point", "coordinates": [ 100.3258, 5.421, 100.3258 ] } }
]
}
