{
"type": "FeatureCollection",
"name": "Category_2",
"crs": { "type": "name", "properties": { "name": "urn:ogc:def:crs:OGC:1.3:CRS84" } },
"features": [
{ "type": "Feature", "properties": { "Name_CH": "马拉瑞县华小教师会", "Name_ML": "Persatuan Guru-Guru Sekolah Cina Meradong", "Name_EN": null, "Location": "SJK(C) Ming Tee, Jabatan Pendidikan Daerah Meradong, 96500 Bintangor, Sarawak.", "Region": "Sarawak", "Category": "文教", "PageNumber": 368, "Country": "Malaysia", "latitude": 2.102612, "longitude": 111.7137694 }, "geometry": { "type": "Point", "coordinates": [ 111.7137694, 2.102612 ] } },
{ "type": "Feature", "properties": { "Name_CH": "晋汉省华小教师会", "Name_ML": "Persatuan Guru-Guru Sekolah Rendah Aliran", "Name_EN": null, "Location": "Bahasa Cina, Bahagian Kuching\/Samarahan", "Region": "Sarawak", "Category": "文教", "PageNumber": 368, "Country": "Malaysia", "latitude": 1.553504, "longitude": 110.3592927 }, "geometry": { "type": "Point", "coordinates": [ 110.3592927, 1.553504 ] } },
{ "type": "Feature", "properties": { "Name_CH": "古晋中华中学校友会", "Name_ML": "Persatuan Bekas Penuntut SM Chung Hua Kuching", "Name_EN": "Kuching Chung Hua Middle School Alumni Association", "Location": "Lot 119, No.21(Tingkat 1) Lorong 5, Jalan Datuk Abang Abdul Rahim, 93450 Kuching, Sarawak.", "Region": "Sarawak", "Category": "文教", "PageNumber": 368, "Country": "Malaysia", "latitude": 1.5523282, "longitude": 110.3674792 }, "geometry": { "type": "Point", "coordinates": [ 110.3674792, 1.5523282 ] } },
{ "type": "Feature", "properties": { "Name_CH": "古晋中华第一中学校友会", "Name_ML": "Persatuan Alumni SM Chung Hua No. 1 Kuching", "Name_EN": "The Chung Hua Middle School No. 1 Alumni Association  Kuching", "Location": "Chung Hua Middle School No. 1 Jalan Pending, 93450 Kuching, Sarawak.", "Region": "Sarawak", "Category": "文教", "PageNumber": 368, "Country": "Malaysia", "latitude": 1.5490666, "longitude": 110.3752965 }, "geometry": { "type": "Point", "coordinates": [ 110.3752965, 1.5490666 ] } },
{ "type": "Feature", "properties": { "Name_CH": "第三六七省师训毕业同学会", "Name_ML": null, "Name_EN": "3rd, 6th & 7th Division Sarawak Ateachers Training College Alumni Association", "Location": "No. 12, Nibong Rd, 96000 Sibu, Sarawak.", "Region": "Sarawak", "Category": "文教", "PageNumber": 368, "Country": "Malaysia", "latitude": 2.3085587, "longitude": 111.827089 }, "geometry": { "type": "Point", "coordinates": [ 111.827089, 2.3085587 ] } },
{ "type": "Feature", "properties": { "Name_CH": "大马书艺协会诗巫联委会", "Name_ML": "Persatuan Seni Tulis Malaysia ", "Name_EN": "The Calligraphy Society of Malaysia", "Location": "No. 36, Lane 2, Rejang Park, 96000 Sibu, Sarawak.", "Region": "Sarawak", "Category": "文教", "PageNumber": 368, "Country": "Malaysia", "latitude": 2.3068234, "longitude": 111.8399348 }, "geometry": { "type": "Point", "coordinates": [ 111.8399348, 2.3068234 ] } },
{ "type": "Feature", "properties": { "Name_CH": "第三省华文独中校友联合会", "Name_ML": "Persatuan Bekas Penuntut Sek Men Cina Swasta Brsekutu Bahagian Ketiga Sarawak", "Name_EN": "The United Private Chinese Secondar School Old Students Association", "Location": "No. 52B, 6th Floor, Jalan Brooke Drive, P.O.Box 1302, 96008 Sibu, Sarawak.", "Region": "Sarawak", "Category": "文教", "PageNumber": 368, "Country": "Malaysia", "latitude": 2.3016249, "longitude": 111.8322527 }, "geometry": { "type": "Point", "coordinates": [ 111.8322527, 2.3016249 ] } },
{ "type": "Feature", "properties": { "Name_CH": "美里美中校友会", "Name_ML": "Persatuan Bekas Pelajar SMK(Chung Hua)", "Name_EN": "Miri Chung Hua Middle School Alumni Association ", "Location": "Jalan Dato Temenggang Ojong Lawdi, Jalan Brighten, Miri, Sarawak. P.O.Box 116, 98007 Miri, Sarawak.", "Region": "Sarawak", "Category": "文教", "PageNumber": 368, "Country": "Malaysia", "latitude": 4.4692192, "longitude": 114.0051421 }, "geometry": { "type": "Point", "coordinates": [ 114.0051421, 4.4692192 ] } },
{ "type": "Feature", "properties": { "Name_CH": "美里省华小董联会", "Name_ML": "Persatuan Lembaga Pengurusan SRB Cina  ", "Name_EN": null, "Location": "Bersatu Bahagian Miri", "Region": "Sarawak", "Category": "文教", "PageNumber": 368, "Country": "Malaysia", "latitude": 4.3967418, "longitude": 113.9905561 }, "geometry": { "type": "Point", "coordinates": [ 113.9905561, 4.3967418 ] } },
{ "type": "Feature", "properties": { "Name_CH": "美里省华校教师公会", "Name_ML": "Persatuan Guru-Guru Sekolah Cina Miri Sarawak", "Name_EN": null, "Location": "SJK(C) Chung Hua Miri, Peti Surat 69, 98007 Miri, Sarawak.", "Region": "Sarawak", "Category": "文教", "PageNumber": 368, "Country": "Malaysia", "latitude": 4.3928795, "longitude": 113.9896161 }, "geometry": { "type": "Point", "coordinates": [ 113.9896161, 4.3928795 ] } },
{ "type": "Feature", "properties": { "Name_CH": "民丹莪开中中学校友会", "Name_ML": "Persatuan Bekas Pelajar SMB Kai Chung Bintangor", "Name_EN": "Bintangor Kai Chung Sec. School Ex-Student Association", "Location": "P.O.Box 329, 96508 Bintangor, Sarawak.", "Region": "Sarawak", "Category": "文教", "PageNumber": 368, "Country": "Malaysia", "latitude": 2.146629, "longitude": 111.6589925 }, "geometry": { "type": "Point", "coordinates": [ 111.6589925, 2.146629 ] } },
{ "type": "Feature", "properties": { "Name_CH": "砂劳越华小董联会", "Name_ML": null, "Name_EN": "The Sarawak United Association Of Chinese Primary Aided School Boards Of Management", "Location": "C\/O Chung Hua Primary School No.5, Jalan Chawan, 93300 Kuching, Sarawak.", "Region": "Sarawak", "Category": "文教", "PageNumber": 369, "Country": "Malaysia", "latitude": 1.551921, "longitude": 110.3619119 }, "geometry": { "type": "Point", "coordinates": [ 110.3619119, 1.551921 ] } },
{ "type": "Feature", "properties": { "Name_CH": "砂劳越华小教师会联合会", "Name_ML": "Gabungan Persatuan Guru-Guru Sekolah Rendah Aliran Bahasa Ciana Sarawak.", "Name_EN": null, "Location": "No.8, Jalan Central, 96000 Sibu, Sarawak.", "Region": "Sarawak", "Category": "文教", "PageNumber": 369, "Country": "Malaysia", "latitude": 2.2891115, "longitude": 111.8279524 }, "geometry": { "type": "Point", "coordinates": [ 111.8279524, 2.2891115 ] } },
{ "type": "Feature", "properties": { "Name_CH": "砂拉越留台同学会", "Name_ML": "Persatuan Graduan Taiwan Sarawak", "Name_EN": "Sarawak Taiwan Graduate' s Association", "Location": "No.21, Jalan Lotus, 96000 Sibu, Sarawak.", "Region": "Sarawak", "Category": "文教", "PageNumber": 369, "Country": "Malaysia", "latitude": 2.3556865, "longitude": 111.9522491 }, "geometry": { "type": "Point", "coordinates": [ 111.9522491, 2.3556865 ] } },
{ "type": "Feature", "properties": { "Name_CH": "南大校友会诗巫分会", "Name_ML": null, "Name_EN": "Na Yong University Alumni Society", "Location": "No. 12, Lane 1, Brooke Drive, 96000 Sibu, Sarawak.", "Region": "Sarawak", "Category": "文教", "PageNumber": 369, "Country": "Malaysia", "latitude": 2.300446, "longitude": 111.831944 }, "geometry": { "type": "Point", "coordinates": [ 111.831944, 2.300446 ] } },
{ "type": "Feature", "properties": { "Name_CH": "砂拉越留华同学会", "Name_ML": "Persatuan Graduan China Sarawak", "Name_EN": "China Graduates Association Of Sarawak", "Location": "48, Jalan Sie Poi Kieng, P.O.Box 1433, 96008 Sibu, Sarawak.", "Region": "Sarawak", "Category": "文教", "PageNumber": 369, "Country": "Malaysia", "latitude": 2.3021146, "longitude": 111.8315596 }, "geometry": { "type": "Point", "coordinates": [ 111.8315596, 2.3021146 ] } },
{ "type": "Feature", "properties": { "Name_CH": "民丹莪舞蹈协会", "Name_ML": "Persatuan Tarian Bintangor", "Name_EN": null, "Location": "15, (1st Floor), Lorong 15, Lorong Maju, Teo Kui Ngo Road, 96500 Bintangor, Sarawak.", "Region": "Sarawak", "Category": "文教", "PageNumber": 369, "Country": "Malaysia", "latitude": 2.170686, "longitude": 111.6367139 }, "geometry": { "type": "Point", "coordinates": [ 111.6367139, 2.170686 ] } },
{ "type": "Feature", "properties": { "Name_CH": "砂拉越留台同学会诗巫省分会", "Name_ML": "Persatuan Pelajar Taiwan Bhg.3  Sarawak", "Name_EN": null, "Location": "2, Lotus Rd 96000 Sibu, Sarawak. P.O.Box 582, 96007 Sibu, Sarawak.", "Region": "Sarawak", "Category": "文教", "PageNumber": 369, "Country": "Malaysia", "latitude": 2.3556865, "longitude": 111.9522491 }, "geometry": { "type": "Point", "coordinates": [ 111.9522491, 2.3556865 ] } },
{ "type": "Feature", "properties": { "Name_CH": "砂拉越留台同学会古晋省分会", "Name_ML": "Persatuan  Graduan Taiwan Sarawak( Cawangan Bhg Kuching)", "Name_EN": "Sarawak Taiwan Gradiates Asso. Kuching Division Branch", "Location": "Lot 125, Section 63, No. 33, Jln Datuk Abang Abdul Rahim, 93450 Kuching, Sarawak.", "Region": "Sarawak", "Category": "文教", "PageNumber": 369, "Country": "Malaysia", "latitude": 1.553397, "longitude": 110.367766 }, "geometry": { "type": "Point", "coordinates": [ 110.367766, 1.553397 ] } },
{ "type": "Feature", "properties": { "Name_CH": "砂拉越华文独中董联会", "Name_ML": null, "Name_EN": "The Sarawak United Association Of Private Chinese Secondary School Management Board", "Location": "P.O.Box 608, 93712 Kuching, Sarawak.", "Region": "Sarawak", "Category": "文教", "PageNumber": 369, "Country": "Malaysia", "latitude": 1.553504, "longitude": 110.3592927 }, "geometry": { "type": "Point", "coordinates": [ 110.3592927, 1.553504 ] } },
{ "type": "Feature", "properties": { "Name_CH": "砂拉越留台同学会美里分会", "Name_ML": null, "Name_EN": "Sarawak Taiwan Graduates Association Miri Division Branch", "Location": "P.O.Box 690, 98008 Miri, Sarawak.", "Region": "Sarawak", "Category": "文教", "PageNumber": 369, "Country": "Malaysia", "latitude": 4.399493, "longitude": 113.9913832 }, "geometry": { "type": "Point", "coordinates": [ 113.9913832, 4.399493 ] } },
{ "type": "Feature", "properties": { "Name_CH": "砂拉越留台同学会泗里街分会", "Name_ML": "Persatuan Graduan Taiwan Sarawak", "Name_EN": "Sarawak Taiwan Greductes Association Miri Division Branch", "Location": "P.O.Box 275, 96107, Sarikei, Sarawak.", "Region": "Sarawak", "Category": "文教", "PageNumber": 369, "Country": "Malaysia", "latitude": 2.131703, "longitude": 111.5237279 }, "geometry": { "type": "Point", "coordinates": [ 111.5237279, 2.131703 ] } },
{ "type": "Feature", "properties": { "Name_CH": "砂拉越美里华校教师公会", "Name_ML": "Persatuan Guru-Guru Sekolah Cina Bahagian Miri", "Name_EN": null, "Location": "P.O.Box 240, 98007 Miri, Sarawak.", "Region": "Sarawak", "Category": "文教", "PageNumber": 369, "Country": "Malaysia", "latitude": 4.399493, "longitude": 113.9913832 }, "geometry": { "type": "Point", "coordinates": [ 113.9913832, 4.399493 ] } },
{ "type": "Feature", "properties": { "Name_CH": "诗巫华人教师公会", "Name_ML": "Persatuan Guru-Guru Cina, Sibu", "Name_EN": "Sibu Chinese Teachers Association", "Location": "SJK(C) Tiong Hin, Peti Surat 974, 96008 Sibu, Sarawak.", "Region": "Sarawak", "Category": "文教", "PageNumber": 370, "Country": "Malaysia", "latitude": 2.332365, "longitude": 111.842936 }, "geometry": { "type": "Point", "coordinates": [ 111.842936, 2.332365 ] } },
{ "type": "Feature", "properties": { "Name_CH": "诗巫公教中学校友会", "Name_ML": null, "Name_EN": "Catholic High School Old Students Association, Sibu", "Location": "Catholic High School, P.O.Box 383, 96007 Sibu, Sarawak.", "Region": "Sarawak", "Category": "文教", "PageNumber": 370, "Country": "Malaysia", "latitude": 2.2861374, "longitude": 111.8328544 }, "geometry": { "type": "Point", "coordinates": [ 111.8328544, 2.2861374 ] } },
{ "type": "Feature", "properties": { "Name_CH": "砂罗越美里省津贴华文小学董事会联合会", "Name_ML": null, "Name_EN": "The United Association Of Chinese Primary Aidah", "Location": "School Board of Management， Miri Division", "Region": "Sarawak", "Category": "文教", "PageNumber": 370, "Country": "Malaysia", "latitude": 4.3967418, "longitude": 113.9905561 }, "geometry": { "type": "Point", "coordinates": [ 113.9905561, 4.3967418 ] } },
{ "type": "Feature", "properties": { "Name_CH": "实文然中华校友会", "Name_ML": "Persatuan Murid-Murid Tua Chung Hua", "Name_EN": "Chung Hua Old Boy' s Association", "Location": "No.1, Pasar Baru, 94800 Simunjan, Sarawak.", "Region": "Sarawak", "Category": "文教", "PageNumber": 370, "Country": "Malaysia", "latitude": 1.3947865, "longitude": 110.7503748 }, "geometry": { "type": "Point", "coordinates": [ 110.7503748, 1.3947865 ] } },
{ "type": "Feature", "properties": { "Name_CH": "泗里街华人教师会", "Name_ML": "Persatuan Guru-Guru Cina, Sarikei", "Name_EN": "Sarikei Chinese Teacher' s Association", "Location": "135, Jalan  Meranti 96100 Sarikei, Sarawak.", "Region": "Sarawak", "Category": "文教", "PageNumber": 370, "Country": "Malaysia", "latitude": 2.1233627, "longitude": 111.5342632 }, "geometry": { "type": "Point", "coordinates": [ 111.5342632, 2.1233627 ] } },
{ "type": "Feature", "properties": { "Name_CH": "诗巫盆栽园艺协会", "Name_ML": "Persatuan Bonsai & Horticulture Sibu", "Name_EN": "Sibu Bonsai & Horticulture Association", "Location": "No.49-B Jalan Lanang, Peti Surat 1225, 96008 Sibu, Sarawak.", "Region": "Sarawak", "Category": "文教", "PageNumber": 370, "Country": "Malaysia", "latitude": 2.282101, "longitude": 111.8346891 }, "geometry": { "type": "Point", "coordinates": [ 111.8346891, 2.282101 ] } },
{ "type": "Feature", "properties": { "Name_CH": "诗巫黄乃裳中学校友会", "Name_ML": null, "Name_EN": "Wong Nai Siong Secondary School Old Students Association Sibu", "Location": "Wong Nai Sion Sec. School, P.O.Box 933, 96008 Sibu, Sarawak.", "Region": "Sarawak", "Category": "文教", "PageNumber": 370, "Country": "Malaysia", "latitude": 2.2765738, "longitude": 111.8469692 }, "geometry": { "type": "Point", "coordinates": [ 111.8469692, 2.2765738 ] } },
{ "type": "Feature", "properties": { "Name_CH": "砂拉越诗巫省华文独立中学董事联合会", "Name_ML": "Persatuan Lembaga-Lembaga Bersatu Pengurusan Sekolah Menengah Swasta Cina Bahagian Sibu, Sarawak", "Name_EN": "The United Association Of Private Chinese Secondary School Boards Of Management, Sibu Division Sarawak", "Location": "52G, 6th Floor, Brooke Drive, 96000 Sibu, Sarawak.", "Region": "Sarawak", "Category": "文教", "PageNumber": 370, "Country": "Malaysia", "latitude": 2.300186, "longitude": 111.831403 }, "geometry": { "type": "Point", "coordinates": [ 111.831403, 2.300186 ] } },
{ "type": "Feature", "properties": { "Name_CH": "诗巫， 泗里奎， 加帛省幼稚园教师会", "Name_ML": "Persatuan Guru Tadika Bahagian Sibu, Sarikei Dan Kapit", "Name_EN": "Kindergarten Teacher' s Association Of the Sibu Sarikei And Kapit Division ", "Location": "29B, Jalan Kapor 96000 Sibu, Sarawak.", "Region": "Sarawak", "Category": "文教", "PageNumber": 370, "Country": "Malaysia", "latitude": 2.2806357, "longitude": 111.8469702 }, "geometry": { "type": "Point", "coordinates": [ 111.8469702, 2.2806357 ] } },
{ "type": "Feature", "properties": { "Name_CH": "诗巫光民中学校友会", "Name_ML": null, "Name_EN": "Guong Ming Middle School Old Students Association", "Location": "6, Jalan Tuanku Osman, 96000 Sibu, Sarawak.", "Region": "Sarawak", "Category": "文教", "PageNumber": 370, "Country": "Malaysia", "latitude": 2.2929627, "longitude": 111.8257981 }, "geometry": { "type": "Point", "coordinates": [ 111.8257981, 2.2929627 ] } },
{ "type": "Feature", "properties": { "Name_CH": "诗巫省华文独中董联会", "Name_ML": null, "Name_EN": "The United Association Of  Private Chinese Secondary School Boards Of Management, Sibu Division", "Location": "P.O.Box 1320, 96008 Sibu, Sarawak", "Region": "Sarawak", "Category": "文教", "PageNumber": 370, "Country": "Malaysia", "latitude": 2.287284, "longitude": 111.830535 }, "geometry": { "type": "Point", "coordinates": [ 111.830535, 2.287284 ] } },
{ "type": "Feature", "properties": { "Name_CH": "诗巫与加帛省津贴华文小学董事联合会", "Name_ML": "Persatuan Lembaga-Lembaga Pengurusan Sekolah-Sekolah Rendan Bantuan Cina Bahagian Sibu & Kapit Sarawak", "Name_EN": "The United Association Of Chinese Primary Aided School Boards Of Management, Sibu & Kapit Division", "Location": "52H, Brooke Drive, 96000 Sibu, Sarawak.", "Region": "Sarawak", "Category": "文教", "PageNumber": 370, "Country": "Malaysia", "latitude": 2.3001917, "longitude": 111.8313894 }, "geometry": { "type": "Point", "coordinates": [ 111.8313894, 2.3001917 ] } },
{ "type": "Feature", "properties": { "Name_CH": "泗里街省津贴华文小学董事联合会", "Name_ML": "Persatuan Lembaga Bersatu Pengurusan Sekolah Rendah", "Name_EN": "Cina Bantuan Bahagian Sarikei Sarawak", "Location": "No. 9-10, Jakar Bazaar, Sarikei Sarawak.", "Region": "Sarawak", "Category": "文教", "PageNumber": 371, "Country": "Malaysia", "latitude": 2.038419, "longitude": 111.49214 }, "geometry": { "type": "Point", "coordinates": [ 111.49214, 2.038419 ] } },
{ "type": "Feature", "properties": { "Name_CH": "泗里街民立中学校友会", "Name_ML": "Persatuan Murid-Murid Tua Sekolah Tinggi Ming Lik, Sarikei", "Name_EN": "Ming Lik High School Oil Students Association Sarikei", "Location": "P.O.Box 456, 96107, Sarikei, Sarawak.", "Region": "Sarawak", "Category": "文教", "PageNumber": 371, "Country": "Malaysia", "latitude": 2.131703, "longitude": 111.5237279 }, "geometry": { "type": "Point", "coordinates": [ 111.5237279, 2.131703 ] } }
]
}
