{
"type": "FeatureCollection",
"name": "Category_6",
"crs": { "type": "name", "properties": { "name": "urn:ogc:def:crs:OGC:1.3:CRS84" } },
"features": [
{ "type": "Feature", "properties": { "Name_CH": "芦平境庙", "Name_ML": null, "Name_EN": "Manegement Committee Of Lu Ping Kim Temple", "Location": "6 1\/2 mile, Repok Road, Sarikei, Sarawak.", "Longitude": 111.520461, "Latitude": 2.130253, "Region": "Sarawak", "Category": "宗教", "PageNumber": "371" }, "geometry": { "type": "Point", "coordinates": [ 111.5205, 2.1303, 111.5205 ] } },
{ "type": "Feature", "properties": { "Name_CH": "凤凰山二霸王公庙", "Name_ML": "Rumah Berhala Fong Hwang San Ur Par Wang Kong Sibu", "Name_EN": "Fong Hwang San Ur Par Wang Kong Temple", "Location": "21\/2 Miles. Deshon Rd, (7D Lane 4 Deshon Rd)", "Longitude": 111.852503, "Latitude": 2.315811, "Region": "Sarawak", "Category": "宗教", "PageNumber": "371" }, "geometry": { "type": "Point", "coordinates": [ 111.8525, 2.3158, 111.8525 ] } },
{ "type": "Feature", "properties": { "Name_CH": "凤山亭清明会", "Name_ML": "Persatuan Ching Ming Julau", "Name_EN": "Julau Ching Ming Association", "Location": "Chop Hock Hup Hin No.5, Julau Bazaan 6th Division, Sarawak.", "Longitude": 113.990497, "Latitude": 4.396865, "Region": "Sarawak", "Category": "宗教", "PageNumber": "371" }, "geometry": { "type": "Point", "coordinates": [ 113.9905, 4.3969, 113.9905 ] } },
{ "type": "Feature", "properties": { "Name_CH": "美里德教会紫星阁", "Name_ML": null, "Name_EN": "Che Sing Khor Moral Uplifting Society", "Location": "Lot 906, Jee Foh Road, Krokop, 98000 Miri, Sarawak.", "Longitude": 114.026084, "Latitude": 4.464737, "Region": "Sarawak", "Category": "宗教", "PageNumber": "371" }, "geometry": { "type": "Point", "coordinates": [ 114.0261, 4.4647, 114.0261 ] } },
{ "type": "Feature", "properties": { "Name_CH": "美里佛教正信会", "Name_ML": null, "Name_EN": "Miri Orthodor Buddist Association", "Location": "Lot 2299, Bulatan Commercial Centre, Piasar, 98000 Miri, Sarawak.", "Longitude": 114.026084, "Latitude": 4.464737, "Region": "Sarawak", "Category": "宗教", "PageNumber": "371" }, "geometry": { "type": "Point", "coordinates": [ 114.0261, 4.4647, 114.0261 ] } },
{ "type": "Feature", "properties": { "Name_CH": "老越德教会紫悟阁", "Name_ML": null, "Name_EN": "Che Wu Khor Moral Uplifting Society Lawas", "Location": "2nd Floor, Block 6, Lot 1637, Jalan SESCO, 98850 Lawas, Sarawak.", "Longitude": 115.420187, "Latitude": 4.523016, "Region": "Sarawak", "Category": "宗教", "PageNumber": "371" }, "geometry": { "type": "Point", "coordinates": [ 115.4202, 4.523, 115.4202 ] } },
{ "type": "Feature", "properties": { "Name_CH": "美里德教会紫理阁", "Name_ML": null, "Name_EN": "Miri Che Lee Khor Moral Uplifting Society", "Location": "No.3, Merbau Estate Shophouse 98000 Miri, Sarawak. P.O.Box 2334, 98008 Miri, Sarawak", "Longitude": 115.009886, "Latitude": 4.741276, "Region": "Sarawak", "Category": "宗教", "PageNumber": "371" }, "geometry": { "type": "Point", "coordinates": [ 115.0099, 4.7413, 115.0099 ] } },
{ "type": "Feature", "properties": { "Name_CH": "林梦佛教会", "Name_ML": null, "Name_EN": "Limbang Buddist Association", "Location": "1452, Jalan Buangsiol, 98700 Limbang, Sarawak.", "Longitude": 115.007514, "Latitude": 4.756972, "Region": "Sarawak", "Category": "宗教", "PageNumber": "371" }, "geometry": { "type": "Point", "coordinates": [ 115.0075, 4.757, 115.0075 ] } },
{ "type": "Feature", "properties": { "Name_CH": "林梦德教会紫全阁 ", "Name_ML": "Pertubuhan Membing Akhlak Che Chuang Khor", "Name_EN": "Che Chuang Khor Moral Uplifting Society", "Location": "3rd Floor, No.25, Main Bazaar, Limbang, Sarawak.", "Longitude": 115.012164, "Latitude": 4.761188, "Region": "Sarawak", "Category": "宗教", "PageNumber": "371" }, "geometry": { "type": "Point", "coordinates": [ 115.0122, 4.7612, 115.0122 ] } },
{ "type": "Feature", "properties": { "Name_CH": "妙法甲辰宫", "Name_ML": "Persatuan Miew Huat Kat Seng Keng", "Name_EN": "Miew Huat Kat Seng Keng Association", "Location": "13, Jalan Peace, 93450 Kuching, Sarawak. P.O.Box 619, 93712nKuching, Sarawak.", "Longitude": 110.382591, "Latitude": 1.501316, "Region": "Sarawak", "Category": "宗教", "PageNumber": "372" }, "geometry": { "type": "Point", "coordinates": [ 110.3826, 1.5013, 110.3826 ] } },
{ "type": "Feature", "properties": { "Name_CH": "民丹莪民安亭大伯公庙", "Name_ML": null, "Name_EN": "Ming Ang Temple", "Location": "Batu 2 1\/2 K.J.D.Road, Bintangor, Sarawak. P.O.Box 90, 96507 Bintangor, Sarawak.", "Longitude": 110.307834, "Latitude": 1.514252, "Region": "Sarawak", "Category": "宗教", "PageNumber": "372" }, "geometry": { "type": "Point", "coordinates": [ 110.3078, 1.5143, 110.3078 ] } },
{ "type": "Feature", "properties": { "Name_CH": "民丹莪孔孟圣道院", "Name_ML": "Persatuan Ajaran Confucius Bintangor", "Name_EN": null, "Location": "1, 2nd Floor, Jalan Bintang Utara, Bintangor, Sarawak.", "Longitude": 111.831002, "Latitude": 2.306108, "Region": "Sarawak", "Category": "宗教", "PageNumber": "372" }, "geometry": { "type": "Point", "coordinates": [ 111.831, 2.3061, 111.831 ] } },
{ "type": "Feature", "properties": { "Name_CH": "美里金刚（卡玛迦加）佛教会", "Name_ML": null, "Name_EN": "The Karma Kagaja Dharma Society", "Location": "Lot 150, Sublot 216, 2nd Floor, Lucky Building, Airport Road, 98000 Miri, Sarawak.", "Longitude": 113.984548, "Latitude": 4.330342, "Region": "Sarawak", "Category": "宗教", "PageNumber": "372" }, "geometry": { "type": "Point", "coordinates": [ 113.9845, 4.3303, 113.9845 ] } },
{ "type": "Feature", "properties": { "Name_CH": "民都鲁佛教会", "Name_ML": "Persatuan Penganut Buddha Bintulu", "Name_EN": "Bintulu Buddhist Association", "Location": "Lot 1016, Block 31, Kemena Commercial Centre, Jalan Tg. Batu, 97000 Bintulu, Sarawak.", "Longitude": 113.989387, "Latitude": 4.399636, "Region": "Sarawak", "Category": "宗教", "PageNumber": "372" }, "geometry": { "type": "Point", "coordinates": [ 113.9894, 4.3996, 113.9894 ] } },
{ "type": "Feature", "properties": { "Name_CH": "美里紫阳学会", "Name_ML": "Institut Pengajian Falsafah Tzyy Yang Miri", "Name_EN": "Miri Tzyy Yang Philosophy Studies Institute", "Location": "3rd Floor, Lot 1182, Block 9, MCLD, Miri Waterfront   Commercial Centre, Jalan Permaisuri, 98000 Miri, Sarawak.", "Longitude": 113.986575, "Latitude": 4.400184, "Region": "Sarawak", "Category": "宗教", "PageNumber": "372" }, "geometry": { "type": "Point", "coordinates": [ 113.9866, 4.4002, 113.9866 ] } },
{ "type": "Feature", "properties": { "Name_CH": "美里天尊殿", "Name_ML": null, "Name_EN": "Thian Chun Tien Buddist Association Miri", "Location": "P.O.Box 446, 98007 Miri, Sarawak.", "Longitude": 116.293291, "Latitude": 6.214785, "Region": "Sarawak", "Category": "宗教", "PageNumber": "372" }, "geometry": { "type": "Point", "coordinates": [ 116.2933, 6.2148, 116.2933 ] } },
{ "type": "Feature", "properties": { "Name_CH": "民丹莪慈铨佛学研修会", "Name_ML": "Persatuan Ugama Buddha Tze Chuan Bintangor", "Name_EN": "Tze Chuan Buddhist Binatang Association", "Location": "P.O.Box 175, 96507, Bintangor, Sarawak.", "Longitude": 116.293291, "Latitude": 6.214785, "Region": "Sarawak", "Category": "宗教", "PageNumber": "372" }, "geometry": { "type": "Point", "coordinates": [ 116.2933, 6.2148, 116.2933 ] } },
{ "type": "Feature", "properties": { "Name_CH": "砂拉越泗里街孔孟圣道院", "Name_ML": "Persatuan Ajaran Confucius Sarikei Sarawak", "Name_EN": null, "Location": null, "Longitude": null, "Latitude": null, "Region": "Sarawak", "Category": "宗教", "PageNumber": "372" }, "geometry": null },
{ "type": "Feature", "properties": { "Name_CH": "新光湾水月宫理事会", "Name_ML": "J\/K Pengurusan Tokong Swee Guk Kung", "Name_EN": "The Management Com. Of The Siniawan Swee Guk Kong Temple", "Location": "No. 93\/94, Taman Siniawan, 94000 Bau, Kuching, Sarawak.", "Longitude": 110.452031, "Latitude": 1.446218, "Region": "Sarawak", "Category": "宗教", "PageNumber": "373" }, "geometry": { "type": "Point", "coordinates": [ 110.452, 1.4462, 110.452 ] } },
{ "type": "Feature", "properties": { "Name_CH": "胜兴境庙", "Name_ML": null, "Name_EN": "Sing Hing King Association", "Location": "Lot 13, Sarikei Land District(Block 59), Sg. Murudu, Sarikei, Sarawak. P.O.Box 52, 96100 Sarikei, Sarawak.", "Longitude": 111.521087, "Latitude": 2.125829, "Region": "Sarawak", "Category": "宗教", "PageNumber": "373" }, "geometry": { "type": "Point", "coordinates": [ 111.5211, 2.1258, 111.5211 ] } },
{ "type": "Feature", "properties": { "Name_CH": "泗里街观音堂", "Name_ML": null, "Name_EN": "Kwang Ing Tong Association", "Location": "2 1\/2 Miles Jalan Repok, Sarikei, Sarawak.", "Longitude": 111.521087, "Latitude": 2.125829, "Region": "Sarawak", "Category": "宗教", "PageNumber": "373" }, "geometry": { "type": "Point", "coordinates": [ 111.5211, 2.1258, 111.5211 ] } },
{ "type": "Feature", "properties": { "Name_CH": "诗巫桃源宫八仙府公会", "Name_ML": "Persatuan Tao Yuan Gong Ba Xian Fu, Sibu", "Name_EN": "Sibu Tao Yuan Gong Ba Xian Fu Association", "Location": "22-B, Jalan Mubibah, 96000 Sibu, Sarawak.", "Longitude": 111.85227, "Latitude": 2.301377, "Region": "Sarawak", "Category": "宗教", "PageNumber": "373" }, "geometry": { "type": "Point", "coordinates": [ 111.8523, 2.3014, 111.8523 ] } },
{ "type": "Feature", "properties": { "Name_CH": "西天福德万福师母（观音堂）", "Name_ML": "Pertubuhan Penyokong Kuil Sithian Hock Teck Shu Moo,(Kuan Yin Tong) Bintulu", "Name_EN": null, "Location": "Chin Lee Garden, Bintulu, Sarawak.", "Longitude": 113.047186, "Latitude": 3.176376, "Region": "Sarawak", "Category": "宗教", "PageNumber": "373" }, "geometry": { "type": "Point", "coordinates": [ 113.0472, 3.1764, 113.0472 ] } },
{ "type": "Feature", "properties": { "Name_CH": "乌鲁蒂佛教居士林", "Name_ML": null, "Name_EN": "Marudi Buddist Society", "Location": "Lot 169A, Jalan Tuanku Taha, 98050 Marudi, Baram, Sarawak.", "Longitude": 114.321614, "Latitude": 4.180332, "Region": "Sarawak", "Category": "宗教", "PageNumber": "373" }, "geometry": { "type": "Point", "coordinates": [ 114.3216, 4.1803, 114.3216 ] } },
{ "type": "Feature", "properties": { "Name_CH": "泗里街佛教正信会", "Name_ML": "Persatuan Penganut Agama Buddha", "Name_EN": null, "Location": "Lot 324, Nyelong By Pass, Sarikei, Sarawak.", "Longitude": 113.989387, "Latitude": 4.399636, "Region": "Sarawak", "Category": "宗教", "PageNumber": "373" }, "geometry": { "type": "Point", "coordinates": [ 113.9894, 4.3996, 113.9894 ] } },
{ "type": "Feature", "properties": { "Name_CH": "盛明佛堂", "Name_ML": null, "Name_EN": null, "Location": "933-934 Jln Nangka 1, Pujut 1A, 98000 Miri, Saraswak.", "Longitude": 114.011372, "Latitude": 4.468467, "Region": "Sarawak", "Category": "宗教", "PageNumber": "373" }, "geometry": { "type": "Point", "coordinates": [ 114.0114, 4.4685, 114.0114 ] } },
{ "type": "Feature", "properties": { "Name_CH": "泗里街三元社", "Name_ML": null, "Name_EN": "San Nguong Sia Association Sarikei", "Location": null, "Longitude": null, "Latitude": null, "Region": "Sarawak", "Category": "宗教", "PageNumber": "373" }, "geometry": null }
]
}
