{
"type": "FeatureCollection",
"name": "Category_6",
"crs": { "type": "name", "properties": { "name": "urn:ogc:def:crs:OGC:1.3:CRS84" } },
"features": [
{ "type": "Feature", "properties": { "Name_CH": "安顺打金行", "Name_ML": "Persatuan Tukang Emas Tar Kim Hong", "Name_EN": "Tar Kim Hong Goldsmiths Guild", "Location": "51, Jalan Pasar, 36000 Teluk Intan, Perak.", "Region": "Perak", "Category": "业缘", "PageNumber": 153, "Country": "Malaysia", "latitude": 4.0273097, "longitude": 101.0151304 }, "geometry": { "type": "Point", "coordinates": [ 101.0151304, 4.0273097 ] } },
{ "type": "Feature", "properties": { "Name_CH": "安顺建造行", "Name_ML": "Persatuan Pembinaan Malaysia Kin Cho Hong", "Name_EN": null, "Location": "1, Jalan Pasir Bedamar, 36000 Teluk Intan, Perak.", "Region": "Perak", "Category": "业缘", "PageNumber": 153, "Country": "Malaysia", "latitude": 4.0269824, "longitude": 101.0175511 }, "geometry": { "type": "Point", "coordinates": [ 101.0175511, 4.0269824 ] } },
{ "type": "Feature", "properties": { "Name_CH": "安顺小贩各业公会", "Name_ML": null, "Name_EN": "Teluk Anson Hawker's Association", "Location": "63. Jalan Raja, 36000 Teluk Intan, Perak.", "Region": "Perak", "Category": "业缘", "PageNumber": 153, "Country": "Malaysia", "latitude": 4.0276693, "longitude": 101.0184121 }, "geometry": { "type": "Point", "coordinates": [ 101.0184121, 4.0276693 ] } },
{ "type": "Feature", "properties": { "Name_CH": "安顺建筑职工联合会", "Name_ML": null, "Name_EN": "Teluk Anson Building Labourers' Union", "Location": "12, Jalan Ah Cheong, 36000 Teluk lntan, Perak.", "Region": "Perak", "Category": "业缘", "PageNumber": 153, "Country": "Malaysia", "latitude": 4.0262421, "longitude": 101.0191788 }, "geometry": { "type": "Point", "coordinates": [ 101.0191788, 4.0262421 ] } },
{ "type": "Feature", "properties": { "Name_CH": "安顺树胶公会", "Name_ML": null, "Name_EN": "The Chinese Rubber Association Teluk Intan Lower Perak", "Location": "69 King Street Teluk Intan, Perak.", "Region": "Perak", "Category": "业缘", "PageNumber": 153, "Country": "Malaysia", "latitude": 4.022424, "longitude": 101.0206249 }, "geometry": { "type": "Point", "coordinates": [ 101.0206249, 4.022424 ] } },
{ "type": "Feature", "properties": { "Name_CH": "北霹雳金商公会", "Name_ML": null, "Name_EN": "North Perak Goldsmith Merchants Association", "Location": "62 Market Road. 34000 Taiping, Perak", "Region": "Perak", "Category": "业缘", "PageNumber": 154, "Country": "Malaysia", "latitude": 4.8387967, "longitude": 100.7436084 }, "geometry": { "type": "Point", "coordinates": [ 100.7436084, 4.8387967 ] } },
{ "type": "Feature", "properties": { "Name_CH": "北霹雳咖啡茶商公会", "Name_ML": "Persatuan Pekedai Kopi Perak Utara", "Name_EN": null, "Location": "8, Jalan Stephen, Taman Marisa 34000 Taiping, Perak", "Region": "Perak", "Category": "业缘", "PageNumber": 154, "Country": "Malaysia", "latitude": 4.847914, "longitude": 100.7300632 }, "geometry": { "type": "Point", "coordinates": [ 100.7300632, 4.847914 ] } },
{ "type": "Feature", "properties": { "Name_CH": "北霹雳中华工商总会", "Name_ML": null, "Name_EN": "North Perak Chinese Chamber of Commerce and Industry", "Location": "17, Jalan Pekeliling, 34000 Taiping, Perak", "Region": "Perak", "Category": "业缘", "PageNumber": 154, "Country": "Malaysia", "latitude": 4.8499344, "longitude": 100.751755 }, "geometry": { "type": "Point", "coordinates": [ 100.751755, 4.8499344 ] } },
{ "type": "Feature", "properties": { "Name_CH": "北霹雳太平中医中药公会", "Name_ML": "Persatuan Physician & Druggist China Perak (U) Taiping", "Name_EN": "North Perak Chinese Physicians And Druggists Association", "Location": "11 (Tkt)1, Jalan Wayang Gambar, 34000 Taiping, Perak", "Region": "Perak", "Category": "业缘", "PageNumber": 154, "Country": "Malaysia", "latitude": 4.8490848, "longitude": 100.7439875 }, "geometry": { "type": "Point", "coordinates": [ 100.7439875, 4.8490848 ] } },
{ "type": "Feature", "properties": { "Name_CH": "江沙小贩商业公会", "Name_ML": "Persatuan Penjaja-Penjaja Kuala Kangsar", "Name_EN": "Kuala Kangsar Hawker's Guild", "Location": "30 Jalan Kangsar, 33000 Kuala Kangsar, Perak.", "Region": "Perak", "Category": "业缘", "PageNumber": 154, "Country": "Malaysia", "latitude": 4.7709922, "longitude": 100.9416539 }, "geometry": { "type": "Point", "coordinates": [ 100.9416539, 4.7709922 ] } },
{ "type": "Feature", "properties": { "Name_CH": "江沙上中霹雳咖啡商业公会", "Name_ML": "Persatuan Peniagaan-Peniaga Kopi Perak Tengah Dan Hulu Perak", "Name_EN": "Central PK & Upper PK Coffee Dealers' Association", "Location": "33 (Tingkat 2) Jalan Raja Chulan, 33000 Kuala Kangsar, Perak.", "Region": "Perak", "Category": "业缘", "PageNumber": 154, "Country": "Malaysia", "latitude": 4.7784812, "longitude": 100.9417249 }, "geometry": { "type": "Point", "coordinates": [ 100.9417249, 4.7784812 ] } },
{ "type": "Feature", "properties": { "Name_CH": "江沙树胶公会", "Name_ML": "Persatuan Peniaga Getah Kuala Kangsar", "Name_EN": "Rubber Dealers Association Kuala Kangsar", "Location": "32, Jalan Daeng Selili, 33000 Kuala Kangsar, Perak.", "Region": "Perak", "Category": "业缘", "PageNumber": 154, "Country": "Malaysia", "latitude": 4.774505, "longitude": 100.9421662 }, "geometry": { "type": "Point", "coordinates": [ 100.9421662, 4.774505 ] } },
{ "type": "Feature", "properties": { "Name_CH": "江沙建造行", "Name_ML": "Persatuan Pembinaan Kuala Kangsar Kin Cho Hong Kuala Kangsar", "Name_EN": null, "Location": "7A, Taman Suria, Jalan Taiping 33000 Kuala Lumpur", "Region": "Perak", "Category": "业缘", "PageNumber": 154, "Country": "Malaysia", "latitude": 4.7723925, "longitude": 100.9233519 }, "geometry": { "type": "Point", "coordinates": [ 100.9233519, 4.7723925 ] } },
{ "type": "Feature", "properties": { "Name_CH": "近打菜业公会", "Name_ML": "Persatuan Peniaga Sayur-sayuran Kinta", "Name_EN": "Kinta Vegetable Dealers' Association", "Location": "6(B) Jalan Theatre 30300 Ipoh, Perak.", "Region": "Perak", "Category": "业缘", "PageNumber": 154, "Country": "Malaysia", "latitude": 4.5947954, "longitude": 101.0828673 }, "geometry": { "type": "Point", "coordinates": [ 101.0828673, 4.5947954 ] } },
{ "type": "Feature", "properties": { "Name_CH": "近打的士雇主司机公会", "Name_ML": "Persatuan Pemilik & Dreber Teksi Kinta", "Name_EN": "Kinta Taxi Owners & Drivers Association", "Location": "11-B (2nd Floor) Jalan Raja Musa Aziz 30300 Ipoh, Perak.", "Region": "Perak", "Category": "业缘", "PageNumber": 154, "Country": "Malaysia", "latitude": 4.5990167, "longitude": 101.0848167 }, "geometry": { "type": "Point", "coordinates": [ 101.0848167, 4.5990167 ] } },
{ "type": "Feature", "properties": { "Name_CH": "打扪抽子及本地水果种植公会", "Name_ML": "Persatuan Pekebun-pekebun Buah Limau Tambun Dan Buah-buahan Tempahan Tambun Perak", "Name_EN": null, "Location": "34, Jalan Besar, Tambun 31400. Perak", "Region": "Perak", "Category": "业缘", "PageNumber": 154, "Country": "Malaysia", "latitude": 4.6103066, "longitude": 101.1396965 }, "geometry": { "type": "Point", "coordinates": [ 101.1396965, 4.6103066 ] } },
{ "type": "Feature", "properties": { "Name_CH": "金马仑菜农公会", "Name_ML": "Pertubuhan Pekebun-Pekebun Sayur-Sayuran Cameron Highlands", "Name_EN": null, "Location": "MDCH-31, Tingkat 3, Bandar Baru Brinchang, 39100 Cameron Highlands, Perak.", "Region": "Perak", "Category": "业缘", "PageNumber": 154, "Country": "Malaysia", "latitude": 4.4918197, "longitude": 101.387737 }, "geometry": { "type": "Point", "coordinates": [ 101.387737, 4.4918197 ] } },
{ "type": "Feature", "properties": { "Name_CH": "马来西亚华人矿务总会", "Name_ML": "Persatuan Perlombongan Cina Sa-Tanah Melayu", "Name_EN": "All-Malaya Chinese Mining Association", "Location": "73, Jalan Tun Sambanthan 30000 Ipoh, Perak.", "Region": "Perak", "Category": "业缘", "PageNumber": 155, "Country": "Malaysia", "latitude": 4.5972459, "longitude": 101.078974 }, "geometry": { "type": "Point", "coordinates": [ 101.078974, 4.5972459 ] } },
{ "type": "Feature", "properties": { "Name_CH": "霹雳当商公会", "Name_ML": null, "Name_EN": "Perak Pawn Brokers Association", "Location": "19\/21 Jalan Horley, 30300 Ipoh, Perak.", "Region": "Perak", "Category": "业缘", "PageNumber": 155, "Country": "Malaysia", "latitude": 4.598267, "longitude": 101.082881 }, "geometry": { "type": "Point", "coordinates": [ 101.082881, 4.598267 ] } },
{ "type": "Feature", "properties": { "Name_CH": "霹雳电业商会", "Name_ML": "Persatuan Penjual-Penjual Alat-Alat Letrik Dan Radio Negeri Perak", "Name_EN": "Perak Electrical & Radio Dealers Association", "Location": "110-A Jalan C.M.Yusuff,30250 lpohz Perak.", "Region": "Perak", "Category": "业缘", "PageNumber": 155, "Country": "Malaysia", "latitude": 4.5880989, "longitude": 101.0839021 }, "geometry": { "type": "Point", "coordinates": [ 101.0839021, 4.5880989 ] } },
{ "type": "Feature", "properties": { "Name_CH": "霹雳海商公所", "Name_ML": "HAI SEONG KONG SOR PERAK", "Name_EN": null, "Location": "52A, Jalan Yau Tet Shin, 30300 Ipoh, Perak.", "Region": "Perak", "Category": "业缘", "PageNumber": 155, "Country": "Malaysia", "latitude": 4.5938152, "longitude": 101.0842351 }, "geometry": { "type": "Point", "coordinates": [ 101.0842351, 4.5938152 ] } },
{ "type": "Feature", "properties": { "Name_CH": "近打屠业公会", "Name_ML": "Persatuan Tho Yip Koong Wooi", "Name_EN": "Tho Yip Koong Wooi Kinta (Butchers' Guild)", "Location": "56, Yau Tet Shin Street, 30300 Ipoh, Perak.", "Region": "Perak", "Category": "业缘", "PageNumber": 155, "Country": "Malaysia", "latitude": 4.5937453, "longitude": 101.0843223 }, "geometry": { "type": "Point", "coordinates": [ 101.0843223, 4.5937453 ] } },
{ "type": "Feature", "properties": { "Name_CH": "近打鱼业公会", "Name_ML": "Persatuan Penjual-Penjual Ikan Kinta", "Name_EN": "Kinta Fish-Mongers' Asociation", "Location": "5 (1st Floor), Theatre Street, 30300 Ipoh, Perak.", "Region": "Perak", "Category": "业缘", "PageNumber": 155, "Country": "Malaysia", "latitude": 4.5943052, "longitude": 101.084982 }, "geometry": { "type": "Point", "coordinates": [ 101.084982, 4.5943052 ] } },
{ "type": "Feature", "properties": { "Name_CH": "霹雳车商公会", "Name_ML": "Peral Cycle And Motor Dealers Association", "Name_EN": null, "Location": "57-59 Jalan Raja Ekram, 30450 Ipoh, Perak.", "Region": "Perak", "Category": "业缘", "PageNumber": 155, "Country": "Malaysia", "latitude": 4.5973481, "longitude": 101.0859845 }, "geometry": { "type": "Point", "coordinates": [ 101.0859845, 4.5973481 ] } },
{ "type": "Feature", "properties": { "Name_CH": "近打小贩商业公会", "Name_ML": "The Kinta Hawker's Guild", "Name_EN": null, "Location": "93, (Tingkat 1) Jalan Pasar, 30000 Ipoh, Perak.", "Region": "Perak", "Category": "业缘", "PageNumber": 155, "Country": "Malaysia", "latitude": 4.5743233, "longitude": 101.1147352 }, "geometry": { "type": "Point", "coordinates": [ 101.1147352, 4.5743233 ] } },
{ "type": "Feature", "properties": { "Name_CH": "霹雳电器公会", "Name_ML": null, "Name_EN": "The Perak Electrical Association", "Location": "12A, Jalan Datuk Mahmud 31600 Ipoh, Perak.", "Region": "Perak", "Category": "业缘", "PageNumber": 155, "Country": "Malaysia", "latitude": 4.4264184, "longitude": 101.1277659 }, "geometry": { "type": "Point", "coordinates": [ 101.1277659, 4.4264184 ] } },
{ "type": "Feature", "properties": { "Name_CH": "冷甲区小贩商业公会", "Name_ML": "Persatuan Peniaga Peniaga Kecil.Kawasan Langkap Hilir Perak", "Name_EN": null, "Location": "Lot 5000, Jalan Chui Chak, 36700 Langkap, Perak.", "Region": "Perak", "Category": "业缘", "PageNumber": 155, "Country": "Malaysia", "latitude": 4.04758, "longitude": 101.1704731 }, "geometry": { "type": "Point", "coordinates": [ 101.1704731, 4.04758 ] } },
{ "type": "Feature", "properties": { "Name_CH": "美罗小商公会", "Name_ML": "Pertubuhan Peniaga-Peniaga Kecil Bidor", "Name_EN": null, "Location": "21, Jalan Persatuan, 35500 Bidor, Perak.", "Region": "Perak", "Category": "业缘", "PageNumber": 155, "Country": "Malaysia", "latitude": 4.1138926, "longitude": 101.2877656 }, "geometry": { "type": "Point", "coordinates": [ 101.2877656, 4.1138926 ] } },
{ "type": "Feature", "properties": { "Name_CH": "理发行", "Name_ML": "Lee Fatt Hong", "Name_EN": null, "Location": "\t", "Region": "Perak", "Category": "业缘", "PageNumber": 155, "Country": "Malaysia", "latitude": 0.0, "longitude": 0.0 }, "geometry": { "type": "Point", "coordinates": [ 0.0, 0.0 ] } },
{ "type": "Feature", "properties": { "Name_CH": "霹雳吉辇米较公会", "Name_ML": null, "Name_EN": "Rice Millers Association Krian Perak", "Location": "9, Jalan Taiping 34200 Parit Buntar, Perak", "Region": "Perak", "Category": "业缘", "PageNumber": 156, "Country": "Malaysia", "latitude": 5.1260736, "longitude": 100.4891039 }, "geometry": { "type": "Point", "coordinates": [ 100.4891039, 5.1260736 ] } },
{ "type": "Feature", "properties": { "Name_CH": "霹雳建造行", "Name_ML": "Persatuan Pembina Perak", "Name_EN": "Perak Builders Guild", "Location": "24A Jalan Temenggong, 31650 Ipoh, Perak.", "Region": "Perak", "Category": "业缘", "PageNumber": 156, "Country": "Malaysia", "latitude": 4.5813362, "longitude": 101.0788447 }, "geometry": { "type": "Point", "coordinates": [ 101.0788447, 4.5813362 ] } },
{ "type": "Feature", "properties": { "Name_CH": "霹雳华人矿务公会", "Name_ML": "Persatuan Perlombongan Cina Perak", "Name_EN": "Perak Chinese Minang Association", "Location": "73, Jalan Tun Sambanthan, 30000 Ipoh, Perak.", "Region": "Perak", "Category": "业缘", "PageNumber": 156, "Country": "Malaysia", "latitude": 4.5972459, "longitude": 101.078974 }, "geometry": { "type": "Point", "coordinates": [ 101.078974, 4.5972459 ] } },
{ "type": "Feature", "properties": { "Name_CH": "霹雳咖啡茶商公会", "Name_ML": null, "Name_EN": "Perak Coffee Shopkeepers' Association", "Location": "2 & 4, Jalan Masjid,30000 Ipoh, Perak", "Region": "Perak", "Category": "业缘", "PageNumber": 156, "Country": "Malaysia", "latitude": 4.5937389, "longitude": 101.0808245 }, "geometry": { "type": "Point", "coordinates": [ 101.0808245, 4.5937389 ] } },
{ "type": "Feature", "properties": { "Name_CH": "霹雳鸡鸭商公会", "Name_ML": "Persatuan Peniaga Ayam - Itik Perak", "Name_EN": "Perak Poultry Dealers' Association", "Location": "1-3, Jalan Theatre 30300 Ipoh, Perak.", "Region": "Perak", "Category": "业缘", "PageNumber": 156, "Country": "Malaysia", "latitude": 4.595017, "longitude": 101.082853 }, "geometry": { "type": "Point", "coordinates": [ 101.082853, 4.595017 ] } },
{ "type": "Feature", "properties": { "Name_CH": "霹雳建筑商公会", "Name_ML": "Persatuan Kontraktor-Kontraktor Pembinaan Perak", "Name_EN": "Perak Contractor's Association", "Location": "72, Tingkat 1, Jalan Theatre, 30300 Ipoh, Perak", "Region": "Perak", "Category": "业缘", "PageNumber": 156, "Country": "Malaysia", "latitude": 4.595017, "longitude": 101.082853 }, "geometry": { "type": "Point", "coordinates": [ 101.082853, 4.595017 ] } },
{ "type": "Feature", "properties": { "Name_CH": "霹雳华人厨业公会", "Name_ML": null, "Name_EN": "Perak Chinese Cooks* Association", "Location": "12 Jalan Hume, 30300 Ipoh, Perak", "Region": "Perak", "Category": "业缘", "PageNumber": 156, "Country": "Malaysia", "latitude": 4.5985702, "longitude": 101.0827646 }, "geometry": { "type": "Point", "coordinates": [ 101.0827646, 4.5985702 ] } },
{ "type": "Feature", "properties": { "Name_CH": "霹雳酒商公会", "Name_ML": null, "Name_EN": "The Perak Liquor Merchants Association", "Location": "7-9 Leong Sin Nam Street, 30000 Ipoh, Perak.", "Region": "Perak", "Category": "业缘", "PageNumber": 156, "Country": "Malaysia", "latitude": 4.597264, "longitude": 101.084509 }, "geometry": { "type": "Point", "coordinates": [ 101.084509, 4.597264 ] } },
{ "type": "Feature", "properties": { "Name_CH": "霹雳建筑职工会", "Name_ML": "Persatuan Sekerja Pekerja Binaan Perak", "Name_EN": "Perak Building Workers Union", "Location": "81 Theatre Street, 30300 Ipoh, Perak.", "Region": "Perak", "Category": "业缘", "PageNumber": 156, "Country": "Malaysia", "latitude": 4.594082, "longitude": 101.086145 }, "geometry": { "type": "Point", "coordinates": [ 101.086145, 4.594082 ] } },
{ "type": "Feature", "properties": { "Name_CH": "霹雳华人机器公会", "Name_ML": "Persatuan Kejuruteraan China Perak", "Name_EN": "Perak Chinese Engineering Association", "Location": "4, Jalan Raja Ekram (Cowan Street) 30450 Ipoh, Perak.", "Region": "Perak", "Category": "业缘", "PageNumber": 156, "Country": "Malaysia", "latitude": 4.5975997, "longitude": 101.085825 }, "geometry": { "type": "Point", "coordinates": [ 101.085825, 4.5975997 ] } },
{ "type": "Feature", "properties": { "Name_CH": "霹雳金商公会", "Name_ML": "Persatuan Peniaga Barangan Emas Perak", "Name_EN": "Perak Goldsmith Merchants Association", "Location": "157, 2nd Floor Jalan Musa Aziz, 30300 Ipoh, Perak.", "Region": "Perak", "Category": "业缘", "PageNumber": 156, "Country": "Malaysia", "latitude": 4.6006697, "longitude": 101.0859542 }, "geometry": { "type": "Point", "coordinates": [ 101.0859542, 4.6006697 ] } },
{ "type": "Feature", "properties": { "Name_CH": "霹雳华人五金公会", "Name_ML": "Persatuan Peniaga Barang-Barang Logam Cina Perak", "Name_EN": "Perak Chinese Hardware Dealers' Association", "Location": "23, Jalan Chung Thye Phin, 30250 Ipoh, Perak", "Region": "Perak", "Category": "业缘", "PageNumber": 156, "Country": "Malaysia", "latitude": 4.5908397, "longitude": 101.0868925 }, "geometry": { "type": "Point", "coordinates": [ 101.0868925, 4.5908397 ] } },
{ "type": "Feature", "properties": { "Name_CH": "霹雳拉律峇登贩商联合会", "Name_ML": "Persatuan Peniaga-Peniaga Larut Making, Perak.", "Name_EN": null, "Location": "10, Perseiaran 3th Floor, 34000 Taiping.", "Region": "Perak", "Category": "业缘", "PageNumber": 157, "Country": "Malaysia", "latitude": 4.8490281, "longitude": 100.7420058 }, "geometry": { "type": "Point", "coordinates": [ 100.7420058, 4.8490281 ] } },
{ "type": "Feature", "properties": { "Name_CH": "霹雳推销员公会", "Name_ML": null, "Name_EN": "The Perak Salesmens Association Ipoh", "Location": "695 A 1st Floor, Jalan Pasir Puteh, 31650 Ipoh, Perak", "Region": "Perak", "Category": "业缘", "PageNumber": 157, "Country": "Malaysia", "latitude": 4.5526347, "longitude": 101.0757885 }, "geometry": { "type": "Point", "coordinates": [ 101.0757885, 4.5526347 ] } },
{ "type": "Feature", "properties": { "Name_CH": "霹雳食品玩具商公会", "Name_ML": "Persatuan Peniaga-Peniaga Makanan & Mainan Perak", "Name_EN": "Perak Foodstuffs And Toys Merchants Association", "Location": "35-C Jalan Bandar Timah, 30000 Ipoh, Perak", "Region": "Perak", "Category": "业缘", "PageNumber": 157, "Country": "Malaysia", "latitude": 4.5938143, "longitude": 101.0771243 }, "geometry": { "type": "Point", "coordinates": [ 101.0771243, 4.5938143 ] } },
{ "type": "Feature", "properties": { "Name_CH": "霹雳罗厘同业公会", "Name_ML": null, "Name_EN": "Perak Lorry Owners Association", "Location": "162-A, Jalan Bendahara, 31650 Ipoh, Perak", "Region": "Perak", "Category": "业缘", "PageNumber": 157, "Country": "Malaysia", "latitude": 4.5826169, "longitude": 101.0780037 }, "geometry": { "type": "Point", "coordinates": [ 101.0780037, 4.5826169 ] } },
{ "type": "Feature", "properties": { "Name_CH": "霹雳鞋业公会", "Name_ML": "Persatuan Industri Kasut Perak", "Name_EN": "The Perak Footwear Industry Association", "Location": "635, Jalan Pasir Puteh, 31650 Ipoh, Perak.", "Region": "Perak", "Category": "业缘", "PageNumber": 157, "Country": "Malaysia", "latitude": 4.5695692, "longitude": 101.0800061 }, "geometry": { "type": "Point", "coordinates": [ 101.0800061, 4.5695692 ] } },
{ "type": "Feature", "properties": { "Name_CH": "霹雳锡商公会", "Name_ML": null, "Name_EN": "Perak Tinsmith Association", "Location": "58A, Jalan Temenggong, 31650 Ipoh, Perak", "Region": "Perak", "Category": "业缘", "PageNumber": 157, "Country": "Malaysia", "latitude": 4.5818228, "longitude": 101.0806907 }, "geometry": { "type": "Point", "coordinates": [ 101.0806907, 4.5818228 ] } },
{ "type": "Feature", "properties": { "Name_CH": "霹雳派报公会", "Name_ML": "Persatuan Pengedar Surat Khabar Perak", "Name_EN": "Perak Newspaper Distributors Association", "Location": "89A(lst Floor) Clare Street (Jalan Mustapha Al-Bakri) 30300 Ipoh, Perak.", "Region": "Perak", "Category": "业缘", "PageNumber": 157, "Country": "Malaysia", "latitude": 4.5951013, "longitude": 101.0843973 }, "geometry": { "type": "Point", "coordinates": [ 101.0843973, 4.5951013 ] } },
{ "type": "Feature", "properties": { "Name_CH": "霹雳唐洋货绸布商公会", "Name_ML": "Persatuan Peniaga Kain dan Barangan Biasa Cina Perak", "Name_EN": "Perak Chinese Piece Goods & General Merchants Association", "Location": "62A, Jalan Theatre, 30300 Ipoh, Perak.", "Region": "Perak", "Category": "业缘", "PageNumber": 157, "Country": "Malaysia", "latitude": 4.594322, "longitude": 101.084674 }, "geometry": { "type": "Point", "coordinates": [ 101.084674, 4.594322 ] } },
{ "type": "Feature", "properties": { "Name_CH": "霹雳印务商公会", "Name_ML": "Pertubuhan Pencetakan Perak", "Name_EN": "The Perak Printing Press Association", "Location": "29A Persiaran Tokong, 31650 Ipoh, Perak.", "Region": "Perak", "Category": "业缘", "PageNumber": 157, "Country": "Malaysia", "latitude": 4.582782, "longitude": 101.0861602 }, "geometry": { "type": "Point", "coordinates": [ 101.0861602, 4.582782 ] } },
{ "type": "Feature", "properties": { "Name_CH": "霹雳树胶商总会", "Name_ML": null, "Name_EN": "Rubber Trade Association of Perak", "Location": "1-3, Jalan Chua Cheng Bok (Tingkat 2), 30250 Ipoh, Perak.", "Region": "Perak", "Category": "业缘", "PageNumber": 157, "Country": "Malaysia", "latitude": 4.5908118, "longitude": 101.0862898 }, "geometry": { "type": "Point", "coordinates": [ 101.0862898, 4.5908118 ] } },
{ "type": "Feature", "properties": { "Name_CH": "霹雳摄影公会", "Name_ML": null, "Name_EN": "Perak Photographic Association", "Location": "97 Jalan Theatre, 30300 Ipoh, Perak.", "Region": "Perak", "Category": "业缘", "PageNumber": 157, "Country": "Malaysia", "latitude": 4.5940245, "longitude": 101.0865689 }, "geometry": { "type": "Point", "coordinates": [ 101.0865689, 4.5940245 ] } },
{ "type": "Feature", "properties": { "Name_CH": "霹雳神料商公会", "Name_ML": "Persatuan Peniaga-Peniaga Baarang-Barang Sembahyang Perak", "Name_EN": "Perak Incense Dealers' Association", "Location": "33A, Persiaran Perak, Fair Partk, 31400 Ipoh, Perak.", "Region": "Perak", "Category": "业缘", "PageNumber": 157, "Country": "Malaysia", "latitude": 4.6073267, "longitude": 101.0953868 }, "geometry": { "type": "Point", "coordinates": [ 101.0953868, 4.6073267 ] } },
{ "type": "Feature", "properties": { "Name_CH": "天定咖啡酒餐商公会", "Name_ML": "Dindings Coffee Shop And Restaurant Dindings", "Name_EN": "Dindings Coffee Shop And Restaurant Keepers Association", "Location": "1, (1st Floor) Taman Lekir Baru, Jalan Raja Omar, 32000 Sitiawam, Manjung, Perak.", "Region": "Perak", "Category": "业缘", "PageNumber": 158, "Country": "Malaysia", "latitude": 4.21169, "longitude": 100.697051 }, "geometry": { "type": "Point", "coordinates": [ 100.697051, 4.21169 ] } },
{ "type": "Feature", "properties": { "Name_CH": "天定树胶公会", "Name_ML": null, "Name_EN": "The Diddings Rubber Association", "Location": "5 Jalan Lumut 32000 Sitiawan, Perak", "Region": "Perak", "Category": "业缘", "PageNumber": 158, "Country": "Malaysia", "latitude": 4.2166866, "longitude": 100.6951762 }, "geometry": { "type": "Point", "coordinates": [ 100.6951762, 4.2166866 ] } },
{ "type": "Feature", "properties": { "Name_CH": "太平华人树胶公会", "Name_ML": "Persatuan Peniaga-Peniaga Getah Cina, Taiping", "Name_EN": "The Chinese Rubber Dealers Association", "Location": "87-91, Jalan Panggong Wayang 34000 Taiping, Perak,", "Region": "Perak", "Category": "业缘", "PageNumber": 158, "Country": "Malaysia", "latitude": 4.8488307, "longitude": 100.7398287 }, "geometry": { "type": "Point", "coordinates": [ 100.7398287, 4.8488307 ] } },
{ "type": "Feature", "properties": { "Name_CH": "太平华人机器公会", "Name_ML": null, "Name_EN": "Taiping Chinese Engineering Association", "Location": "250, Jalan Tembikai, Kampung Jambu, 34000 Taiping, Perak.", "Region": "Perak", "Category": "业缘", "PageNumber": 158, "Country": "Malaysia", "latitude": 4.8468747, "longitude": 100.7405539 }, "geometry": { "type": "Point", "coordinates": [ 100.7405539, 4.8468747 ] } },
{ "type": "Feature", "properties": { "Name_CH": "太平小贩商业公会", "Name_ML": "Persatuan Penjaja-Penjaja & Peniaga-Peniaga Taiping", "Name_EN": "The Taiping Hawkers Association", "Location": "247, Jalan Tembikai Kampung Jambu, 34000 Taiping, Perak.", "Region": "Perak", "Category": "业缘", "PageNumber": 158, "Country": "Malaysia", "latitude": 4.8472742, "longitude": 100.7411914 }, "geometry": { "type": "Point", "coordinates": [ 100.7411914, 4.8472742 ] } },
{ "type": "Feature", "properties": { "Name_CH": "下霹雳车商公会", "Name_ML": null, "Name_EN": "Lower Perak Cycle & Motor Dealer' s Association", "Location": "46 & 48, Jalan Ah Cheong, Teluk Intan, Perak.", "Region": "Perak", "Category": "业缘", "PageNumber": 158, "Country": "Malaysia", "latitude": 4.0262306, "longitude": 101.0191983 }, "geometry": { "type": "Point", "coordinates": [ 101.0191983, 4.0262306 ] } },
{ "type": "Feature", "properties": { "Name_CH": "下霹雳金商公会", "Name_ML": null, "Name_EN": "Lower Perak Goldsmith Merchants Association", "Location": "116, Tingkat 2, Jalan Pasar, 36000 Teluk Intan, Perak", "Region": "Perak", "Category": "业缘", "PageNumber": 158, "Country": "Malaysia", "latitude": 4.0242889, "longitude": 101.020459 }, "geometry": { "type": "Point", "coordinates": [ 101.020459, 4.0242889 ] } },
{ "type": "Feature", "properties": { "Name_CH": "霹雳中华工商总会", "Name_ML": "Dewan Perniagaan Dan Perindustrian Cina Perak", "Name_EN": "Perak Chinese Chamber of Commerce And Industry", "Location": "35-37, 3rd Floor, Jalan Tun Sambanthan, 30000 Ipoh, Perak P.O. Box 220, 30720 Ipoh, Perak", "Region": "Perak", "Category": "业缘", "PageNumber": 158, "Country": "Malaysia", "latitude": 4.5976897, "longitude": 101.0773142 }, "geometry": { "type": "Point", "coordinates": [ 101.0773142, 4.5976897 ] } },
{ "type": "Feature", "properties": { "Name_CH": "霹雳制衣厂商公会", "Name_ML": null, "Name_EN": "Perak Garment Manufacturers' Association", "Location": "225 (2nd Floor) Jalan Pasir Puteh, 31650 Ipoh, Perak", "Region": "Perak", "Category": "业缘", "PageNumber": 158, "Country": "Malaysia", "latitude": 4.5613306, "longitude": 101.0764046 }, "geometry": { "type": "Point", "coordinates": [ 101.0764046, 4.5613306 ] } },
{ "type": "Feature", "properties": { "Name_CH": "霹雳杂货行", "Name_ML": "Persatuan Kedai Barang-Barang Runcit Perak", "Name_EN": "Perak Sundry Shops' Guild", "Location": "40, (1st Floor), Jalan Yang Kalsom, 30250 Ipoh, Perak.", "Region": "Perak", "Category": "业缘", "PageNumber": 158, "Country": "Malaysia", "latitude": 4.5913973, "longitude": 101.0843916 }, "geometry": { "type": "Point", "coordinates": [ 101.0843916, 4.5913973 ] } },
{ "type": "Feature", "properties": { "Name_CH": "霹雳中医中药联合会", "Name_ML": "Persatuan Sengse Dan Perniagaan Ubat China Perak", "Name_EN": "Perak Chinese Physicians & Druggists Association", "Location": "17-19 (1st Floor) Jalan Ali Pitchay 30250 Ipoh, Perak.", "Region": "Perak", "Category": "业缘", "PageNumber": 158, "Country": "Malaysia", "latitude": 4.5911909, "longitude": 101.085285 }, "geometry": { "type": "Point", "coordinates": [ 101.085285, 4.5911909 ] } },
{ "type": "Feature", "properties": { "Name_CH": "霹雳针灸学会", "Name_ML": "Persatuan Rawatan Chuchok Dan Selar Negeri Perak", "Name_EN": "Perak Acupuncture & cautery Association", "Location": "46, Jalan Che Wan, 30250 Ipoh, Perak.", "Region": "Perak", "Category": "业缘", "PageNumber": 158, "Country": "Malaysia", "latitude": 4.5907857, "longitude": 101.0858267 }, "geometry": { "type": "Point", "coordinates": [ 101.0858267, 4.5907857 ] } },
{ "type": "Feature", "properties": { "Name_CH": "下霹雳森林公会", "Name_ML": null, "Name_EN": "Lower Perak Timber Trade Association", "Location": "29, Jalan Sithambaran Pillay, 36000 Teluk Intan, Perak.", "Region": "Perak", "Category": "业缘", "PageNumber": 159, "Country": "Malaysia", "latitude": 4.0290958, "longitude": 101.016288 }, "geometry": { "type": "Point", "coordinates": [ 101.016288, 4.0290958 ] } },
{ "type": "Feature", "properties": { "Name_CH": "下霹雳中华工商总会", "Name_ML": "Dewan Perniagaan Dan Perindustrian China, Hilir Perak", "Name_EN": "Hilir Perak Chinese Chamber Of Commerce And Industry", "Location": "77-78, PT 16187-16188, Jalan Industri 1, Taman Perindustrian Anson, 36000 Teluk Intan, Perak", "Region": "Perak", "Category": "业缘", "PageNumber": 159, "Country": "Malaysia", "latitude": 4.0719952, "longitude": 101.1601844 }, "geometry": { "type": "Point", "coordinates": [ 101.1601844, 4.0719952 ] } },
{ "type": "Feature", "properties": { "Name_CH": "下霹雳咖毗奈商公会", "Name_ML": null, "Name_EN": "The Coffee Shop Keepers Association", "Location": "122, Jingkat 2, Jalan Pasar, 36000 Teluk Intan, Perak", "Region": "Perak", "Category": "业缘", "PageNumber": 159, "Country": "Malaysia", "latitude": 4.0242889, "longitude": 101.020459 }, "geometry": { "type": "Point", "coordinates": [ 101.020459, 4.0242889 ] } },
{ "type": "Feature", "properties": { "Name_CH": "怡保鱼商公会", "Name_ML": "Peratuan Pemborong Ikan Ipoh, Perak", "Name_EN": "Ipoh Fish Wholesale Merchants Association", "Location": "18-20A, Hala Datoh Satu, Jalan Datoh 30000 Ipoh, Perak.", "Region": "Perak", "Category": "业缘", "PageNumber": 159, "Country": "Malaysia", "latitude": 4.5885942, "longitude": 101.080138 }, "geometry": { "type": "Point", "coordinates": [ 101.080138, 4.5885942 ] } },
{ "type": "Feature", "properties": { "Name_CH": "怡保的士协会", "Name_ML": "Persatuan Operator-Operator Teksi Bandaraya Ipoh", "Name_EN": null, "Location": "176B, Jalan Pasir Puteh, 31650 Ipoh Perak.", "Region": "Perak", "Category": "业缘", "PageNumber": 159, "Country": "Malaysia", "latitude": 4.5866494, "longitude": 101.0823937 }, "geometry": { "type": "Point", "coordinates": [ 101.0823937, 4.5866494 ] } },
{ "type": "Feature", "properties": { "Name_CH": "霹雳中医师公会", "Name_ML": "Persatuan Sinseh Perak", "Name_EN": "Perak Chinese Physicians' Association", "Location": "46, Jalan Che Wan 30250 Ipoh, Perak", "Region": "Perak", "Category": "业缘", "PageNumber": 159, "Country": "Malaysia", "latitude": 4.5907857, "longitude": 101.0858267 }, "geometry": { "type": "Point", "coordinates": [ 101.0858267, 4.5907857 ] } }
]
}
