{
"type": "FeatureCollection",
"name": "Category_3",
"crs": { "type": "name", "properties": { "name": "urn:ogc:def:crs:OGC:1.3:CRS84" } },
"features": [
{ "type": "Feature", "properties": { "Name_CH": "吧哂高谷华人义山", "Name_ML": "Perkuburan Cina Pasir Gogok Penggrang", "Name_EN": null, "Location": "Pasir Gogok Pingerang Johor.", "Longitude": 104.112401, "Latitude": 1.445712, "Region": "Johor", "Category": "慈善福利", "PageNumber": "315" }, "geometry": { "type": "Point", "coordinates": [ 104.1124, 1.4457, 104.1124 ] } },
{ "type": "Feature", "properties": { "Name_CH": "笨珍广东义山亭", "Name_ML": "Persatuan Perkuburan Canton Pontian Johor", "Name_EN": null, "Location": "269 Jalan Alsagoff, Pontian, Johor.", "Longitude": 103.3871721, "Latitude": 1.4922954, "Region": "Johor", "Category": "慈善福利", "PageNumber": "315" }, "geometry": { "type": "Point", "coordinates": [ 103.3872, 1.4923, 103.3872 ] } },
{ "type": "Feature", "properties": { "Name_CH": "彼咯中华义山", "Name_ML": null, "Name_EN": "Bekok Tionghua Cemetery", "Location": "67, Jalan Gunong, 86500 Bekok, Johor.", "Longitude": 103.862762, "Latitude": 1.511724, "Region": "Johor", "Category": "慈善福利", "PageNumber": "315" }, "geometry": { "type": "Point", "coordinates": [ 103.8628, 1.5117, 103.8628 ] } },
{ "type": "Feature", "properties": { "Name_CH": "巴力亚尼华人义山", "Name_ML": "Kubur Cina, Parit Yaani", "Name_EN": null, "Location": "70-B.Parit Yaani, 83710 Yong Peng, Johor.", "Longitude": 103.0249932, "Latitude": 1.9494042, "Region": "Johor", "Category": "慈善福利", "PageNumber": "315" }, "geometry": { "type": "Point", "coordinates": [ 103.025, 1.9494, 103.025 ] } },
{ "type": "Feature", "properties": { "Name_CH": "报德善堂麻坡分堂", "Name_ML": null, "Name_EN": "Poh Teck Sian T' ng Muar Chapter", "Location": "41-6, Jalan Bakri,84000 Muar, Johor.", "Longitude": 102.583751, "Latitude": 2.0485913, "Region": "Johor", "Category": "慈善福利", "PageNumber": "315" }, "geometry": { "type": "Point", "coordinates": [ 102.5838, 2.0486, 102.5838 ] } },
{ "type": "Feature", "properties": { "Name_CH": "巴罗中华义山", "Name_ML": "Jawatankuasa Pengurusan Perkuburan Cina Paloh Kluang", "Name_EN": null, "Location": "19, Jalan Abu Bakar, Palut 86600 Paloh, Johor.", "Longitude": 103.1943249, "Latitude": 2.1882299, "Region": "Johor", "Category": "慈善福利", "PageNumber": "315" }, "geometry": { "type": "Point", "coordinates": [ 103.1943, 2.1882, 103.1943 ] } },
{ "type": "Feature", "properties": { "Name_CH": "春秋慈善社", "Name_ML": "Pertubuhan Penganut Choon Chew Chee Sian Siah Kampung Abdullah Segamat", "Name_EN": null, "Location": "No.83, Jalan Mohd Noar, Kg. Abdullah, 85000 Segamat Johor.", "Longitude": 102.825288, "Latitude": 2.5020694, "Region": "Johor", "Category": "慈善福利", "PageNumber": "315" }, "geometry": { "type": "Point", "coordinates": [ 102.8253, 2.5021, 102.8253 ] } },
{ "type": "Feature", "properties": { "Name_CH": "彼咯福利社", "Name_ML": "Persatuan Kebajikan Fock Lee Shir Belok Segamat Johor", "Name_EN": null, "Location": "D 85, Jalan Ismail, Belok, 86500 Segamat Johor.", "Longitude": 102.8079221, "Latitude": 2.533215, "Region": "Johor", "Category": "慈善福利", "PageNumber": "315" }, "geometry": { "type": "Point", "coordinates": [ 102.8079, 2.5332, 102.8079 ] } },
{ "type": "Feature", "properties": { "Name_CH": "大湾永安义山", "Name_ML": "Sungai Kapal Pengerang Yong Ann Cemetery Kota Tinggi", "Name_EN": null, "Location": "Lot 1723, Sungai Kapal ,81610 Pengerang, Johor.", "Longitude": 104.1815261, "Latitude": 1.352142, "Region": "Johor", "Category": "慈善福利", "PageNumber": "316" }, "geometry": { "type": "Point", "coordinates": [ 104.1815, 1.3521, 104.1815 ] } },
{ "type": "Feature", "properties": { "Name_CH": "哥打丁宜华人义山", "Name_ML": "Kota Tinggi Chinese Cemetery", "Name_EN": null, "Location": "No.2, 2nd Floor, Jalan Ah Siang, 81900 Kota Tinggi, Johor.", "Longitude": 103.7698008, "Latitude": 1.4635843, "Region": "Johor", "Category": "慈善福利", "PageNumber": "316" }, "geometry": { "type": "Point", "coordinates": [ 103.7698, 1.4636, 103.7698 ] } },
{ "type": "Feature", "properties": { "Name_CH": "北干那那德化义山", "Name_ML": "Bukit Kubur Teck Hua Pekan Nenas", "Name_EN": null, "Location": "No.119,1st Floor, Jalan Utama 4, Taman Utama, 81500 Pekan Nenas.", "Longitude": 103.5186228, "Latitude": 1.5051446, "Region": "Johor", "Category": "慈善福利", "PageNumber": "316" }, "geometry": { "type": "Point", "coordinates": [ 103.5186, 1.5051, 103.5186 ] } },
{ "type": "Feature", "properties": { "Name_CH": "福山亭理事会", "Name_ML": "Persatuan Perkuburan Cina Hock San Pontian Johor", "Name_EN": null, "Location": "82 Kampung Jawa, Pulai Sebatang, 82100 Pontian, Johor.", "Longitude": 103.3527049, "Latitude": 1.566495, "Region": "Johor", "Category": "慈善福利", "PageNumber": "316" }, "geometry": { "type": "Point", "coordinates": [ 103.3527, 1.5665, 103.3527 ] } },
{ "type": "Feature", "properties": { "Name_CH": "地南华人义山委员会", "Name_ML": null, "Name_EN": "The Management Committee Of The Chinese Cemetery Ulu Tiram", "Location": "No.6, Jalan Baiduri 1 Taman Intan, 81800 Ulu Tiram, Johor.", "Longitude": 103.8213706, "Latitude": 1.6035514, "Region": "Johor", "Category": "慈善福利", "PageNumber": "316" }, "geometry": { "type": "Point", "coordinates": [ 103.8214, 1.6036, 103.8214 ] } },
{ "type": "Feature", "properties": { "Name_CH": "古来华人义山管理委员会", "Name_ML": "Pertubuhan Jawatankuasa Pengurusan Perkuburan Orang Orang Cina Kulai", "Name_EN": null, "Location": "1A Jalan Makmur 1, Taman Makmur, 81000 Kulai, Johor.", "Longitude": 103.609432, "Latitude": 1.661311, "Region": "Johor", "Category": "慈善福利", "PageNumber": "316" }, "geometry": { "type": "Point", "coordinates": [ 103.6094, 1.6613, 103.6094 ] } },
{ "type": "Feature", "properties": { "Name_CH": "居銮安溪义山", "Name_ML": null, "Name_EN": "Johor Anxi Association Cemetery Kluang", "Location": "16,17 & 18 (1st Floor) Jalan Tengku Mahkota Ismail 86000 Kluang, Johor.", "Longitude": 103.3184639, "Latitude": 2.030068, "Region": "Johor", "Category": "慈善福利", "PageNumber": "316" }, "geometry": { "type": "Point", "coordinates": [ 103.3185, 2.0301, 103.3185 ] } },
{ "type": "Feature", "properties": { "Name_CH": "加亨中华义山", "Name_ML": "Kahang Tionghua Cemetery Kluang", "Name_EN": null, "Location": "P-122, Kahang N\/Y, 86700 Kahang, Kluang, Johor.", "Longitude": 103.58182, "Latitude": 2.2445004, "Region": "Johor", "Category": "慈善福利", "PageNumber": "316" }, "geometry": { "type": "Point", "coordinates": [ 103.5818, 2.2445, 103.5818 ] } },
{ "type": "Feature", "properties": { "Name_CH": "东甲华人义山管理委员会", "Name_ML": "Jawatankuasa Perkuburan Cina Tangkak", "Name_EN": null, "Location": "40, Tingkat L Jalan Sialang, 84900 Tangkak, Johor.", "Longitude": 102.5336228, "Latitude": 2.2690973, "Region": "Johor", "Category": "慈善福利", "PageNumber": "316" }, "geometry": { "type": "Point", "coordinates": [ 102.5336, 2.2691, 102.5336 ] } },
{ "type": "Feature", "properties": { "Name_CH": "丁能华人义山理事会", "Name_ML": "Pertubuhan Perkuburan Tionghua Tenang Segamat Johor", "Name_EN": null, "Location": "No.52, Tenang Station, 85030 Segamat, Johor.", "Longitude": 103.0227214, "Latitude": 2.3892076, "Region": "Johor", "Category": "慈善福利", "PageNumber": "316" }, "geometry": { "type": "Point", "coordinates": [ 103.0227, 2.3892, 103.0227 ] } },
{ "type": "Feature", "properties": { "Name_CH": "丰盛港扶轮社基金会", "Name_ML": "Yayasan Kelab Rotary Mersing", "Name_EN": "The Rotary Club of Mersing Foundation", "Location": "90, Jalan Merdeka, Mersing Kecil 86800 Mersing, Johor.", "Longitude": 103.8376863, "Latitude": 2.4229951, "Region": "Johor", "Category": "慈善福利", "PageNumber": "316" }, "geometry": { "type": "Point", "coordinates": [ 103.8377, 2.423, 103.8377 ] } },
{ "type": "Feature", "properties": { "Name_CH": "金马士答鲁华人义山理事会", "Name_ML": "Persatuan Pengurusan Perkuburan Cina Gemas Baru Segamat Johor", "Name_EN": null, "Location": "40 Jalan Heng Wong, Gemas Baru, 73400 Segamat Johor.", "Longitude": 102.6254672, "Latitude": 2.5853515, "Region": "Johor", "Category": "慈善福利", "PageNumber": "316" }, "geometry": { "type": "Point", "coordinates": [ 102.6255, 2.5854, 102.6255 ] } },
{ "type": "Feature", "properties": { "Name_CH": "峇株巴辖福寿山", "Name_ML": null, "Name_EN": "Hock Siew San Cemetery-Batu Pahat", "Location": "35B, Jalan Rahmat 83000 Batu Pahat Johor.", "Longitude": 102.9327865, "Latitude": 1.848281, "Region": "Johor", "Category": "慈善福利", "PageNumber": "317" }, "geometry": { "type": "Point", "coordinates": [ 102.9328, 1.8483, 102.9328 ] } },
{ "type": "Feature", "properties": { "Name_CH": "峇株巴辖广西同乡会义山", "Name_ML": "Perkuburan Persatuan Kwangsi Tung Hsing Hui Batu Pahat", "Name_EN": null, "Location": "16-1 A, Jalan Mohd. Salleh, 83000 Batu Pahat, Johor", "Longitude": 102.9294551, "Latitude": 1.8483099, "Region": "Johor", "Category": "慈善福利", "PageNumber": "317" }, "geometry": { "type": "Point", "coordinates": [ 102.9295, 1.8483, 102.9295 ] } },
{ "type": "Feature", "properties": { "Name_CH": "峇株巴辖椿寿", "Name_ML": "Persatuan Eng Choong Batu Pahat Cemetery Batu Pahat", "Name_EN": null, "Location": "37A & 37-IA, Jalan Rahmat, 83000 Batu Pahat Johor", "Longitude": 102.9312178, "Latitude": 1.8488089, "Region": "Johor", "Category": "慈善福利", "PageNumber": "317" }, "geometry": { "type": "Point", "coordinates": [ 102.9312, 1.8488, 102.9312 ] } },
{ "type": "Feature", "properties": { "Name_CH": "峇株巴辖广东义山(第一义山、第二义山、第三义山)", "Name_ML": null, "Name_EN": "Kwang Tung Hway Kuan Cemeteries (Tanah Perkuburan 1, 2, & 3) Batu Pahat", "Location": "No. 78B, Jalan Mohd. Akil, 83000 Batu Pahat, Johor.", "Longitude": 102.9294817, "Latitude": 1.8552423, "Region": "Johor", "Category": "慈善福利", "PageNumber": "317" }, "geometry": { "type": "Point", "coordinates": [ 102.9295, 1.8552, 102.9295 ] } },
{ "type": "Feature", "properties": { "Name_CH": "峇株巴辖华山亭", "Name_ML": null, "Name_EN": "Tionghua Memorial Court Jalan Tanjong Laboh Batu Pahat", "Location": "7A, Jalan Rugayah Barat 83000 Batu Pahat.", "Longitude": 102.9263377, "Latitude": 1.8560429, "Region": "Johor", "Category": "慈善福利", "PageNumber": "317" }, "geometry": { "type": "Point", "coordinates": [ 102.9263, 1.856, 102.9263 ] } },
{ "type": "Feature", "properties": { "Name_CH": "峇株巴辖德化会馆德寿山", "Name_ML": "Persatuan Teck Hua Negeri Johor Cemetery Batu Pahat", "Name_EN": null, "Location": "No.21A, Jalan Temiang, Taman Makmur, 83000 Batu Pahat, Johor.", "Longitude": 102.9326223, "Latitude": 1.8592314, "Region": "Johor", "Category": "慈善福利", "PageNumber": "317" }, "geometry": { "type": "Point", "coordinates": [ 102.9326, 1.8592, 102.9326 ] } },
{ "type": "Feature", "properties": { "Name_CH": "居銮中华义山", "Name_ML": null, "Name_EN": "Kluang Chinese Association Cemetery", "Location": "1, Jalan Wayang, 86000 Kluang, Johor.", "Longitude": 103.3206129, "Latitude": 2.0280619, "Region": "Johor", "Category": "慈善福利", "PageNumber": "317" }, "geometry": { "type": "Point", "coordinates": [ 103.3206, 2.0281, 103.3206 ] } },
{ "type": "Feature", "properties": { "Name_CH": "居銮惠州会馆义山", "Name_ML": "Persatuan Fui Chew Negeri Johor Cemetery", "Name_EN": null, "Location": "25, Jalan Dato Teoh Siew Khor, 86000 Kluang, Johor.", "Longitude": 103.3153801, "Latitude": 2.028788, "Region": "Johor", "Category": "慈善福利", "PageNumber": "317" }, "geometry": { "type": "Point", "coordinates": [ 103.3154, 2.0288, 103.3154 ] } },
{ "type": "Feature", "properties": { "Name_CH": "峇口雷州义山", "Name_ML": "Kubur Liu Chew Bakri Muar", "Name_EN": null, "Location": "46, Tingkat 1 & 2, Jalan Sisi, 84800 Muar, Johor.", "Longitude": 102.5657846, "Latitude": 2.046639, "Region": "Johor", "Category": "慈善福利", "PageNumber": "317" }, "geometry": { "type": "Point", "coordinates": [ 102.5658, 2.0466, 102.5658 ] } },
{ "type": "Feature", "properties": { "Name_CH": "居銮嘉应义山", "Name_ML": null, "Name_EN": "Johor Kar Ying Association Cemetery Kluang", "Location": "36, Tingkat 1, Jalan Dato Captain Ahmad, 86000 Kluangjohor.", "Longitude": 103.4049445, "Latitude": 2.048435, "Region": "Johor", "Category": "慈善福利", "PageNumber": "317" }, "geometry": { "type": "Point", "coordinates": [ 103.4049, 2.0484, 103.4049 ] } },
{ "type": "Feature", "properties": { "Name_CH": "峇株安南中华义山理事会", "Name_ML": "Persatuan PerkuburanTiong Hua, Batu Anam Segamat", "Name_EN": null, "Location": "No.184, Kampung Bahru, Batu Anam, Segamat Johor.", "Longitude": 102.7074128, "Latitude": 2.577145, "Region": "Johor", "Category": "慈善福利", "PageNumber": "317" }, "geometry": { "type": "Point", "coordinates": [ 102.7074, 2.5771, 102.7074 ] } },
{ "type": "Feature", "properties": { "Name_CH": "峇吉里韩江公冢", "Name_ML": null, "Name_EN": "Muar Bakri Hang Kang Cemetery", "Location": null, "Longitude": null, "Latitude": null, "Region": "Johor", "Category": "慈善福利", "PageNumber": "317" }, "geometry": null },
{ "type": "Feature", "properties": { "Name_CH": "拉央华人义山委员会", "Name_ML": "Jawatankuasa Pengurusan Tanah Perkuburan Cina Layang-Layang Johor", "Name_EN": null, "Location": "56-A, Jalan Sekolah Cina, 81850 Layang-Layang Johor.", "Longitude": 103.477343, "Latitude": 1.8181526, "Region": "Johor", "Category": "慈善福利", "PageNumber": "318" }, "geometry": { "type": "Point", "coordinates": [ 103.4773, 1.8182, 103.4773 ] } },
{ "type": "Feature", "properties": { "Name_CH": "峇株巴辖济世慈善中心", "Name_ML": "Persatuan Kebajikan Ji Gong Batu Pahat Johor", "Name_EN": null, "Location": "99A Jalan Chengal Taman Makmur, 83000 Batu Pahat Johor", "Longitude": 102.9303855, "Latitude": 1.8593535, "Region": "Johor", "Category": "慈善福利", "PageNumber": "318" }, "geometry": { "type": "Point", "coordinates": [ 102.9304, 1.8594, 102.9304 ] } },
{ "type": "Feature", "properties": { "Name_CH": "金大伯公庙暨华人义山理事会", "Name_ML": "Persatuan PerkuburanCina & Rumah Berhala Tai Pek Kong, Rengam Johor", "Name_EN": null, "Location": "Jalan Kubur Cina, 86300 Rengam, Johor.", "Longitude": 103.4024303, "Latitude": 1.8807597, "Region": "Johor", "Category": "慈善福利", "PageNumber": "318" }, "geometry": { "type": "Point", "coordinates": [ 103.4024, 1.8808, 103.4024 ] } },
{ "type": "Feature", "properties": { "Name_CH": "梁站中华义山", "Name_ML": "Persatuan Tiong Hwa Kg Niyer Kluang", "Name_EN": null, "Location": "No.19, Jalan Station, Kampung Niyer, 86000 Kluang, Joho", "Longitude": 103.3179826, "Latitude": 2.032191, "Region": "Johor", "Category": "慈善福利", "PageNumber": "318" }, "geometry": { "type": "Point", "coordinates": [ 103.318, 2.0322, 103.318 ] } },
{ "type": "Feature", "properties": { "Name_CH": "麻坡广肇义山亭", "Name_ML": null, "Name_EN": "Muar Kwang Chow Association Cemetery", "Location": "55, Jalan Ali 84000 Muar, Johor.", "Longitude": 102.5675167, "Latitude": 2.0453974, "Region": "Johor", "Category": "慈善福利", "PageNumber": "318" }, "geometry": { "type": "Point", "coordinates": [ 102.5675, 2.0454, 102.5675 ] } },
{ "type": "Feature", "properties": { "Name_CH": "利丰港利华慈善社", "Name_ML": "Persatuan Kebajikan Lee Hwa Sg. Mali Muar Johor", "Name_EN": null, "Location": "12 Sg. Mati, 84400 Muar, Johor.", "Longitude": 102.5871807, "Latitude": 2.1414741, "Region": "Johor", "Category": "慈善福利", "PageNumber": "318" }, "geometry": { "type": "Point", "coordinates": [ 102.5872, 2.1415, 102.5872 ] } },
{ "type": "Feature", "properties": { "Name_CH": "乐光广东义山天安墓园（新山）", "Name_ML": null, "Name_EN": null, "Location": "88, Jalan Serom, 84400 Sg. Mati, Muar, Johor.", "Longitude": 102.5709198, "Latitude": 2.1637661, "Region": "Johor", "Category": "慈善福利", "PageNumber": "318" }, "geometry": { "type": "Point", "coordinates": [ 102.5709, 2.1638, 102.5709 ] } },
{ "type": "Feature", "properties": { "Name_CH": "林宫联谊慈善社", "Name_ML": "Persatuan How Um Kiong Lian Ngee Siah Charity Association", "Name_EN": null, "Location": "218-219 Bukit Gambir, New Village, Muar, Johor", "Longitude": 102.6833468, "Latitude": 2.295049, "Region": "Johor", "Category": "慈善福利", "PageNumber": "318" }, "geometry": { "type": "Point", "coordinates": [ 102.6833, 2.295, 102.6833 ] } },
{ "type": "Feature", "properties": { "Name_CH": "拉美士中华义山", "Name_ML": "Kubur Cina Labis Johor", "Name_EN": null, "Location": "147-B, Tingkat 2, Jalan Segamat, Taman Labis, 85300 Labis, Johor.", "Longitude": 103.0190988, "Latitude": 2.3966757, "Region": "Johor", "Category": "慈善福利", "PageNumber": "318" }, "geometry": { "type": "Point", "coordinates": [ 103.0191, 2.3967, 103.0191 ] } },
{ "type": "Feature", "properties": { "Name_CH": "利民达新港中华义山", "Name_ML": null, "Name_EN": "Kokkien Association Cemetery Jementah Segamat", "Location": "No.63, Tingkat 2, Jalan Muar, 85200 Jementah, Segamat Johor", "Longitude": 102.6846273, "Latitude": 2.4387998, "Region": "Johor", "Category": "慈善福利", "PageNumber": "318" }, "geometry": { "type": "Point", "coordinates": [ 102.6846, 2.4388, 102.6846 ] } },
{ "type": "Feature", "properties": { "Name_CH": "利民达中华义山", "Name_ML": "Kubur Cina Persatuan Chung Hwa Jementah Segamat", "Name_EN": null, "Location": "No.26, Jalan Muar, Jementah, 85200 Segamat Johor", "Longitude": 102.7981958, "Latitude": 2.4920254, "Region": "Johor", "Category": "慈善福利", "PageNumber": "318" }, "geometry": { "type": "Point", "coordinates": [ 102.7982, 2.492, 102.7982 ] } },
{ "type": "Feature", "properties": { "Name_CH": "坤兰勿汝广福堂义山管理委员会", "Name_ML": "Jawatankuasa Pengurusan Perkuburan Kong Hock Tan Muar", "Name_EN": null, "Location": "No.181, Kun Dong Ulu, 84710 Muar, Johor.", "Longitude": 101.9665101, "Latitude": 3.9071925, "Region": "Johor", "Category": "慈善福利", "PageNumber": "318" }, "geometry": { "type": "Point", "coordinates": [ 101.9665, 3.9072, 101.9665 ] } },
{ "type": "Feature", "properties": { "Name_CH": "马西中华义山", "Name_ML": null, "Name_EN": "Jawatankuasa Pengurusan Tanah Perkuburan Tionghwa Masai Johor", "Location": "26, Jalan Suria 69, Bandar Sri Alam, 81750 Masai, Johor", "Longitude": 103.881245, "Latitude": 1.4955108, "Region": "Johor", "Category": "慈善福利", "PageNumber": "319" }, "geometry": { "type": "Point", "coordinates": [ 103.8812, 1.4955, 103.8812 ] } },
{ "type": "Feature", "properties": { "Name_CH": "柔佛同奉善堂", "Name_ML": "Persatuan Thong Hong Siang T' ng Johor", "Name_EN": null, "Location": "10, Jalan Ros Merah 1\/2, Taman Johor Jaya, 81100 Johor Bahru, Johor", "Longitude": 103.7897288, "Latitude": 1.5365486, "Region": "Johor", "Category": "慈善福利", "PageNumber": "319" }, "geometry": { "type": "Point", "coordinates": [ 103.7897, 1.5365, 103.7897 ] } },
{ "type": "Feature", "properties": { "Name_CH": "南亚华人义山", "Name_ML": "Persatuan PerkuburanCina, Kg. Baru Telok Sengat Kota Tinggi", "Name_EN": null, "Location": "30, Jalan Siakap, Kampung Baru Telok Sengat 81940 Kota Tinggi Johor", "Longitude": 104.0309494, "Latitude": 1.561291, "Region": "Johor", "Category": "慈善福利", "PageNumber": "319" }, "geometry": { "type": "Point", "coordinates": [ 104.0309, 1.5613, 104.0309 ] } },
{ "type": "Feature", "properties": { "Name_CH": "麻属巴冬中华义山理事会", "Name_ML": null, "Name_EN": "The Parit Jawa Chinese Cemetery Committee", "Location": "No.174, Jalan Jabbar, 84150 Parit Jawa,Muar, Johor.", "Longitude": 102.6422843, "Latitude": 1.957379, "Region": "Johor", "Category": "慈善福利", "PageNumber": "319" }, "geometry": { "type": "Point", "coordinates": [ 102.6423, 1.9574, 102.6423 ] } },
{ "type": "Feature", "properties": { "Name_CH": "麻坡中华公冢义山", "Name_ML": null, "Name_EN": "Muar Chinese Community Burial Ground", "Location": "No.16, Tingkat Satu, Jalan Parit Haji Baki, 84000 Muar, Johor", "Longitude": 102.5644041, "Latitude": 2.0297062, "Region": "Johor", "Category": "慈善福利", "PageNumber": "319" }, "geometry": { "type": "Point", "coordinates": [ 102.5644, 2.0297, 102.5644 ] } },
{ "type": "Feature", "properties": { "Name_CH": "柔佛麻属实廊济世之家", "Name_ML": "Persatuan Kebajikan Ji Shi Zhi Jia Serom, Muar", "Name_EN": null, "Location": "LC 20, Serom 3, 84000 Muar, Johor.", "Longitude": 102.585073, "Latitude": 2.163943, "Region": "Johor", "Category": "慈善福利", "PageNumber": "319" }, "geometry": { "type": "Point", "coordinates": [ 102.5851, 2.1639, 102.5851 ] } },
{ "type": "Feature", "properties": { "Name_CH": "南山亭义山", "Name_ML": null, "Name_EN": "Nam San Teng Cemetery Belemang Village Serom Muar Johor.", "Location": "Batu 17, Jalan Sengkang, Bukit Gambir, Muar, Mukim Grisek, Johor", "Longitude": 102.6690262, "Latitude": 2.2462489, "Region": "Johor", "Category": "慈善福利", "PageNumber": "319" }, "geometry": { "type": "Point", "coordinates": [ 102.669, 2.2462, 102.669 ] } },
{ "type": "Feature", "properties": { "Name_CH": "柔佛三合港中华义山理事会", "Name_ML": "Jawatankuasa Perkuburan Orang Cina Chaah Johor", "Name_EN": null, "Location": "No.30A, Jalan Tun Dr. Ismail 85400 Chaah, Johor.", "Longitude": 103.0417695, "Latitude": 2.2487289, "Region": "Johor", "Category": "慈善福利", "PageNumber": "319" }, "geometry": { "type": "Point", "coordinates": [ 103.0418, 2.2487, 103.0418 ] } },
{ "type": "Feature", "properties": { "Name_CH": "任罗宏华侨互助社", "Name_ML": "Persatuan Oversea Chinese Mutual Aid Association", "Name_EN": null, "Location": "3H Jalan Mersing, 86810 Jemaluang, Johor.", "Longitude": 103.8521947, "Latitude": 2.2684954, "Region": "Johor", "Category": "慈善福利", "PageNumber": "319" }, "geometry": { "type": "Point", "coordinates": [ 103.8522, 2.2685, 103.8522 ] } },
{ "type": "Feature", "properties": { "Name_CH": "内丁能中华义山", "Name_ML": "Persatuan Khairat Tionghua Air Panas Labis Johor", "Name_EN": null, "Location": "Pekan Air Panas Labis, Johor.", "Longitude": 103.0508651, "Latitude": 2.46869, "Region": "Johor", "Category": "慈善福利", "PageNumber": "319" }, "geometry": { "type": "Point", "coordinates": [ 103.0509, 2.4687, 103.0509 ] } },
{ "type": "Feature", "properties": { "Name_CH": "柔佛州残疾人士联谊会", "Name_ML": "Pertubuhan Orang-Orang Kurang Upaya Negeri Johor", "Name_EN": null, "Location": "1, Jalan Ab. Hamid, Bukit Siput, 85020 Segamat Johor.", "Longitude": 102.84612, "Latitude": 2.48501, "Region": "Johor", "Category": "慈善福利", "PageNumber": "319" }, "geometry": { "type": "Point", "coordinates": [ 102.8461, 2.485, 102.8461 ] } },
{ "type": "Feature", "properties": { "Name_CH": "麻坡海南义山", "Name_ML": null, "Name_EN": "Muar Hainan Association Cemetery", "Location": null, "Longitude": null, "Latitude": null, "Region": "Johor", "Category": "慈善福利", "PageNumber": "319" }, "geometry": null },
{ "type": "Feature", "properties": { "Name_CH": "头湾广东义山", "Name_ML": "Perkuburan Kwang Tung Kg Jawa Pengerang Johor", "Name_EN": null, "Location": "91, Kampung Jawa, 81600 Pengerang, Johor.", "Longitude": 104.1357114, "Latitude": 1.3500139, "Region": "Johor", "Category": "慈善福利", "PageNumber": "320" }, "geometry": { "type": "Point", "coordinates": [ 104.1357, 1.35, 104.1357 ] } },
{ "type": "Feature", "properties": { "Name_CH": "四湾华人义山理事会", "Name_ML": "Lembaga Pengurus Kubur Awam Tionghua Sungai Rengit Pengerang Johor", "Name_EN": null, "Location": "No.8- B, Jalan Siakap, Sungai Rengit, 81600 Pengerang, Johor.", "Longitude": 104.2250648, "Latitude": 1.3511795, "Region": "Johor", "Category": "慈善福利", "PageNumber": "320" }, "geometry": { "type": "Point", "coordinates": [ 104.2251, 1.3512, 104.2251 ] } },
{ "type": "Feature", "properties": { "Name_CH": "泗湾志愿消访队", "Name_ML": "Persatuan Bomba Sukarela KRT Sungai Rengit", "Name_EN": null, "Location": "Balai Bomba Sukarela K.R.T. Sungai Rengit 81620, Pengerang, Johor.", "Longitude": 104.226196, "Latitude": 1.352933, "Region": "Johor", "Category": "慈善福利", "PageNumber": "320" }, "geometry": { "type": "Point", "coordinates": [ 104.2262, 1.3529, 104.2262 ] } },
{ "type": "Feature", "properties": { "Name_CH": "士姑来乐山亭华人义山", "Name_ML": "Jawatankuasa Pengurusan Perkuburan Cina Lock San Thin, Skudai", "Name_EN": null, "Location": "C\/0 56E, Jalan Lampan, Kg. Baru Skudai, 81300 Skudai, Johor.", "Longitude": 103.6619152, "Latitude": 1.5358408, "Region": "Johor", "Category": "慈善福利", "PageNumber": "320" }, "geometry": { "type": "Point", "coordinates": [ 103.6619, 1.5358, 103.6619 ] } },
{ "type": "Feature", "properties": { "Name_CH": "武吉巴株广福义山", "Name_ML": "Persatuan Tionghua Senggarang Cemetery Batu Pahat", "Name_EN": null, "Location": "No.159, Jalan Ismail, 83200 Senggarang, Johor.", "Longitude": 102.9280248, "Latitude": 1.8508939, "Region": "Johor", "Category": "慈善福利", "PageNumber": "320" }, "geometry": { "type": "Point", "coordinates": [ 102.928, 1.8509, 102.928 ] } },
{ "type": "Feature", "properties": { "Name_CH": "武吉巴西永德公冢", "Name_ML": "Pertubuhan Perkuburan Eng Teck Bukit Pasir Muar Johor", "Name_EN": null, "Location": "5, Taman Bukit Pasir, 84300 Muar, Johor.", "Longitude": 102.6365173, "Latitude": 2.097641, "Region": "Johor", "Category": "慈善福利", "PageNumber": "320" }, "geometry": { "type": "Point", "coordinates": [ 102.6365, 2.0976, 102.6365 ] } },
{ "type": "Feature", "properties": { "Name_CH": "武吉巴西永德公冢", "Name_ML": null, "Name_EN": "Eng Teck Bukit Pasir, Muar", "Location": "5, Taman Bukit Pasir, 84300 Muar, Johor.", "Longitude": 102.6365173, "Latitude": 2.097641, "Region": "Johor", "Category": "慈善福利", "PageNumber": "320" }, "geometry": { "type": "Point", "coordinates": [ 102.6365, 2.0976, 102.6365 ] } },
{ "type": "Feature", "properties": { "Name_CH": "武吉甘蜜烛光之家", "Name_ML": "Persatuan Kebajikan Bukit Gambir", "Name_EN": null, "Location": "D\/A No.22, Jalan Poh Ai, 84800 Bukit Gambir, Muar, Johor", "Longitude": 102.6557161, "Latitude": 2.2109959, "Region": "Johor", "Category": "慈善福利", "PageNumber": "320" }, "geometry": { "type": "Point", "coordinates": [ 102.6557, 2.211, 102.6557 ] } },
{ "type": "Feature", "properties": { "Name_CH": "三合港中华义山理事会", "Name_ML": "Jawatankuasa Perkuburan Orang Cina Cha' Ah Johor", "Name_EN": null, "Location": "4 (Tingkat 1) Jalan Tun Dr. Ismail 85400, Chaah Johor.", "Longitude": 103.041891, "Latitude": 2.2501535, "Region": "Johor", "Category": "慈善福利", "PageNumber": "320" }, "geometry": { "type": "Point", "coordinates": [ 103.0419, 2.2502, 103.0419 ] } },
{ "type": "Feature", "properties": { "Name_CH": "双溪加昉中华义山", "Name_ML": "Jawatankuasa Pengurusan Perkuburan Cina, Sg. Karas Segamat", "Name_EN": null, "Location": "21, Jalan Teo Ing. Sungai Karas, 85300 Labis, Johor.", "Longitude": 103.037427, "Latitude": 2.356199, "Region": "Johor", "Category": "慈善福利", "PageNumber": "320" }, "geometry": { "type": "Point", "coordinates": [ 103.0374, 2.3562, 103.0374 ] } },
{ "type": "Feature", "properties": { "Name_CH": "巫罗加什聚美亭华人义山", "Name_ML": "Persatuan Tanah Perkuburan Orang-Orang Cina Inn Teng Buloh Kasap Segamat", "Name_EN": null, "Location": "No.20, Jalan Ibrahim Buloh Kasap, 85010 Segamat Johor.", "Longitude": 102.7650689, "Latitude": 2.5541231, "Region": "Johor", "Category": "慈善福利", "PageNumber": "320" }, "geometry": { "type": "Point", "coordinates": [ 102.7651, 2.5541, 102.7651 ] } },
{ "type": "Feature", "properties": { "Name_CH": "新山醒华慈善剧社", "Name_ML": null, "Name_EN": "Johor Bahru Sing Wah Amateur Dramatic Association", "Location": "79A, Jalan Kuningjaman Pelangi, 80400 Johor Bahru, Johor.", "Longitude": 103.7757988, "Latitude": 1.4836767, "Region": "Johor", "Category": "慈善福利", "PageNumber": "321" }, "geometry": { "type": "Point", "coordinates": [ 103.7758, 1.4837, 103.7758 ] } },
{ "type": "Feature", "properties": { "Name_CH": "新山中华公会绵裕亭义山管委会", "Name_ML": null, "Name_EN": "Cemetery Of Persekutuan Tiong-Hua Johor Bahru.", "Location": "8, Jalan Keris, Jalan Sri Tebrau, 80050, Johor Bahru.", "Longitude": 103.7697248, "Latitude": 1.4869238, "Region": "Johor", "Category": "慈善福利", "PageNumber": "321" }, "geometry": { "type": "Point", "coordinates": [ 103.7697, 1.4869, 103.7697 ] } },
{ "type": "Feature", "properties": { "Name_CH": "新山中华公会振林山义山", "Name_ML": null, "Name_EN": "Cemetery Of Persekutuan Tiong Hua JB (Gunung Patah)", "Location": "No.8, Jalan Keris, Taman Sri Tebrau,80050 Johor Bahru, Johor.", "Longitude": 103.7697248, "Latitude": 1.4869238, "Region": "Johor", "Category": "慈善福利", "PageNumber": "321" }, "geometry": { "type": "Point", "coordinates": [ 103.7697, 1.4869, 103.7697 ] } },
{ "type": "Feature", "properties": { "Name_CH": "新山济贤善社", "Name_ML": "Che Hian Sian Siah", "Name_EN": null, "Location": "Lot 318, Jalan Banjaran Tujuk, Kempas Baru, 81200 Johor Bahru, Johor.", "Longitude": 103.7026377, "Latitude": 1.5255256, "Region": "Johor", "Category": "慈善福利", "PageNumber": "321" }, "geometry": { "type": "Point", "coordinates": [ 103.7026, 1.5255, 103.7026 ] } },
{ "type": "Feature", "properties": { "Name_CH": "新山慈心一族", "Name_ML": "Persatuan Kebajikan Ci Xin Johor Bahru Johor", "Name_EN": null, "Location": "29 Jalan Danau 30, Taman Desa Jaya, 81100 Johor Bahru, Johor.", "Longitude": 103.8071683, "Latitude": 1.5537778, "Region": "Johor", "Category": "慈善福利", "PageNumber": "321" }, "geometry": { "type": "Point", "coordinates": [ 103.8072, 1.5538, 103.8072 ] } },
{ "type": "Feature", "properties": { "Name_CH": "新邦令金华人义山理事会", "Name_ML": "Jawatankuasa Kubor Cina Kawasan Simpang Renggam Johor", "Name_EN": null, "Location": "B S22, Jalan Panggong Simpang, 86200 Rengam, Johor.", "Longitude": 103.3356272, "Latitude": 1.8394506, "Region": "Johor", "Category": "慈善福利", "PageNumber": "321" }, "geometry": { "type": "Point", "coordinates": [ 103.3356, 1.8395, 103.3356 ] } },
{ "type": "Feature", "properties": { "Name_CH": "新加兰武吉巴株广福义山", "Name_ML": "Perkuburan Cina Senggarang", "Name_EN": null, "Location": "159, Jalan Ismail, 3200 Senggarang, Batu Pahat Johor.", "Longitude": 102.9280248, "Latitude": 1.8508939, "Region": "Johor", "Category": "慈善福利", "PageNumber": "321" }, "geometry": { "type": "Point", "coordinates": [ 102.928, 1.8509, 102.928 ] } },
{ "type": "Feature", "properties": { "Name_CH": "新港中华义山管委会", "Name_ML": "Persatuan Perkuburan Kaum Tiong Hua Kangkar Baru Yong Peng Johor", "Name_EN": null, "Location": "Tokong Hock Long, Jalan Tokong, Kangkar Baru, 83700 Yong Peng, Johor.", "Longitude": 103.066052, "Latitude": 2.015901, "Region": "Johor", "Category": "慈善福利", "PageNumber": "321" }, "geometry": { "type": "Point", "coordinates": [ 103.0661, 2.0159, 103.0661 ] } },
{ "type": "Feature", "properties": { "Name_CH": "新港十九支华人义山", "Name_ML": null, "Name_EN": "SengKang Bt 19 Chinese CemeteryMuar", "Location": "Batu 19, Sengkang, Bukit Gambir, 84800 Muar, Johor", "Longitude": 102.68224, "Latitude": 2.263343, "Region": "Johor", "Category": "慈善福利", "PageNumber": "321" }, "geometry": { "type": "Point", "coordinates": [ 102.6822, 2.2633, 102.6822 ] } },
{ "type": "Feature", "properties": { "Name_CH": "昔加末中华亲善洗肾中心", "Name_ML": "Pertubuhan Hemodialisis Muhibbah Segamat Johor", "Name_EN": null, "Location": "14 & 16, Jalan Nagasari 17,Segamat Baru, 85000 Segamat Johor.", "Longitude": 102.8518834, "Latitude": 2.4927771, "Region": "Johor", "Category": "慈善福利", "PageNumber": "321" }, "geometry": { "type": "Point", "coordinates": [ 102.8519, 2.4928, 102.8519 ] } },
{ "type": "Feature", "properties": { "Name_CH": "昔加末华人福利会", "Name_ML": "Persatuan Kebajikan Orang-Orang Cina Cemetery Segamat", "Name_EN": null, "Location": "No.4, 2nd Floor, Jalan Ros, Segamat 85000, Johor.", "Longitude": 102.8218323, "Latitude": 2.503087, "Region": "Johor", "Category": "慈善福利", "PageNumber": "321" }, "geometry": { "type": "Point", "coordinates": [ 102.8218, 2.5031, 102.8218 ] } },
{ "type": "Feature", "properties": { "Name_CH": "昔加末巫罗加什聚英亭福利组", "Name_ML": "Persatuan Tanah Perkuburan Orang Orang Cina Ci Inn Teng Buloh Kasap Segamat", "Name_EN": null, "Location": "14 Jalan Abdullah, Buloh Kasap, 85010 Segamat Johor.", "Longitude": 102.8139214, "Latitude": 2.5090717, "Region": "Johor", "Category": "慈善福利", "PageNumber": "321" }, "geometry": { "type": "Point", "coordinates": [ 102.8139, 2.5091, 102.8139 ] } },
{ "type": "Feature", "properties": { "Name_CH": "振林山义山亭", "Name_ML": "Persatuan PerkuburanCina (Nyee San Teng) Gelang Patah, Johor", "Name_EN": null, "Location": "18, Jalan Kacang Panjang, 81550 Gelang Patah, Johor.", "Longitude": 103.5846569, "Latitude": 1.4479775, "Region": "Johor", "Category": "慈善福利", "PageNumber": "322" }, "geometry": { "type": "Point", "coordinates": [ 103.5847, 1.448, 103.5847 ] } },
{ "type": "Feature", "properties": { "Name_CH": "亚奄须汝华人义山管理委员会", "Name_ML": "Jawatankuasa Pengurusan Perkuburan Cina Ayam Suloh Batu Pahat", "Name_EN": null, "Location": "12, Sungai Suloh, Mk9, 83040 Batu Pahat Johor.", "Longitude": 102.912397, "Latitude": 1.7874972, "Region": "Johor", "Category": "慈善福利", "PageNumber": "322" }, "geometry": { "type": "Point", "coordinates": [ 102.9124, 1.7875, 102.9124 ] } },
{ "type": "Feature", "properties": { "Name_CH": "中华义山委员会", "Name_ML": null, "Name_EN": "Chung Hwa Gee San Committee", "Location": "No.53, Jalan Besar Sri Medan, 83400 Batu Pahat, Johor.", "Longitude": 102.9547476, "Latitude": 1.9846236, "Region": "Johor", "Category": "慈善福利", "PageNumber": "322" }, "geometry": { "type": "Point", "coordinates": [ 102.9547, 1.9846, 102.9547 ] } },
{ "type": "Feature", "properties": { "Name_CH": "永平中华义山美化管理委员会", "Name_ML": "Jawatankuasa Pengurusan Perkuburan Tiong Hua Yong Peng", "Name_EN": null, "Location": "24, First Floor, Jalan Kota, Taman Kota Yong Peng, Johor.", "Longitude": 103.0704552, "Latitude": 2.012849, "Region": "Johor", "Category": "慈善福利", "PageNumber": "322" }, "geometry": { "type": "Point", "coordinates": [ 103.0705, 2.0128, 103.0705 ] } },
{ "type": "Feature", "properties": { "Name_CH": "永平友爱慈善社", "Name_ML": "Pertubuhan Yew Ai Charity Society", "Name_EN": null, "Location": "4, Yew Ai Road, 83700 Yong Peng, Johor.", "Longitude": 103.0631153, "Latitude": 2.013816, "Region": "Johor", "Category": "慈善福利", "PageNumber": "322" }, "geometry": { "type": "Point", "coordinates": [ 103.0631, 2.0138, 103.0631 ] } },
{ "type": "Feature", "properties": { "Name_CH": "占美中华义山", "Name_ML": null, "Name_EN": "Chinese Cemetery Chamek Kluang", "Location": "d\/a 162A, Kampung Chamek, 86000 Kluang, Johor.", "Longitude": 103.3153801, "Latitude": 2.028788, "Region": "Johor", "Category": "慈善福利", "PageNumber": "322" }, "geometry": { "type": "Point", "coordinates": [ 103.3154, 2.0288, 103.3154 ] } },
{ "type": "Feature", "properties": { "Name_CH": "修德善堂麻坡分堂", "Name_ML": null, "Name_EN": "Seu Teck Sean Tong Muar Chapter", "Location": "40, Jalan Sultan Ibrahim,Muar, Johor.", "Longitude": 102.571965, "Latitude": 2.0373602, "Region": "Johor", "Category": "慈善福利", "PageNumber": "322" }, "geometry": { "type": "Point", "coordinates": [ 102.572, 2.0374, 102.572 ] } },
{ "type": "Feature", "properties": { "Name_CH": "巴莪烛光之家", "Name_ML": "Persatuan Kebajikan Dan Sosial Pagoh", "Name_EN": null, "Location": "No.68, Pekan Pagoh, 84600 Muar, Johor.", "Longitude": 102.7824777, "Latitude": 2.1878067, "Region": "Johor", "Category": "慈善福利", "PageNumber": "322" }, "geometry": { "type": "Point", "coordinates": [ 102.7825, 2.1878, 102.7825 ] } },
{ "type": "Feature", "properties": { "Name_CH": "至德慈善社", "Name_ML": "Persatuan Chee Teck Cher Siang Siah", "Name_EN": null, "Location": "88 & 89, Jalan Sg. Bilah, Bukit Gambir, 84800 Muar, Johor.", "Longitude": 102.6589864, "Latitude": 2.2082783, "Region": "Johor", "Category": "慈善福利", "PageNumber": "322" }, "geometry": { "type": "Point", "coordinates": [ 102.659, 2.2083, 102.659 ] } },
{ "type": "Feature", "properties": { "Name_CH": "兴楼自愿消防队", "Name_ML": "Persatuan Bomba Sukarela Kawasan Endau Mersing Johor", "Name_EN": null, "Location": "No. 1716, Jalan Jemaluang, Taman Seri Mersing, 86800 Mersing, Johor", "Longitude": 103.849983, "Latitude": 2.411473, "Region": "Johor", "Category": "慈善福利", "PageNumber": "322" }, "geometry": { "type": "Point", "coordinates": [ 103.85, 2.4115, 103.85 ] } },
{ "type": "Feature", "properties": { "Name_CH": "兴楼华人义山亭理事会", "Name_ML": "Persatuan Perkuburan Cina Endau Johor", "Name_EN": null, "Location": "Rumah Berhala Tian Hou Kong, Jalan Haji Arrifin, 86900 Endau, Johor.", "Longitude": 103.6225411, "Latitude": 2.652231, "Region": "Johor", "Category": "慈善福利", "PageNumber": "322" }, "geometry": { "type": "Point", "coordinates": [ 103.6225, 2.6522, 103.6225 ] } }
]
}
