{
"type": "FeatureCollection",
"name": "Category_0",
"crs": { "type": "name", "properties": { "name": "urn:ogc:def:crs:OGC:1.3:CRS84" } },
"features": [
{ "type": "Feature", "properties": { "Name_CH": "笨珍渔业公会", "Name_ML": null, "Name_EN": "Pontian Fisheries Society Johor", "Location": "701, Tingkat 2, Jalan Taib, Pontian, Johor.", "Longitude": 103.390153, "Latitude": 1.48601, "Region": "Johor", "Category": "业缘", "PageNumber": "286" }, "geometry": { "type": "Point", "coordinates": [ 103.3902, 1.486, 103.3902 ] } },
{ "type": "Feature", "properties": { "Name_CH": "笨珍中华商会", "Name_ML": "Persatuan Perdagangan Tionghua Pontian Johor", "Name_EN": null, "Location": "273, Tingkat 1, Jalan Alsagoff, 82000 Pontian, Johor.", "Longitude": 103.389404, "Latitude": 1.486056, "Region": "Johor", "Category": "业缘", "PageNumber": "286" }, "geometry": { "type": "Point", "coordinates": [ 103.3894, 1.4861, 103.3894 ] } },
{ "type": "Feature", "properties": { "Name_CH": "笨珍乐果杂货商公会", "Name_ML": null, "Name_EN": "Pontian Sundry Provision Goods Merchants Association", "Location": "796-A, Jalan Medan Ko-Op, 82000 Pontian, Johor.", "Longitude": 103.395418, "Latitude": 1.48091, "Region": "Johor", "Category": "业缘", "PageNumber": "286" }, "geometry": { "type": "Point", "coordinates": [ 103.3954, 1.4809, 103.3954 ] } },
{ "type": "Feature", "properties": { "Name_CH": "笨珍咖啡商公会", "Name_ML": null, "Name_EN": "Potian Coffee Shopkeepers Association", "Location": "27, Jalan Jutawan 2, Taman Juta, Jalan Taib, 82000 Pontian, Johor.", "Longitude": 103.390072, "Latitude": 1.486122, "Region": "Johor", "Category": "业缘", "PageNumber": "286" }, "geometry": { "type": "Point", "coordinates": [ 103.3901, 1.4861, 103.3901 ] } },
{ "type": "Feature", "properties": { "Name_CH": "笨珍树胶商(非盈利)有限公司", "Name_ML": null, "Name_EN": "Pontian Rubber Dealers Bhd", "Location": "302-304, 2nd & 3rd Floor, Jalan Alsagoff, 82000 Pontian, Johor.", "Longitude": 103.387204, "Latitude": 1.492533, "Region": "Johor", "Category": "业缘", "PageNumber": "286" }, "geometry": { "type": "Point", "coordinates": [ 103.3872, 1.4925, 103.3872 ] } },
{ "type": "Feature", "properties": { "Name_CH": "笨珍树胶商公会", "Name_ML": "Persatuan Johore State Rubber Dealers Association", "Name_EN": null, "Location": "2nd Floor, 6-3 Jalan Fatimah, 83000 Pontian, Johor.", "Longitude": 102.927576, "Latitude": 1.848957, "Region": "Johor", "Category": "业缘", "PageNumber": "286" }, "geometry": { "type": "Point", "coordinates": [ 102.9276, 1.849, 102.9276 ] } },
{ "type": "Feature", "properties": { "Name_CH": "笨珍华人的士司机公会", "Name_ML": "Persatuan Pemandu-Pemandu Teksi China Daerah Pontian Johor", "Name_EN": null, "Location": "66, Tingkat 1 Jalan Johor Batu 36, 82000 Pontian, Johor.", "Longitude": 103.881433, "Latitude": 1.494527, "Region": "Johor", "Category": "业缘", "PageNumber": "286" }, "geometry": { "type": "Point", "coordinates": [ 103.8814, 1.4945, 103.8814 ] } },
{ "type": "Feature", "properties": { "Name_CH": "地不老中华工商总会", "Name_ML": "Persatuan Perniagaan & Perindustrian Tionghua Kawasan Tebrau Johor Bahr", "Name_EN": null, "Location": "44, Jalan Dedap 17, Taman Johor Jaya, 81100 Johor Bahru, Johor", "Longitude": 103.808785, "Latitude": 1.531077, "Region": "Johor", "Category": "业缘", "PageNumber": "286" }, "geometry": { "type": "Point", "coordinates": [ 103.8088, 1.5311, 103.8088 ] } },
{ "type": "Feature", "properties": { "Name_CH": "丰盛港农渔业社", "Name_ML": "Persatuan Pertanian Dan Perikanan", "Name_EN": null, "Location": "321-L Jalan Wawasan 3, Taman Wawasan, 86800 Mersing, Johor.", "Longitude": 103.839641, "Latitude": 2.415753, "Region": "Johor", "Category": "业缘", "PageNumber": "286" }, "geometry": { "type": "Point", "coordinates": [ 103.8396, 2.4158, 103.8396 ] } },
{ "type": "Feature", "properties": { "Name_CH": "丰盛港中华商会", "Name_ML": "Dewan Perniagaan Tiong Hwa Mersing", "Name_EN": null, "Location": "18, Jalan Sulaiman, 86800 Mersing, Johor", "Longitude": 103.836209, "Latitude": 2.431738, "Region": "Johor", "Category": "业缘", "PageNumber": "286" }, "geometry": { "type": "Point", "coordinates": [ 103.8362, 2.4317, 103.8362 ] } },
{ "type": "Feature", "properties": { "Name_CH": "丰盛港咖啡旅餐商公会", "Name_ML": "Persatuan Kedai Kopi Restoran & Hotel Mersing Johor", "Name_EN": null, "Location": "1863, Jalan Jemaluangjaman Mersing, 86800 Mersing, Johor.", "Longitude": 103.837017, "Latitude": 2.420904, "Region": "Johor", "Category": "业缘", "PageNumber": "286" }, "geometry": { "type": "Point", "coordinates": [ 103.837, 2.4209, 103.837 ] } },
{ "type": "Feature", "properties": { "Name_CH": "古来中华商会", "Name_ML": "Persatuan Chinese Chamber Of Commerce", "Name_EN": null, "Location": "91A, Jalan Glasiar, Taman Tasek, 80200 Johor Bahru, Johor, Malaysia", "Longitude": 103.723205, "Latitude": 1.487662, "Region": "Johor", "Category": "业缘", "PageNumber": "287" }, "geometry": { "type": "Point", "coordinates": [ 103.7232, 1.4877, 103.7232 ] } },
{ "type": "Feature", "properties": { "Name_CH": "居銮中华工商总会", "Name_ML": "Persatuan Perniagaan & Perindustrian Cina Kluang", "Name_EN": null, "Location": "40, 2nd Floor, Jin Ng Pi Ton, Kluang Baru, 86000 Kluang, Johor.", "Longitude": 103.926905, "Latitude": 1.488709, "Region": "Johor", "Category": "业缘", "PageNumber": "287" }, "geometry": { "type": "Point", "coordinates": [ 103.9269, 1.4887, 103.9269 ] } },
{ "type": "Feature", "properties": { "Name_CH": "居銮杂货商公会", "Name_ML": null, "Name_EN": "Sundry Shops Assn", "Location": "45, Jin Kampong Paya, Tkt 1, Kluang Baru, 86000 Kluang, Johor.", "Longitude": 103.754616, "Latitude": 1.547362, "Region": "Johor", "Category": "业缘", "PageNumber": "287" }, "geometry": { "type": "Point", "coordinates": [ 103.7546, 1.5474, 103.7546 ] } },
{ "type": "Feature", "properties": { "Name_CH": "居銮电业公会", "Name_ML": "Persatuan Saudagar-Saudagar Alat Letrik Kluang", "Name_EN": null, "Location": "26, Jalan Intan, 2\/4 Taman Intan, 86000 Kluang, Johor.", "Longitude": 103.80479, "Latitude": 1.550564, "Region": "Johor", "Category": "业缘", "PageNumber": "287" }, "geometry": { "type": "Point", "coordinates": [ 103.8048, 1.5506, 103.8048 ] } },
{ "type": "Feature", "properties": { "Name_CH": "哥打丁宜中华商会", "Name_ML": "Persatuan The Chinese Chamber Of Commerce", "Name_EN": null, "Location": "2, Tingkat 2, Jalan Ah Siang, 81900 Kota Tinggi Johor.", "Longitude": 103.77063, "Latitude": 1.46408, "Region": "Johor", "Category": "业缘", "PageNumber": "287" }, "geometry": { "type": "Point", "coordinates": [ 103.7706, 1.4641, 103.7706 ] } },
{ "type": "Feature", "properties": { "Name_CH": "居銮咖啡商公会", "Name_ML": "Persatuan Kedai-Kedai Kopi Kluang", "Name_EN": "Kluang Coffee Shops Association", "Location": "72(Tingkat 1) Jalan Lambak, 86000 Kluang, Johor.", "Longitude": 103.322429, "Latitude": 2.023564, "Region": "Johor", "Category": "业缘", "PageNumber": "287" }, "geometry": { "type": "Point", "coordinates": [ 103.3224, 2.0236, 103.3224 ] } },
{ "type": "Feature", "properties": { "Name_CH": "居銮机器厂商公会", "Name_ML": "Persatuan Industri Kejuruteraan Dan Industri Logam Kluang Johor", "Name_EN": "Kluang Foundry And Engineering Industries Association", "Location": "71,1st Floor, Jalan Lin Swee Sin, Kluang Baru, 86000 Kluang, Johor", "Longitude": 103.331348, "Latitude": 2.040977, "Region": "Johor", "Category": "业缘", "PageNumber": "287" }, "geometry": { "type": "Point", "coordinates": [ 103.3313, 2.041, 103.3313 ] } },
{ "type": "Feature", "properties": { "Name_CH": "居銮家具同业公会", "Name_ML": "Persatuan Pengilang & Peniaga Perabut Kluang", "Name_EN": null, "Location": "No.11, Tingkat 1, Jalan Dato Suleiman Mohd Noor, 86000 Kluang, Johor.", "Longitude": 103.330955, "Latitude": 2.045051, "Region": "Johor", "Category": "业缘", "PageNumber": "287" }, "geometry": { "type": "Point", "coordinates": [ 103.331, 2.0451, 103.331 ] } },
{ "type": "Feature", "properties": { "Name_CH": "居銮酒商公会", "Name_ML": null, "Name_EN": "Kluang Liquor Merchants Assn", "Location": "45, Tingkat 1, Jalan Kampung Paya, 86000 Kluang, Johor.", "Longitude": 103.333288, "Latitude": 2.045496, "Region": "Johor", "Category": "业缘", "PageNumber": "287" }, "geometry": { "type": "Point", "coordinates": [ 103.3333, 2.0455, 103.3333 ] } },
{ "type": "Feature", "properties": { "Name_CH": "居銮农业公会", "Name_ML": "Persatuan Petani Kluang", "Name_EN": null, "Location": "No.22, 1st Floor, Jalan Lim Swee Sim, Kluang Baru, 86000 Kluang, Johor.", "Longitude": 103.332782, "Latitude": 2.039679, "Region": "Johor", "Category": "业缘", "PageNumber": "287" }, "geometry": { "type": "Point", "coordinates": [ 103.3328, 2.0397, 103.3328 ] } },
{ "type": "Feature", "properties": { "Name_CH": "居銮汽车摩哆商公会", "Name_ML": "Persatuan Peniaga-Peniaga Kereta Motor Kluang", "Name_EN": "Kluang Motor Traders' Association", "Location": "No.12, Lorong Wayang, 86000 Kluang, Johor.", "Longitude": 103.320645, "Latitude": 2.028201, "Region": "Johor", "Category": "业缘", "PageNumber": "287" }, "geometry": { "type": "Point", "coordinates": [ 103.3206, 2.0282, 103.3206 ] } },
{ "type": "Feature", "properties": { "Name_CH": "居銮属树胶商公会", "Name_ML": null, "Name_EN": "Kluang Rubber Dealers' Assn", "Location": "302,1st Floor, Jalan Haji Manan,86000 Kluang, Johor.", "Longitude": 103.316619, "Latitude": 2.043366, "Region": "Johor", "Category": "业缘", "PageNumber": "287" }, "geometry": { "type": "Point", "coordinates": [ 103.3166, 2.0434, 103.3166 ] } },
{ "type": "Feature", "properties": { "Name_CH": "峇市猪肉商公会", "Name_ML": "Persatuan Peniaga-Peniaga Daging Babi Bandar Batu Pahat", "Name_EN": null, "Location": "1,  Jalan Belinjau, Taman Pantai, 83000 Batu Pahat Johor.", "Longitude": 102.926309, "Latitude": 1.842527, "Region": "Johor", "Category": "业缘", "PageNumber": "288" }, "geometry": { "type": "Point", "coordinates": [ 102.9263, 1.8425, 102.9263 ] } },
{ "type": "Feature", "properties": { "Name_CH": "峇株巴辖菜商公会", "Name_ML": "Persatuan Peniaga Peniaga Sayuran-sayuran Daerah Batu Pahat", "Name_EN": null, "Location": "1, Jalan SentoL Taman Pantai, 83000 Batu Pahat Johor.", "Longitude": 102.92787, "Latitude": 1.840713, "Region": "Johor", "Category": "业缘", "PageNumber": "288" }, "geometry": { "type": "Point", "coordinates": [ 102.9279, 1.8407, 102.9279 ] } },
{ "type": "Feature", "properties": { "Name_CH": "峇株巴辖电脑商协会", "Name_ML": "Persatuan Sosial Perniagaan Teknologi Maklumat Komputer Batu Pahat(PAPTMKBP)", "Name_EN": "Batu Pahat IT Club", "Location": "84, Jalan Tukas Dua, Taman Soga,82000 Batu Pahat Johor.", "Longitude": 102.93462, "Latitude": 1.836862, "Region": "Johor", "Category": "业缘", "PageNumber": "288" }, "geometry": { "type": "Point", "coordinates": [ 102.9346, 1.8369, 102.9346 ] } },
{ "type": "Feature", "properties": { "Name_CH": "峇株巴辖华人机器公会", "Name_ML": "Persatuan Pekerja-Pekerja Kejuruteraan Kaum Cina Batu Pahat", "Name_EN": null, "Location": "3-5A, Jalan Mohd Akil 83000 Batu Pahat, Johor.", "Longitude": 102.928192, "Latitude": 1.851955, "Region": "Johor", "Category": "业缘", "PageNumber": "288" }, "geometry": { "type": "Point", "coordinates": [ 102.9282, 1.852, 102.9282 ] } },
{ "type": "Feature", "properties": { "Name_CH": "峇株巴辖华人建筑商公会", "Name_ML": null, "Name_EN": "Batu Pahat Master Builders Association", "Location": "5A, Jalan Ampangz83000 Batu Pahat Johor.", "Longitude": 102.930398, "Latitude": 1.837623, "Region": "Johor", "Category": "业缘", "PageNumber": "288" }, "geometry": { "type": "Point", "coordinates": [ 102.9304, 1.8376, 102.9304 ] } },
{ "type": "Feature", "properties": { "Name_CH": "峇株巴辖机商公会", "Name_ML": "Persatuan Perindustrian Foundri & Kejuruteraan Batu Pahat", "Name_EN": null, "Location": "31-2A, Jalan Panchoran Air, 83000 Batu Pahat Johor.", "Longitude": 102.931884, "Latitude": 1.847751, "Region": "Johor", "Category": "业缘", "PageNumber": "288" }, "geometry": { "type": "Point", "coordinates": [ 102.9319, 1.8478, 102.9319 ] } },
{ "type": "Feature", "properties": { "Name_CH": "峇株巴辖金匠公会", "Name_ML": "Persatuan Tukang Emas Batu Pahat Johor", "Name_EN": null, "Location": "45-1A, Jalan Sultanah, 83000 Batu Pahat Johor", "Longitude": 102.929761, "Latitude": 1.851118, "Region": "Johor", "Category": "业缘", "PageNumber": "288" }, "geometry": { "type": "Point", "coordinates": [ 102.9298, 1.8511, 102.9298 ] } },
{ "type": "Feature", "properties": { "Name_CH": "峇株巴辖成衣工业公会", "Name_ML": "Persatuan Perindustrian Kain Baju Batu Pahat", "Name_EN": null, "Location": "12A & 14 A, Jalan Penjaja 3, 83000 Batu Pahat Johor.", "Longitude": 103.087227, "Latitude": 1.855507, "Region": "Johor", "Category": "业缘", "PageNumber": "288" }, "geometry": { "type": "Point", "coordinates": [ 103.0872, 1.8555, 103.0872 ] } },
{ "type": "Feature", "properties": { "Name_CH": "居銮属小贩商业公会", "Name_ML": "Persatuan Penjaja & Peniaga Kecil Daerah Kluang", "Name_EN": "Kluang District Hawkers' Association", "Location": "No.16 & 18 (Tingkat 3), Jalan Pasar, 86000 Kluang, Johor.", "Longitude": 103.316984, "Latitude": 2.028169, "Region": "Johor", "Category": "业缘", "PageNumber": "288" }, "geometry": { "type": "Point", "coordinates": [ 103.317, 2.0282, 103.317 ] } },
{ "type": "Feature", "properties": { "Name_CH": "居銮属中医药业公会", "Name_ML": "Persatuan Tabib Dan Pengeluar Ubat Cina Kluang", "Name_EN": "Kluang Chinese Physicians And Druggist Association", "Location": "No.15, Jalan Tan Khim Seak, Kluang Baru, 86000 Kluang, Johor.", "Longitude": 103.321277, "Latitude": 2.026504, "Region": "Johor", "Category": "业缘", "PageNumber": "288" }, "geometry": { "type": "Point", "coordinates": [ 103.3213, 2.0265, 103.3213 ] } },
{ "type": "Feature", "properties": { "Name_CH": "峇株巴辖公市公会", "Name_ML": "Persatuan Peniaga Peniaga Pasar Awam Batu Pahat", "Name_EN": null, "Location": "61-B, Jalan Penggaram, 83000 Batu Bahat Johor.", "Longitude": 103.371188, "Latitude": 2.055789, "Region": "Johor", "Category": "业缘", "PageNumber": "288" }, "geometry": { "type": "Point", "coordinates": [ 103.3712, 2.0558, 103.3712 ] } },
{ "type": "Feature", "properties": { "Name_CH": "峇株巴辖家具同业公会", "Name_ML": "Persatuan Peniaga-Peniaga Perabut Batu Pahat Johor", "Name_EN": null, "Location": "48A, Jalan Kudang 4, Tmn Bukit Pasir, 83000 Batu Pahat Johor.", "Longitude": 101.696919, "Latitude": 3.184606, "Region": "Johor", "Category": "业缘", "PageNumber": "288" }, "geometry": { "type": "Point", "coordinates": [ 101.6969, 3.1846, 101.6969 ] } },
{ "type": "Feature", "properties": { "Name_CH": "利民达果园协会", "Name_ML": "Persatuan Pekebun-Pekebun Dusun Jementah Johor", "Name_EN": null, "Location": "79, Jalan Muar, Jementah, 85200 Segamat Johor", "Longitude": 103.756206, "Latitude": 1.553267, "Region": "Johor", "Category": "业缘", "PageNumber": "289" }, "geometry": { "type": "Point", "coordinates": [ 103.7562, 1.5533, 103.7562 ] } },
{ "type": "Feature", "properties": { "Name_CH": "拉央拉央中华商会", "Name_ML": "Dewan Perniagaan Cina Layang Layang", "Name_EN": "Layang Layang The Chinese Chamber of Commerce", "Location": "NO.42-B, Jalan Sekolah Cina, 81850 Layang-Layang, Johor.", "Longitude": 103.481919, "Latitude": 1.803193, "Region": "Johor", "Category": "业缘", "PageNumber": "289" }, "geometry": { "type": "Point", "coordinates": [ 103.4819, 1.8032, 103.4819 ] } },
{ "type": "Feature", "properties": { "Name_CH": "峇株巴辖司机协会", "Name_ML": "Persatuan Drebar Batu Pahat", "Name_EN": null, "Location": "62, Jalan Sultanah,83000 Batu Pahat Johor.", "Longitude": 102.926726, "Latitude": 1.851769, "Region": "Johor", "Category": "业缘", "PageNumber": "289" }, "geometry": { "type": "Point", "coordinates": [ 102.9267, 1.8518, 102.9267 ] } },
{ "type": "Feature", "properties": { "Name_CH": "峇株巴辖小贩商业公会", "Name_ML": "Persatuan Penjaja-Penjaja Dan Peniaga-Peniaga Kecil Batu Pahat", "Name_EN": "Hawker ’s & Petty Traders Association", "Location": "NO.1B-5B, Jalan Penjaja, 83000 Batu Pahat Johor.", "Longitude": 102.929033, "Latitude": 1.857763, "Region": "Johor", "Category": "业缘", "PageNumber": "289" }, "geometry": { "type": "Point", "coordinates": [ 102.929, 1.8578, 102.929 ] } },
{ "type": "Feature", "properties": { "Name_CH": "峇株巴辖洋货布疋商公会", "Name_ML": "Persatuan Peniaga Textil & Barangan Batu Pahat", "Name_EN": null, "Location": "26A, 1st Floor, Jalan Idrus, 83000 Batu Pahat, Johor.", "Longitude": 102.92704, "Latitude": 1.849802, "Region": "Johor", "Category": "业缘", "PageNumber": "289" }, "geometry": { "type": "Point", "coordinates": [ 102.927, 1.8498, 102.927 ] } },
{ "type": "Feature", "properties": { "Name_CH": "峇株巴辖油棕商公会", "Name_ML": "Persatuan Peniaga Kelapa Sawit Daerah Batu Pahat", "Name_EN": null, "Location": "59A, Jalan Mohd. Salleh, 83000 Batu Pahat, Johor", "Longitude": 102.929866, "Latitude": 1.848544, "Region": "Johor", "Category": "业缘", "PageNumber": "289" }, "geometry": { "type": "Point", "coordinates": [ 102.9299, 1.8485, 102.9299 ] } },
{ "type": "Feature", "properties": { "Name_CH": "峇株巴辖鱼商公会", "Name_ML": "Persatuan Saudagar Saudagar Ikan Batu Pahat", "Name_EN": "Fish Merchants Association Batu Pahat", "Location": "18A, Jalan Susur Pantai Baru, Taman Pantai Baru 83000 Batu Pahat Johor.", "Longitude": 102.930228, "Latitude": 1.841769, "Region": "Johor", "Category": "业缘", "PageNumber": "289" }, "geometry": { "type": "Point", "coordinates": [ 102.9302, 1.8418, 102.9302 ] } },
{ "type": "Feature", "properties": { "Name_CH": "峇株巴辖中医药业公会", "Name_ML": "Persatuan Pekedai-Pekedai Ubat Buatan Cina Batu Pahat", "Name_EN": null, "Location": "43A, Jalan Penjaja,83000 Batu Pahat Johor.", "Longitude": 102.929996, "Latitude": 1.858443, "Region": "Johor", "Category": "业缘", "PageNumber": "289" }, "geometry": { "type": "Point", "coordinates": [ 102.93, 1.8584, 102.93 ] } },
{ "type": "Feature", "properties": { "Name_CH": "峇属酒商公会", "Name_ML": "Batu Pahat District Liquor Merchants' Association", "Name_EN": null, "Location": "4-6, Jalan Omar,Batu Pahat Johor", "Longitude": 102.933109, "Latitude": 1.849175, "Region": "Johor", "Category": "业缘", "PageNumber": "289" }, "geometry": { "type": "Point", "coordinates": [ 102.9331, 1.8492, 102.9331 ] } },
{ "type": "Feature", "properties": { "Name_CH": "峇属咖啡商公会", "Name_ML": "Persatuan Saudagar-Saudagar Kedai Kopi Batu Pahat", "Name_EN": "Coffee Shopkeepers' Association Batu Pahat", "Location": "1-3,1-3A, Jalan Raja Udang, Kg. Merdeka,83000 Batu Pahat, Johor.", "Longitude": 102.94048, "Latitude": 1.851662, "Region": "Johor", "Category": "业缘", "PageNumber": "289" }, "geometry": { "type": "Point", "coordinates": [ 102.9405, 1.8517, 102.9405 ] } },
{ "type": "Feature", "properties": { "Name_CH": "峇株巴辖中华商会", "Name_ML": "Dewan Perniagaan Cina Batu Pahat", "Name_EN": "Chinese Chamber of Commerce Batu Pahat", "Location": "32, Jalan Rahmat 83000 Batu Pahat Johor.", "Longitude": 102.932799, "Latitude": 1.84836, "Region": "Johor", "Category": "业缘", "PageNumber": "289" }, "geometry": { "type": "Point", "coordinates": [ 102.9328, 1.8484, 102.9328 ] } },
{ "type": "Feature", "properties": { "Name_CH": "峇株巴辖龙工业城厂商公会", "Name_ML": "Persatuan Pengilang dan Peniaga Taman Industri Wawasan Batu Pahat Johor", "Name_EN": null, "Location": "8, Jalan Budi 4, Taman Industri Wawasan, 83000 Batu Pahat, Johor.", "Longitude": 102.982564, "Latitude": 1.866333, "Region": "Johor", "Category": "业缘", "PageNumber": "289" }, "geometry": { "type": "Point", "coordinates": [ 102.9826, 1.8663, 102.9826 ] } },
{ "type": "Feature", "properties": { "Name_CH": "麻属巴东渔业公会", "Name_ML": "Persatuan Fisheries Society Parit Jawa Muar", "Name_EN": null, "Location": "PK B58, Jalan Jabbar Laut Parit Jawa, Muar, Johor.", "Longitude": 103.0841, "Latitude": 1.856953, "Region": "Johor", "Category": "业缘", "PageNumber": "290" }, "geometry": { "type": "Point", "coordinates": [ 103.0841, 1.857, 103.0841 ] } },
{ "type": "Feature", "properties": { "Name_CH": "麻坡中总商会", "Name_ML": "Dewan Perniagaan Cina Muar", "Name_EN": "Chinese Chamber Of Commerce Muar", "Location": "16 1st Floor Jalan Parit Haji Baki,,84000 Muar, Johor.", "Longitude": 102.564212, "Latitude": 2.02943, "Region": "Johor", "Category": "业缘", "PageNumber": "290" }, "geometry": { "type": "Point", "coordinates": [ 102.5642, 2.0294, 102.5642 ] } },
{ "type": "Feature", "properties": { "Name_CH": "麻坡金商公会", "Name_ML": "Persatuan Muar Goldsmith Merchants' Association", "Name_EN": null, "Location": "97, Jalan Meriam, Muar, Johor.", "Longitude": 102.5589, "Latitude": 2.044085, "Region": "Johor", "Category": "业缘", "PageNumber": "290" }, "geometry": { "type": "Point", "coordinates": [ 102.5589, 2.0441, 102.5589 ] } },
{ "type": "Feature", "properties": { "Name_CH": "麻坡贩商公会", "Name_ML": "Persatuan Penjaja-Penjaja Bergerak Dan Peniaga Kechil Muar", "Name_EN": null, "Location": "No.1 Jalan Arab 84000 Muar, Johor.", "Longitude": 102.568065, "Latitude": 2.04461, "Region": "Johor", "Category": "业缘", "PageNumber": "290" }, "geometry": { "type": "Point", "coordinates": [ 102.5681, 2.0446, 102.5681 ] } },
{ "type": "Feature", "properties": { "Name_CH": "麻属京果什货商公会", "Name_ML": "Persatuan The Grocery Merchants Association Muar", "Name_EN": null, "Location": "19, Jalan Ali Muar, Johor.", "Longitude": 102.567928, "Latitude": 2.045882, "Region": "Johor", "Category": "业缘", "PageNumber": "290" }, "geometry": { "type": "Point", "coordinates": [ 102.5679, 2.0459, 102.5679 ] } },
{ "type": "Feature", "properties": { "Name_CH": "麻坡布疋百货商公会", "Name_ML": null, "Name_EN": "Muar Textile & Piece Goods Merchants Association", "Location": "45, Jln Sayang, 84000 Muar, Johor.", "Longitude": 102.568323, "Latitude": 2.045519, "Region": "Johor", "Category": "业缘", "PageNumber": "290" }, "geometry": { "type": "Point", "coordinates": [ 102.5683, 2.0455, 102.5683 ] } },
{ "type": "Feature", "properties": { "Name_CH": "麻坡出租车公会", "Name_ML": "Persatuan Muar Hire Cars Association", "Name_EN": null, "Location": "23, Jalan Bakrl 84000 Muar, Johor.", "Longitude": 102.57731, "Latitude": 2.048773, "Region": "Johor", "Category": "业缘", "PageNumber": "290" }, "geometry": { "type": "Point", "coordinates": [ 102.5773, 2.0488, 102.5773 ] } },
{ "type": "Feature", "properties": { "Name_CH": "麻坡华人建筑工友会", "Name_ML": "Persatuan Pekerja Pembinaan Cina Muar", "Name_EN": "Muar Chinese Building Workers Association", "Location": "48 -29 Jalan Sakeh Baru,Taman Sakeh, Baru,jalan Sakeh, 84000 Muar, Johor.", "Longitude": 102.584949, "Latitude": 2.054124, "Region": "Johor", "Category": "业缘", "PageNumber": "290" }, "geometry": { "type": "Point", "coordinates": [ 102.5849, 2.0541, 102.5849 ] } },
{ "type": "Feature", "properties": { "Name_CH": "麻坡酒商公会", "Name_ML": null, "Name_EN": "The Liquor Merchants Association Muar", "Location": "16, 1st Floor, Jalan PT Hj Baki, 84000 Muar, Johor.", "Longitude": 102.563396, "Latitude": 2.02892, "Region": "Johor", "Category": "业缘", "PageNumber": "290" }, "geometry": { "type": "Point", "coordinates": [ 102.5634, 2.0289, 102.5634 ] } },
{ "type": "Feature", "properties": { "Name_CH": "麻坡杂货出入口商公会", "Name_ML": null, "Name_EN": "Grocery Importers & Exporters Association Muar", "Location": "37, Jlana Selayang, Muar, Johor.", "Longitude": 102.596266, "Latitude": 2.061092, "Region": "Johor", "Category": "业缘", "PageNumber": "290" }, "geometry": { "type": "Point", "coordinates": [ 102.5963, 2.0611, 102.5963 ] } },
{ "type": "Feature", "properties": { "Name_CH": "麻坡中医中药公会", "Name_ML": null, "Name_EN": "Muar Chinese Native Practioners & Druggists Association", "Location": "6, Tingkat Pertama, Jalan Ali, Muar, Johor", "Longitude": 102.567871, "Latitude": 2.04597, "Region": "Johor", "Category": "业缘", "PageNumber": "290" }, "geometry": { "type": "Point", "coordinates": [ 102.5679, 2.046, 102.5679 ] } },
{ "type": "Feature", "properties": { "Name_CH": "令金中华商会", "Name_ML": "Persatuan Perniagaan Tiong Hua Rengam", "Name_EN": null, "Location": "No.11, Jalan Station, 86300 Rengam, Johor.", "Longitude": 101.722295, "Latitude": 3.152453, "Region": "Johor", "Category": "业缘", "PageNumber": "290" }, "geometry": { "type": "Point", "coordinates": [ 101.7223, 3.1525, 101.7223 ] } },
{ "type": "Feature", "properties": { "Name_CH": "柔佛马来西亚中医针灸研究会", "Name_ML": "Persatuan Penyelidikan Tabib China & Akupunture Johor Malaysia", "Name_EN": null, "Location": "35- A, Jalan Harimau Taruh, Century Garden, 80250 Johor Bahru, Johor.", "Longitude": 103.7571986, "Latitude": 1.4774743, "Region": "Johor", "Category": "业缘", "PageNumber": "291" }, "geometry": { "type": "Point", "coordinates": [ 103.7572, 1.4775, 103.7572 ] } },
{ "type": "Feature", "properties": { "Name_CH": "柔佛华人建筑商公会", "Name_ML": "Persatuan Pembina Johor", "Name_EN": null, "Location": "110-A, Jalan Harimau Tarum, Taman Century, 80250 Johor Bahru, Johor", "Longitude": 103.7656816, "Latitude": 1.4860567, "Region": "Johor", "Category": "业缘", "PageNumber": "291" }, "geometry": { "type": "Point", "coordinates": [ 103.7657, 1.4861, 103.7657 ] } },
{ "type": "Feature", "properties": { "Name_CH": "柔佛州机械及车辆零件商会", "Name_ML": "Persatuan Peniaga-Peniaga Bahagian Pengganti Kenderaan Johor", "Name_EN": null, "Location": "77-01, Jalan Susur Larkin Perdana 1, Taman Larkin Perdana, 81100 Johor Bahru, Johor.", "Longitude": 103.7490816, "Latitude": 1.5002285, "Region": "Johor", "Category": "业缘", "PageNumber": "291" }, "geometry": { "type": "Point", "coordinates": [ 103.7491, 1.5002, 103.7491 ] } },
{ "type": "Feature", "properties": { "Name_CH": "柔佛罗厘同业公会", "Name_ML": "Persatuan Pengusaha Lori Johor", "Name_EN": "Johor Lorry Operator5 s Association", "Location": "57-03, Jalan Persiaran Larkin Perdana,Susur Larkin Perdana 1, Taman Larkin Perdana, 80350 Johor Bahru, Johor.", "Longitude": 103.7488386, "Latitude": 1.5016351, "Region": "Johor", "Category": "业缘", "PageNumber": "291" }, "geometry": { "type": "Point", "coordinates": [ 103.7488, 1.5016, 103.7488 ] } },
{ "type": "Feature", "properties": { "Name_CH": "柔佛厨业联谊会", "Name_ML": "Persatuan Tukang Masak Johor Bahru", "Name_EN": null, "Location": "75A, Jalan Kuning, Taman Pelang, 80400 Johor Bahru, Johor.", "Longitude": 103.775776, "Latitude": 1.48364, "Region": "Johor", "Category": "业缘", "PageNumber": "291" }, "geometry": { "type": "Point", "coordinates": [ 103.7758, 1.4836, 103.7758 ] } },
{ "type": "Feature", "properties": { "Name_CH": "柔佛地南中华工商会", "Name_ML": "Dewan Perniagaan & Perindustrian Tionghua Tiram Johor", "Name_EN": null, "Location": "6, Jalan Baiduri Satu, Taman Intan, 81800 Ulu Tiram, Johor.", "Longitude": 103.8213439, "Latitude": 1.6035613, "Region": "Johor", "Category": "业缘", "PageNumber": "291" }, "geometry": { "type": "Point", "coordinates": [ 103.8213, 1.6036, 103.8213 ] } },
{ "type": "Feature", "properties": { "Name_CH": "马来西亚针织厂商会", "Name_ML": null, "Name_EN": "Malaysian Knitting Manufacturers Association", "Location": "12-1 Jalan Megat 83000 Batu Pahat Johor.", "Longitude": 102.926019, "Latitude": 1.857192, "Region": "Johor", "Category": "业缘", "PageNumber": "291" }, "geometry": { "type": "Point", "coordinates": [ 102.926, 1.8572, 102.926 ] } },
{ "type": "Feature", "properties": { "Name_CH": "泉协兴起落货工友公会", "Name_ML": "Persatuan Chuan Hiap Heng Freight Handling Assciation", "Name_EN": null, "Location": "57, Jalan Shahbandac 83000 Batu Pahat Johor.", "Longitude": 102.924715, "Latitude": 1.8497, "Region": "Johor", "Category": "业缘", "PageNumber": "291" }, "geometry": { "type": "Point", "coordinates": [ 102.9247, 1.8497, 102.9247 ] } },
{ "type": "Feature", "properties": { "Name_CH": "南马咖啡厂商公会", "Name_ML": "Persatuan Pengilang Kopi Kawasan Selatan Semenanjung Malaysia", "Name_EN": null, "Location": "98-1, Jalan Rahmat 83000 Batu Pahat Johor.", "Longitude": 102.929808, "Latitude": 1.849382, "Region": "Johor", "Category": "业缘", "PageNumber": "291" }, "geometry": { "type": "Point", "coordinates": [ 102.9298, 1.8494, 102.9298 ] } },
{ "type": "Feature", "properties": { "Name_CH": "南马汽水商公会", "Name_ML": null, "Name_EN": "South Malaya Aerated Water Manufacturers Association", "Location": "131, Jalan Rahmat Batu Pahat Johor.", "Longitude": 102.928855, "Latitude": 1.85008, "Region": "Johor", "Category": "业缘", "PageNumber": "291" }, "geometry": { "type": "Point", "coordinates": [ 102.9289, 1.8501, 102.9289 ] } },
{ "type": "Feature", "properties": { "Name_CH": "柔佛酒商总会", "Name_ML": null, "Name_EN": "Johor State Liquor Merchants Assciation", "Location": "16,1st Floor, Jalan PT Hj Baki,84000 Muar, Johor.", "Longitude": 102.5986597, "Latitude": 2.0359456, "Region": "Johor", "Category": "业缘", "PageNumber": "291" }, "geometry": { "type": "Point", "coordinates": [ 102.5987, 2.0359, 102.5987 ] } },
{ "type": "Feature", "properties": { "Name_CH": "麻属咖啡商公会", "Name_ML": null, "Name_EN": "Muar District Coffee Merchants Association", "Location": "26, Tingkat L Jalan Ali, 84000 Muar, Johor.", "Longitude": 102.596266, "Latitude": 2.061092, "Region": "Johor", "Category": "业缘", "PageNumber": "291" }, "geometry": { "type": "Point", "coordinates": [ 102.5963, 2.0611, 102.5963 ] } },
{ "type": "Feature", "properties": { "Name_CH": "柔佛州中华工商联合会", "Name_ML": null, "Name_EN": "Johore Associated Chinese Chambers of Commerce and Industry", "Location": "89A & 91A, Jalan Glasiarjaman Tasek, 80200 Johor Bahru, Johor.", "Longitude": 103.723291, "Latitude": 1.4863106, "Region": "Johor", "Category": "业缘", "PageNumber": "292" }, "geometry": { "type": "Point", "coordinates": [ 103.7233, 1.4863, 103.7233 ] } },
{ "type": "Feature", "properties": { "Name_CH": "柔佛州汽车银业公会", "Name_ML": "Persatuan Sykt-Sykt Kewangan & Belian Ansor Motor Johor", "Name_EN": null, "Location": "107-A, Jalan Sutera, Taman Sentosa, Johor Bahru, Johor", "Longitude": 103.7711675, "Latitude": 1.4932179, "Region": "Johor", "Category": "业缘", "PageNumber": "292" }, "geometry": { "type": "Point", "coordinates": [ 103.7712, 1.4932, 103.7712 ] } },
{ "type": "Feature", "properties": { "Name_CH": "柔佛州轮胎商公会", "Name_ML": "Persatuan Peniaga-Peniaga Tayar Negeri Johor", "Name_EN": null, "Location": "77-01, Jalan Susur Larkin Perdana 1,Taman Larkin Perdana, 81100 Johor Bahru, Johor.", "Longitude": 103.7490816, "Latitude": 1.5002285, "Region": "Johor", "Category": "业缘", "PageNumber": "292" }, "geometry": { "type": "Point", "coordinates": [ 103.7491, 1.5002, 103.7491 ] } },
{ "type": "Feature", "properties": { "Name_CH": "柔佛州中医针灸骨伤科学会", "Name_ML": "Persatuan Perubatan Ortopedik Akupunktur Cina Johor", "Name_EN": null, "Location": "12A, Jalan Temenggung 9, Tmn Ungku Tun Aminah, Skudai, 81300 Johor Bahru, Johor.", "Longitude": 103.6529949, "Latitude": 1.5102793, "Region": "Johor", "Category": "业缘", "PageNumber": "292" }, "geometry": { "type": "Point", "coordinates": [ 103.653, 1.5103, 103.653 ] } },
{ "type": "Feature", "properties": { "Name_CH": "柔佛猪肉商公会", "Name_ML": "Persatuan Penjaga-Penjaga Daging Khinzir Johor", "Name_EN": null, "Location": "28, Jalan Tanjung, Taman Pengawa Barat 81200 Johor Bahru, Johor.", "Longitude": 103.6876663, "Latitude": 1.5115082, "Region": "Johor", "Category": "业缘", "PageNumber": "292" }, "geometry": { "type": "Point", "coordinates": [ 103.6877, 1.5115, 103.6877 ] } },
{ "type": "Feature", "properties": { "Name_CH": "柔佛州养猪公会", "Name_ML": "Persatuan Penternak Khinzir Johor", "Name_EN": "Johor Pig Farmer Association", "Location": "35A, Jalan Tanjong, Taman Dato Penggawa Barat 81200 Johor Bahru, Johor.", "Longitude": 103.6874173, "Latitude": 1.5117857, "Region": "Johor", "Category": "业缘", "PageNumber": "292" }, "geometry": { "type": "Point", "coordinates": [ 103.6874, 1.5118, 103.6874 ] } },
{ "type": "Feature", "properties": { "Name_CH": "柔佛州禽畜业协会", "Name_ML": "Persatuan Penternak Haiwan Negeri Johor", "Name_EN": "Johore State Poultry & Live Stock Farmers' Association", "Location": "39, Jalan Tanjong, Taman Dato Penggawa Barat,  Tampoi,81200 Johor Bahru, Johor.", "Longitude": 103.687375, "Latitude": 1.511936, "Region": "Johor", "Category": "业缘", "PageNumber": "292" }, "geometry": { "type": "Point", "coordinates": [ 103.6874, 1.5119, 103.6874 ] } },
{ "type": "Feature", "properties": { "Name_CH": "柔佛州理发总会", "Name_ML": "Persatuan Johor State Barbers General Association", "Name_EN": null, "Location": "5, Top Floor, Jalan Selat Tebrau, 80000 Johor Bahru, Johor.", "Longitude": 103.688286, "Latitude": 1.5124374, "Region": "Johor", "Category": "业缘", "PageNumber": "292" }, "geometry": { "type": "Point", "coordinates": [ 103.6883, 1.5124, 103.6883 ] } },
{ "type": "Feature", "properties": { "Name_CH": "柔南机器商公会", "Name_ML": "Persatuan Industri-lndustri Fondri & Kejuruteraan Johor Selatan", "Name_EN": null, "Location": "35-01, Jalan Ros Merah, 2\/2, Taman Johor Jaya 81100 Johor Bahru, Johor.", "Longitude": 103.7930151, "Latitude": 1.5341462, "Region": "Johor", "Category": "业缘", "PageNumber": "292" }, "geometry": { "type": "Point", "coordinates": [ 103.793, 1.5341, 103.793 ] } },
{ "type": "Feature", "properties": { "Name_CH": "柔佛州中医师公会", "Name_ML": "Persatuan Tabib Tionghua Johor", "Name_EN": "Johor Chinese Physician Association", "Location": "04-09, Skudai Parade Shopping Complex, Jalan Skudai, 81300 Skudai, Johor.", "Longitude": 103.66, "Latitude": 1.5416667, "Region": "Johor", "Category": "业缘", "PageNumber": "292" }, "geometry": { "type": "Point", "coordinates": [ 103.66, 1.5417, 103.66 ] } },
{ "type": "Feature", "properties": { "Name_CH": "柔佛州神料商公会", "Name_ML": "Persatuan Peniaga-Peniaga Bahan-Bahan Sembayang Ugama Johor", "Name_EN": null, "Location": "149, Jalan Rahmat 83000 Batu Pahat Johor.", "Longitude": 102.9256283, "Latitude": 1.8504963, "Region": "Johor", "Category": "业缘", "PageNumber": "292" }, "geometry": { "type": "Point", "coordinates": [ 102.9256, 1.8505, 102.9256 ] } },
{ "type": "Feature", "properties": { "Name_CH": "柔佛州面包饼干糖果面条果条联合会", "Name_ML": "Persatuan Johore Bakery Biscuits Confectionery Mee & Kueh Teow United Association", "Name_EN": null, "Location": "C\/0 2L Jalan Kundang, Taman Bukit Pasir, 83000 Batu Pahat Johor.", "Longitude": 102.9394725, "Latitude": 1.8662275, "Region": "Johor", "Category": "业缘", "PageNumber": "292" }, "geometry": { "type": "Point", "coordinates": [ 102.9395, 1.8662, 102.9395 ] } },
{ "type": "Feature", "properties": { "Name_CH": "柔南金饰商公会", "Name_ML": "Persatuan Perniagaan Barang-Barang Emas Johor Selatan", "Name_EN": null, "Location": "119B, Jalan Sri Petaling, Taman Pelangi, 80400 Johor Bahru, Johor.", "Longitude": 103.7759673, "Latitude": 1.4782249, "Region": "Johor", "Category": "业缘", "PageNumber": "293" }, "geometry": { "type": "Point", "coordinates": [ 103.776, 1.4782, 103.776 ] } },
{ "type": "Feature", "properties": { "Name_CH": "柔南酒商公会", "Name_ML": null, "Name_EN": "South Johore Liquor Merchants Association", "Location": "K1-301, Tingkat 3, Blok K1, Jalan Stulang Laut, Taman Stulang Laut 80300 Johor Bahru, Johor.", "Longitude": 103.7759673, "Latitude": 1.4782249, "Region": "Johor", "Category": "业缘", "PageNumber": "293" }, "geometry": { "type": "Point", "coordinates": [ 103.776, 1.4782, 103.776 ] } },
{ "type": "Feature", "properties": { "Name_CH": "柔南中医药业公会", "Name_ML": "Persatuan Tabib & Peniaga Ubat Asli Johor Selatan", "Name_EN": null, "Location": "3E-1, Jalan Larkin, 80200 Johor Bahru, Johor.", "Longitude": 103.7505925, "Latitude": 1.4808677, "Region": "Johor", "Category": "业缘", "PageNumber": "293" }, "geometry": { "type": "Point", "coordinates": [ 103.7506, 1.4809, 103.7506 ] } },
{ "type": "Feature", "properties": { "Name_CH": "柔南煤油商公会", "Name_ML": "Persatuan Penjual-Penjual Minyak Tanah Johor Selatan", "Name_EN": null, "Location": "8-B, Jalan Abiad Satu, Taman Pelangi, 80400 Johor Bahru, Johor.", "Longitude": 103.767049, "Latitude": 1.4830232, "Region": "Johor", "Category": "业缘", "PageNumber": "293" }, "geometry": { "type": "Point", "coordinates": [ 103.767, 1.483, 103.767 ] } },
{ "type": "Feature", "properties": { "Name_CH": "柔南屠业公会", "Name_ML": "Persatuan Penjual-Penjual Daging Babi Johor Selatan", "Name_EN": null, "Location": "28, Jalan Tanjong, Taman Dato Penggawa Barat Tampoi 81200 Johor Bahru, Johor.", "Longitude": 103.687375, "Latitude": 1.511936, "Region": "Johor", "Category": "业缘", "PageNumber": "293" }, "geometry": { "type": "Point", "coordinates": [ 103.6874, 1.5119, 103.6874 ] } },
{ "type": "Feature", "properties": { "Name_CH": "柔南流动小商公会", "Name_ML": "Persatuan Peniaga-Peniaga Kecil Pasar Lambak Bergerak Johor Selatan", "Name_EN": null, "Location": "25, Jalan Pengaga 3, Kg. Bahru, Pandan, 81100 Johor Bahru, Johor.", "Longitude": 103.7687629, "Latitude": 1.5256915, "Region": "Johor", "Category": "业缘", "PageNumber": "293" }, "geometry": { "type": "Point", "coordinates": [ 103.7688, 1.5257, 103.7688 ] } },
{ "type": "Feature", "properties": { "Name_CH": "士乃中华商会", "Name_ML": "Persatuan Chinese Chamber Of Commerce", "Name_EN": null, "Location": "112, Jalan Main Road, 81400 Senai, Johor.", "Longitude": 103.6478418, "Latitude": 1.6060675, "Region": "Johor", "Category": "业缘", "PageNumber": "293" }, "geometry": { "type": "Point", "coordinates": [ 103.6478, 1.6061, 103.6478 ] } },
{ "type": "Feature", "properties": { "Name_CH": "文律中华商会", "Name_ML": null, "Name_EN": "Chinese Chamber Of Commerce", "Location": "152, Jalan Jaafar, Benut Johor.", "Longitude": 103.2592497, "Latitude": 1.6385752, "Region": "Johor", "Category": "业缘", "PageNumber": "293" }, "geometry": { "type": "Point", "coordinates": [ 103.2592, 1.6386, 103.2592 ] } },
{ "type": "Feature", "properties": { "Name_CH": "柔中金钻珠宝商公会", "Name_ML": "Persatuan Tukang-Tukang Emas & Permata Johor Tengah", "Name_EN": null, "Location": "23-A, Lorongg 1, Jalan Ismail, 83000 Batu Pahat, Johor.", "Longitude": 102.9279663, "Latitude": 1.8503924, "Region": "Johor", "Category": "业缘", "PageNumber": "293" }, "geometry": { "type": "Point", "coordinates": [ 102.928, 1.8504, 102.928 ] } },
{ "type": "Feature", "properties": { "Name_CH": "素厘厘拖网公会", "Name_ML": null, "Name_EN": "Sedili Fishing Industry Association", "Location": "56, Kuala Sedili, 81910 Kota Tinggi Johor.", "Longitude": 104.1106129, "Latitude": 1.928058, "Region": "Johor", "Category": "业缘", "PageNumber": "293" }, "geometry": { "type": "Point", "coordinates": [ 104.1106, 1.9281, 104.1106 ] } },
{ "type": "Feature", "properties": { "Name_CH": "柔中猪肉商公会", "Name_ML": "Persatuan Peniaga-Peniaga Daging Babi Johor Tengah", "Name_EN": null, "Location": "No.16 & 19 (Tingkat 3), Jalan Pasar, 86000 Kluang, Johor.", "Longitude": 103.3170379, "Latitude": 2.0279757, "Region": "Johor", "Category": "业缘", "PageNumber": "293" }, "geometry": { "type": "Point", "coordinates": [ 103.317, 2.028, 103.317 ] } },
{ "type": "Feature", "properties": { "Name_CH": "武吉甘密巴刹同业公会", "Name_ML": "Persatuan Peniaga-Peniaga Pasar Besar Bkt Gambir Muar", "Name_EN": null, "Location": "113, Tingkat Atas, Taman Desa, Bkt Gambir, 84800 Muar, Johor", "Longitude": 102.5922938, "Latitude": 2.067003, "Region": "Johor", "Category": "业缘", "PageNumber": "293" }, "geometry": { "type": "Point", "coordinates": [ 102.5923, 2.067, 102.5923 ] } },
{ "type": "Feature", "properties": { "Name_CH": "新山公市菜业商会", "Name_ML": null, "Name_EN": "Johor Bahru Market Vegetables Merchant Association", "Location": "74, Jalan Ah Fook, Johor Bahru, Johor.", "Longitude": 103.76492, "Latitude": 1.4592967, "Region": "Johor", "Category": "业缘", "PageNumber": "294" }, "geometry": { "type": "Point", "coordinates": [ 103.7649, 1.4593, 103.7649 ] } },
{ "type": "Feature", "properties": { "Name_CH": "新山公市渔业商会", "Name_ML": "Persatuan Johor Bahru Market Fish Merchants Association", "Name_EN": null, "Location": "74, Jalan Ah Fook, 80000 Johor Bahru, Johor", "Longitude": 103.76492, "Latitude": 1.4592967, "Region": "Johor", "Category": "业缘", "PageNumber": "294" }, "geometry": { "type": "Point", "coordinates": [ 103.7649, 1.4593, 103.7649 ] } },
{ "type": "Feature", "properties": { "Name_CH": "新山百货布疋商公会", "Name_ML": "Persatuan Peniaga-Peniaga Kain & Brg-Brg Runcit Johor Bahru", "Name_EN": null, "Location": "39-A, Jalan B, Taman Maju Jaya, 80400 Johor Bahru, Johor", "Longitude": 103.7651, "Latitude": 1.4816828, "Region": "Johor", "Category": "业缘", "PageNumber": "294" }, "geometry": { "type": "Point", "coordinates": [ 103.7651, 1.4817, 103.7651 ] } },
{ "type": "Feature", "properties": { "Name_CH": "新山家具同业公会", "Name_ML": "Masjid Perindustrian Perabut Johor Bahru", "Name_EN": "Johor Bahru Furniture Industry Council", "Location": "73-B, Jalan Kuning, Taman Pelangi, 30400 Johor Bahru, Johor.", "Longitude": 103.7753922, "Latitude": 1.4834574, "Region": "Johor", "Category": "业缘", "PageNumber": "294" }, "geometry": { "type": "Point", "coordinates": [ 103.7754, 1.4835, 103.7754 ] } },
{ "type": "Feature", "properties": { "Name_CH": "新山地不老区商业公会", "Name_ML": "Persatuan Kebajikan Peniaga-Peniaga Tebrau Johor Bahru", "Name_EN": null, "Location": "49, Jalan Keris 1, Tebrau, 80050 Johor Bahru, Johor", "Longitude": 103.7666232, "Latitude": 1.485587, "Region": "Johor", "Category": "业缘", "PageNumber": "294" }, "geometry": { "type": "Point", "coordinates": [ 103.7666, 1.4856, 103.7666 ] } },
{ "type": "Feature", "properties": { "Name_CH": "新邦令金中华商会", "Name_ML": "Persatuan Perniagaan Tiong Hua Simpang Rengam Kluang Johor", "Name_EN": null, "Location": "17 Jalan Emas 4, Taman Usaha Jaya, 86200 Simpang Rengam, Johor", "Longitude": 103.3058786, "Latitude": 1.82274, "Region": "Johor", "Category": "业缘", "PageNumber": "294" }, "geometry": { "type": "Point", "coordinates": [ 103.3059, 1.8227, 103.3059 ] } },
{ "type": "Feature", "properties": { "Name_CH": "昔加末华人机器公会", "Name_ML": "Persatuan Kejuruteraan Kaum Cina Segamat", "Name_EN": "Segamat Chinese Engineering Association", "Location": "No.55, Tingkat Jalan Genuang, 85000 Segamat Johor", "Longitude": 102.829164, "Latitude": 2.4984178, "Region": "Johor", "Category": "业缘", "PageNumber": "294" }, "geometry": { "type": "Point", "coordinates": [ 102.8292, 2.4984, 102.8292 ] } },
{ "type": "Feature", "properties": { "Name_CH": "昔加末中医药业公会", "Name_ML": "Persatuan Tabib & Peniaga Ubat Cina Segamat Johor", "Name_EN": null, "Location": "48, Tingkat 2, Jalan Genuang Kg, 85000 Segamat Johor", "Longitude": 102.8270648, "Latitude": 2.4995828, "Region": "Johor", "Category": "业缘", "PageNumber": "294" }, "geometry": { "type": "Point", "coordinates": [ 102.8271, 2.4996, 102.8271 ] } },
{ "type": "Feature", "properties": { "Name_CH": "昔属杂货商公会", "Name_ML": "Persatuan peniaga-Peniaga Barang-Barang Runcit Daerah Segamat Sundry Provisions Dealers Association Segamat", "Name_EN": null, "Location": "4, Tingkat 2, Jalan Ros, 85000 Segamat, Johor.", "Longitude": 102.8215329, "Latitude": 2.5033638, "Region": "Johor", "Category": "业缘", "PageNumber": "294" }, "geometry": { "type": "Point", "coordinates": [ 102.8215, 2.5034, 102.8215 ] } },
{ "type": "Feature", "properties": { "Name_CH": "昔加末猪肉商公会", "Name_ML": "Persatuan Perniagaan Daging Babi Segamat Johor", "Name_EN": null, "Location": "Pasar Bandar Segamat Jalan Tengku Ahmad, 85000 Segamat Johor.", "Longitude": 102.81446, "Latitude": 2.50931, "Region": "Johor", "Category": "业缘", "PageNumber": "294" }, "geometry": { "type": "Point", "coordinates": [ 102.8145, 2.5093, 102.8145 ] } },
{ "type": "Feature", "properties": { "Name_CH": "昔加末中华总商会", "Name_ML": "Dewan Perniagaan Tionghua Segamat", "Name_EN": null, "Location": "4, Jalan Rose,85000 Segamat Johor", "Longitude": 102.8398579, "Latitude": 2.510518, "Region": "Johor", "Category": "业缘", "PageNumber": "294" }, "geometry": { "type": "Point", "coordinates": [ 102.8399, 2.5105, 102.8399 ] } },
{ "type": "Feature", "properties": { "Name_CH": "昔加末石油商会", "Name_ML": "Persatuan Penjual-Penjual Petrol Segamat", "Name_EN": null, "Location": "31-B, Jalan Buloh Kasap, 85000 Segamat Johor", "Longitude": 102.807581, "Latitude": 2.520161, "Region": "Johor", "Category": "业缘", "PageNumber": "294" }, "geometry": { "type": "Point", "coordinates": [ 102.8076, 2.5202, 102.8076 ] } },
{ "type": "Feature", "properties": { "Name_CH": "新山司机公会", "Name_ML": "Persatuan Pemandu-Pemandu Kenderaan Johor Bahru", "Name_EN": null, "Location": "30A, Jalan Sengget Johor Bahru, Johor.", "Longitude": 103.7641308, "Latitude": 1.4582234, "Region": "Johor", "Category": "业缘", "PageNumber": "295" }, "geometry": { "type": "Point", "coordinates": [ 103.7641, 1.4582, 103.7641 ] } },
{ "type": "Feature", "properties": { "Name_CH": "新山树胶商会", "Name_ML": null, "Name_EN": "Johor Bahru Rubber Dealers' Association", "Location": "65-B, Jalan Ah Fook, 80000 Johor Bahru, Johor.", "Longitude": 103.761355, "Latitude": 1.4653151, "Region": "Johor", "Category": "业缘", "PageNumber": "295" }, "geometry": { "type": "Point", "coordinates": [ 103.7614, 1.4653, 103.7614 ] } },
{ "type": "Feature", "properties": { "Name_CH": "新山京果商公会", "Name_ML": null, "Name_EN": "Johor Bahru Grocery Merchants Assn", "Location": "K1-301, Tkt 2, Blk Arcade,Taman Stulang Laut, Jalan Ibrahim Sultan, 80300 Johor Bahru, Johor", "Longitude": 103.7806766, "Latitude": 1.4686177, "Region": "Johor", "Category": "业缘", "PageNumber": "295" }, "geometry": { "type": "Point", "coordinates": [ 103.7807, 1.4686, 103.7807 ] } },
{ "type": "Feature", "properties": { "Name_CH": "新山派报同业公会", "Name_ML": "Persatuan Pengedar-Pengedar Suratkhabar Johor", "Name_EN": null, "Location": "61, Jalan Maju, Taman Tebrau Jaya, 80400 Johor Bahru, Joho", "Longitude": 103.7677061, "Latitude": 1.481125, "Region": "Johor", "Category": "业缘", "PageNumber": "295" }, "geometry": { "type": "Point", "coordinates": [ 103.7677, 1.4811, 103.7677 ] } },
{ "type": "Feature", "properties": { "Name_CH": "新山美伦大厦商业公会", "Name_ML": "Persatuan Bangunan Merlin Tower Johor Bahru", "Name_EN": null, "Location": "74, Jalan Meremban Taman Johor, 81200 Johor Bahru, Johor.", "Longitude": 103.694999, "Latitude": 1.51422, "Region": "Johor", "Category": "业缘", "PageNumber": "295" }, "geometry": { "type": "Point", "coordinates": [ 103.695, 1.5142, 103.695 ] } },
{ "type": "Feature", "properties": { "Name_CH": "峇株巴辖建筑工友公会", "Name_ML": "Persatuan Tukang-Tukang Binaan Batu Pahat", "Name_EN": null, "Location": "178A, Jalan Rotan Batu, Taman Sri Jaya, 83000 Batu Pahat Johor.", "Longitude": 102.9504049, "Latitude": 1.8678113, "Region": "Johor", "Category": "业缘", "PageNumber": "295" }, "geometry": { "type": "Point", "coordinates": [ 102.9504, 1.8678, 102.9504 ] } },
{ "type": "Feature", "properties": { "Name_CH": "永平小贩商公会", "Name_ML": null, "Name_EN": "Yong Peng Grocery Merchants Association", "Location": "85,1st Floor, Main Road,83700 Yong Peng", "Longitude": 103.0472164, "Latitude": 1.9654819, "Region": "Johor", "Category": "业缘", "PageNumber": "295" }, "geometry": { "type": "Point", "coordinates": [ 103.0472, 1.9655, 103.0472 ] } },
{ "type": "Feature", "properties": { "Name_CH": "永平树胶商公会", "Name_ML": "Persatuan Rubber Dealers Assn Yong Peng", "Name_EN": null, "Location": "Blk 3, Tingkat 1, Wisma SKS Yong Peng Berhad, 50 Jalan Besar, 83700 Yong Peng, Johor.", "Longitude": 103.049652, "Latitude": 2.065279, "Region": "Johor", "Category": "业缘", "PageNumber": "295" }, "geometry": { "type": "Point", "coordinates": [ 103.0497, 2.0653, 103.0497 ] } },
{ "type": "Feature", "properties": { "Name_CH": "兴楼渔业公会", "Name_ML": "Persatuan Peniaga-Peniaga Ikan Endau", "Name_EN": null, "Location": "7-1A, Tingkat Atas, Jalan Dato Mohd Ali, 86900 Endau, Johor.", "Longitude": 103.6176104, "Latitude": 2.65458, "Region": "Johor", "Category": "业缘", "PageNumber": "295" }, "geometry": { "type": "Point", "coordinates": [ 103.6176, 2.6546, 103.6176 ] } }
]
}
