{
"type": "FeatureCollection",
"name": "Category_3",
"crs": { "type": "name", "properties": { "name": "urn:ogc:def:crs:OGC:1.3:CRS84" } },
"features": [
{ "type": "Feature", "properties": { "Name_CH": "浮罗交怡福建会馆", "Name_ML": "Pulau Langkawi Hokkien Association", "Name_EN": null, "Location": "217, Taman Langkawai, Mukim Kuahz 07000 Pulau Langkawi, Kedah.", "Region": "Kedah", "Category": "地缘", "PageNumber": 41, "Country": "Malaysia", "latitude": 6.35, "longitude": 99.8 }, "geometry": { "type": "Point", "coordinates": [ 99.8, 6.35 ] } },
{ "type": "Feature", "properties": { "Name_CH": "浮罗交怡海南会馆", "Name_ML": "Persatuan Hainan Langkawi Kedah", "Name_EN": null, "Location": "1 Pekan Kuah, 07000 Langkawi, Kedah.", "Region": "Kedah", "Category": "地缘", "PageNumber": 41, "Country": "Malaysia", "latitude": 6.333158, "longitude": 99.861234 }, "geometry": { "type": "Point", "coordinates": [ 99.861234, 6.333158 ] } },
{ "type": "Feature", "properties": { "Name_CH": "吉玻福莆仙同乡会", "Name_ML": "Kedah \/ Perlis Hock Phor Sean Association", "Name_EN": null, "Location": "40, Jalan Putra, 05100 Alor Star, Kedah.", "Region": "Kedah", "Category": "地缘", "PageNumber": 41, "Country": "Malaysia", "latitude": 6.123256, "longitude": 100.3621919 }, "geometry": { "type": "Point", "coordinates": [ 100.3621919, 6.123256 ] } },
{ "type": "Feature", "properties": { "Name_CH": "吉玻海南会馆", "Name_ML": "Persatuan Hainan Kedah \/ Perlis", "Name_EN": "Hainan Association, Kedah And Perlis", "Location": "36, Jalan Putra, 05100 Alor Setar, Kedah.", "Region": "Kedah", "Category": "地缘", "PageNumber": 41, "Country": "Malaysia", "latitude": 6.1228432, "longitude": 100.3631808 }, "geometry": { "type": "Point", "coordinates": [ 100.3631808, 6.1228432 ] } },
{ "type": "Feature", "properties": { "Name_CH": "吉玻海南会馆", "Name_ML": "Persatuan Hainan Kedah \/ Perlis", "Name_EN": "Hainan Association, Kedah And Perlis", "Location": "36, Jalan Putra, 05100 Alor Setar, Kedah.", "Region": "Kedah", "Category": "地缘", "PageNumber": 41, "Country": "Malaysia", "latitude": 6.1228432, "longitude": 100.3631808 }, "geometry": { "type": "Point", "coordinates": [ 100.3631808, 6.1228432 ] } },
{ "type": "Feature", "properties": { "Name_CH": "吉玻惠安公会", "Name_ML": "Persatuan Hui Aun Kedah \/ Perlis", "Name_EN": null, "Location": "51. KLM. Kampong Perak, 05100 Alor Star, Kedah.  ", "Region": "Kedah", "Category": "地缘", "PageNumber": 41, "Country": "Malaysia", "latitude": 6.1221261, "longitude": 100.3625921 }, "geometry": { "type": "Point", "coordinates": [ 100.3625921, 6.1221261 ] } },
{ "type": "Feature", "properties": { "Name_CH": "吉玻潮州会馆", "Name_ML": "Persatuan Teochew Kedah \/ Perlis", "Name_EN": null, "Location": "27-B, Lebuhraya Darul Aman, 05000 Alor Setar, Kedah.", "Region": "Kedah", "Category": "地缘", "PageNumber": 41, "Country": "Malaysia", "latitude": 6.1225038, "longitude": 100.3670486 }, "geometry": { "type": "Point", "coordinates": [ 100.3670486, 6.1225038 ] } },
{ "type": "Feature", "properties": { "Name_CH": "吉玻惠州会馆", "Name_ML": "Persatuan Fui Chiu Kedah\/Perlis Chen & Association", "Name_EN": null, "Location": "68 Komplek Alor Malai Batu 2, Jalang Langgar, 054460 Alor Setar, Kedah.", "Region": "Kedah", "Category": "地缘", "PageNumber": 41, "Country": "Malaysia", "latitude": 6.1290649, "longitude": 100.3860396 }, "geometry": { "type": "Point", "coordinates": [ 100.3860396, 6.1290649 ] } },
{ "type": "Feature", "properties": { "Name_CH": "吉玻广西会馆", "Name_ML": "Perdatuan Kwang Sai Association", "Name_EN": null, "Location": "1 Jalan Petani, Sungai Petani, Kedah.", "Region": "Kedah", "Category": "地缘", "PageNumber": 41, "Country": "Malaysia", "latitude": 5.651338, "longitude": 100.515887 }, "geometry": { "type": "Point", "coordinates": [ 100.515887, 5.651338 ] } },
{ "type": "Feature", "properties": { "Name_CH": "吉玻晋江会馆", "Name_ML": "Persatuan Chin Kang Kedah\/Perlis", "Name_EN": null, "Location": "3B,C Tingkat 1, Jalan Gangsa, Seberang Jalan Putra, 05150 Alor Star, Kedah.", "Region": "Kedah", "Category": "地缘", "PageNumber": 42, "Country": "Malaysia", "latitude": 6.1265935, "longitude": 100.3581289 }, "geometry": { "type": "Point", "coordinates": [ 100.3581289, 6.1265935 ] } },
{ "type": "Feature", "properties": { "Name_CH": "吉玻南安会馆", "Name_ML": "Persatuan Nan Ann Kedah\/Perlis", "Name_EN": "The Nan Ann Association Kedah\/Perlis", "Location": "169-D, Jalan Putra 05100 Alor Star, Kedah.", "Region": "Kedah", "Category": "地缘", "PageNumber": 42, "Country": "Malaysia", "latitude": 6.1239428, "longitude": 100.3605645 }, "geometry": { "type": "Point", "coordinates": [ 100.3605645, 6.1239428 ] } },
{ "type": "Feature", "properties": { "Name_CH": "吉打中山公会", "Name_ML": "Persatuan Chung Sun", "Name_EN": "Chung Sun Association", "Location": "65, Jalan Putra 05100, Alor Star, Kedah.", "Region": "Kedah", "Category": "地缘", "PageNumber": 42, "Country": "Malaysia", "latitude": 6.1229942, "longitude": 100.3628097 }, "geometry": { "type": "Point", "coordinates": [ 100.3628097, 6.1229942 ] } },
{ "type": "Feature", "properties": { "Name_CH": "吉打永大会馆", "Name_ML": "Persatuan Yoon Thai", "Name_EN": "Yoon Thai Association", "Location": "99, Pekan China, 05000 Alor Setar, Kedah.", "Region": "Kedah", "Category": "地缘", "PageNumber": 42, "Country": "Malaysia", "latitude": 6.1164462, "longitude": 100.3629895 }, "geometry": { "type": "Point", "coordinates": [ 100.3629895, 6.1164462 ] } },
{ "type": "Feature", "properties": { "Name_CH": "吉打漳泉公所", "Name_ML": "Kedah Chang Chuan Kong Sor", "Name_EN": null, "Location": "190, Jalan Penjara Lama, 05000 Alor Star, Kedah.", "Region": "Kedah", "Category": "地缘", "PageNumber": 42, "Country": "Malaysia", "latitude": 6.117623, "longitude": 100.3640173 }, "geometry": { "type": "Point", "coordinates": [ 100.3640173, 6.117623 ] } },
{ "type": "Feature", "properties": { "Name_CH": "吉打福建公会", "Name_ML": "Persatuan Hokkien Kedah", "Name_EN": "Kedah Hokkien Association", "Location": "189-191, (Tingkat Satu), Jalan Penjara Lama, 05000 Alor Star, Kedah.", "Region": "Kedah", "Category": "地缘", "PageNumber": 42, "Country": "Malaysia", "latitude": 6.1167846, "longitude": 100.3653949 }, "geometry": { "type": "Point", "coordinates": [ 100.3653949, 6.1167846 ] } },
{ "type": "Feature", "properties": { "Name_CH": "吉打客家公会", "Name_ML": "Persatuan Hakka Kedah", "Name_EN": null, "Location": "2-B , Jalan Kampong Perak, 05100 Alor Star, Kedah.", "Region": "Kedah", "Category": "地缘", "PageNumber": 42, "Country": "Malaysia", "latitude": 6.1210698, "longitude": 100.3646997 }, "geometry": { "type": "Point", "coordinates": [ 100.3646997, 6.1210698 ] } },
{ "type": "Feature", "properties": { "Name_CH": "吉玻台山会馆", "Name_ML": "Persatuan Orang Orang Toishan Kedah \/ Perlis Toishan Association Kedah And Perlis", "Name_EN": null, "Location": "2-C, Kampong Baru, 05000 Alor Star, Kedah.", "Region": "Kedah", "Category": "地缘", "PageNumber": 42, "Country": "Malaysia", "latitude": 6.1218631, "longitude": 100.3675918 }, "geometry": { "type": "Point", "coordinates": [ 100.3675918, 6.1218631 ] } },
{ "type": "Feature", "properties": { "Name_CH": "吉打广东暨汀州会馆", "Name_ML": "Persatuan Kwangtung & Tengchow Kedah", "Name_EN": null, "Location": "24-A, Jalan Pengkalan Kapal 05000 Alor Setae Kedah.", "Region": "Kedah", "Category": "地缘", "PageNumber": 42, "Country": "Malaysia", "latitude": 6.1144405, "longitude": 100.3670365 }, "geometry": { "type": "Point", "coordinates": [ 100.3670365, 6.1144405 ] } },
{ "type": "Feature", "properties": { "Name_CH": "吉玻龙答同乡会", "Name_ML": "Persatuan Lungyen Kedah \/ Perlis", "Name_EN": null, "Location": "750, Lebuhraya Darul Aman, 05000 Alor Setar, Kedah.", "Region": "Kedah", "Category": "地缘", "PageNumber": 42, "Country": "Malaysia", "latitude": 6.1317004, "longitude": 100.3683117 }, "geometry": { "type": "Point", "coordinates": [ 100.3683117, 6.1317004 ] } },
{ "type": "Feature", "properties": { "Name_CH": "吉打州福州会馆", "Name_ML": "Persatuan Foochow Kedah", "Name_EN": "Kedah Foochow Association", "Location": "785, Jalan Langgar, 05460 Alor Star, Kedah.", "Region": "Kedah", "Category": "地缘", "PageNumber": 42, "Country": "Malaysia", "latitude": 6.1173582, "longitude": 100.3730704 }, "geometry": { "type": "Point", "coordinates": [ 100.3730704, 6.1173582 ] } },
{ "type": "Feature", "properties": { "Name_CH": "吉南福建公会", "Name_ML": "Persatuan Hokkien Kedah Selatan", "Name_EN": "South Kedah Hokkien Association", "Location": "291, Jalan Pasar, 09000 Kulim, Kedah.", "Region": "Kedah", "Category": "地缘", "PageNumber": 42, "Country": "Malaysia", "latitude": 5.3694705, "longitude": 100.5556366 }, "geometry": { "type": "Point", "coordinates": [ 100.5556366, 5.3694705 ] } },
{ "type": "Feature", "properties": { "Name_CH": "吉南琼崖同乡会", "Name_ML": "Pert Thye Guang (Ong Si Choong Soo) Kedah\/Perlis", "Name_EN": null, "Location": "70-L\/M Taman Mahawangsa Seberang, Jalan Alor Setar, 05150 Kedah.", "Region": "Kedah", "Category": "地缘", "PageNumber": 43, "Country": "Malaysia", "latitude": 6.1428582, "longitude": 100.3311919 }, "geometry": { "type": "Point", "coordinates": [ 100.3311919, 6.1428582 ] } },
{ "type": "Feature", "properties": { "Name_CH": "吉玻嘉应会馆", "Name_ML": "Persatuan Kah Yin Kedah\/Perlis", "Name_EN": "Kedah Perlis Kah Yin Association", "Location": "115, Jalan Langgar, 05460, Alor Star, Kedah.", "Region": "Kedah", "Category": "地缘", "PageNumber": 43, "Country": "Malaysia", "latitude": 6.1169556, "longitude": 100.3707448 }, "geometry": { "type": "Point", "coordinates": [ 100.3707448, 6.1169556 ] } },
{ "type": "Feature", "properties": { "Name_CH": "吉中客家公会", "Name_ML": "Persatuan Hakka Kedah Tengah", "Name_EN": null, "Location": "20 Jalan Merbok, 08000 Sungai Petani, Kedah.", "Region": "Kedah", "Category": "地缘", "PageNumber": 43, "Country": "Malaysia", "latitude": 5.6404679, "longitude": 100.486228 }, "geometry": { "type": "Point", "coordinates": [ 100.486228, 5.6404679 ] } },
{ "type": "Feature", "properties": { "Name_CH": "吉中福建会馆", "Name_ML": "Hokkien Association Central Kedah", "Name_EN": null, "Location": "1G, 1st Floor, Jalan Kampung Baru, 08000 Sungai Petani, Kedah.", "Region": "Kedah", "Category": "地缘", "PageNumber": 43, "Country": "Malaysia", "latitude": 5.635983, "longitude": 100.486348 }, "geometry": { "type": "Point", "coordinates": [ 100.486348, 5.635983 ] } },
{ "type": "Feature", "properties": { "Name_CH": "吉南嘉应五属同乡会", "Name_ML": "Persatuan Kah Yin Kedah Selatan", "Name_EN": null, "Location": "52, Jalan Raya, 09000 Kulim, Kedah.", "Region": "Kedah", "Category": "地缘", "PageNumber": 43, "Country": "Malaysia", "latitude": 5.366648, "longitude": 100.5539893 }, "geometry": { "type": "Point", "coordinates": [ 100.5539893, 5.366648 ] } },
{ "type": "Feature", "properties": { "Name_CH": "吉属高州会馆", "Name_ML": "Kedah Koh Chow Wooi Koon", "Name_EN": null, "Location": "287-M, Jalan Aman ,09000 Kulim, Kedah.", "Region": "Kedah", "Category": "地缘", "PageNumber": 43, "Country": "Malaysia", "latitude": 5.370651, "longitude": 100.554537 }, "geometry": { "type": "Point", "coordinates": [ 100.554537, 5.370651 ] } },
{ "type": "Feature", "properties": { "Name_CH": "吉南广惠肇会馆", "Name_ML": "Persatuan Kwong Wai Slew Kedah Selatan", "Name_EN": null, "Location": "30, Jalan Raya, 09000 Kulim, Kedah.", "Region": "Kedah", "Category": "地缘", "PageNumber": 43, "Country": "Malaysia", "latitude": 5.368179, "longitude": 100.5551418 }, "geometry": { "type": "Point", "coordinates": [ 100.5551418, 5.368179 ] } },
{ "type": "Feature", "properties": { "Name_CH": "吉南韩江公会", "Name_ML": "Persatuan Hang Kang Kedah Selatan ", "Name_EN": null, "Location": "29 Jalan Ray, Kulim, Kedah.", "Region": "Kedah", "Category": "地缘", "PageNumber": 43, "Country": "Malaysia", "latitude": 5.3680671, "longitude": 100.5552646 }, "geometry": { "type": "Point", "coordinates": [ 100.5552646, 5.3680671 ] } },
{ "type": "Feature", "properties": { "Name_CH": "吉南客家公会", "Name_ML": "Persatuan Kaum Orang-Orang Hakka Kedah Selatan", "Name_EN": "South Kedah Hakka Community Association", "Location": "1125-1126, Lorong Belibis 1\/1, Taman Tunku Putra, 09000 Kulim, Kedah.", "Region": "Kedah", "Category": "地缘", "PageNumber": 43, "Country": "Malaysia", "latitude": 5.3736648, "longitude": 100.5582809 }, "geometry": { "type": "Point", "coordinates": [ 100.5582809, 5.3736648 ] } }
]
}
