{
"type": "FeatureCollection",
"name": "Category_7",
"crs": { "type": "name", "properties": { "name": "urn:ogc:def:crs:OGC:1.3:CRS84" } },
"features": [
{ "type": "Feature", "properties": { "Name_CH": "二条石三山国王善信会", "Name_ML": "Pertubuhan Penganut-Penganut San Shan Guo Wang, Batu 2, Sungai Petani", "Name_EN": null, "Location": "721, Batu Dua, 08000 Sungai Petani Kedah.", "Longitude": 100.5162322, "Latitude": 5.629309, "Region": "Kedah", "Category": "宗教", "PageNumber": "51" }, "geometry": { "type": "Point", "coordinates": [ 100.5162, 5.6293, 100.5162 ] } },
{ "type": "Feature", "properties": { "Name_CH": "法主公神庙", "Name_ML": "Pertubuhan Penganut Huat Szu Kong Sungai Petani Keda", "Name_EN": null, "Location": "2210, Lorong Mak Yong 1, Taman Ria Jya, 08000 Sungai Petani, Kedah.", "Longitude": 100.5130143, "Latitude": 5.6472535, "Region": "Kedah", "Category": "宗教", "PageNumber": "51" }, "geometry": { "type": "Point", "coordinates": [ 100.513, 5.6473, 100.513 ] } },
{ "type": "Feature", "properties": { "Name_CH": "吉打莪仑德教会紫津阁", "Name_ML": null, "Name_EN": "Chee Chin Kok Moral Uplifting Society", "Location": "33-A, Jalan Jeniang, 08300 Gurun, Kedah.", "Longitude": 100.5274773, "Latitude": 5.8171971, "Region": "Kedah", "Category": "宗教", "PageNumber": "51" }, "geometry": { "type": "Point", "coordinates": [ 100.5275, 5.8172, 100.5275 ] } },
{ "type": "Feature", "properties": { "Name_CH": "峨占必力佛教会", "Name_ML": "Persatuan Ugama Buddha Guar Chempedak Guruk Kedah", "Name_EN": null, "Location": "1 Taman Sri Wangsa, Gua Chempedak, Gurun, Kedah.", "Longitude": 100.4608421, "Latitude": 5.8511967, "Region": "Kedah", "Category": "宗教", "PageNumber": "51" }, "geometry": { "type": "Point", "coordinates": [ 100.4608, 5.8512, 100.4608 ] } },
{ "type": "Feature", "properties": { "Name_CH": "吉打德教会济阳阁", "Name_ML": null, "Name_EN": "Chee Yang Kor Moral Uplifting Society Kedah", "Location": "2035, Tongkang Yard, Off Jalan Kota Tanah, 05050 Alor Setar, Kedah.", "Longitude": 100.3543595, "Latitude": 6.1166699, "Region": "Kedah", "Category": "宗教", "PageNumber": "51" }, "geometry": { "type": "Point", "coordinates": [ 100.3544, 6.1167, 100.3544 ] } },
{ "type": "Feature", "properties": { "Name_CH": "吉打斗母宫九皇大帝庙", "Name_ML": "Persatuan Penganut Tow Boo Keong Kiu Ong Tai Tay Kedah", "Name_EN": null, "Location": "Lot 1124 Jalan Bangsa, Seberang Jalan Putra, 05150 Alor Setar, Kedah.", "Longitude": 100.354874, "Latitude": 6.117715, "Region": "Kedah", "Category": "宗教", "PageNumber": "51" }, "geometry": { "type": "Point", "coordinates": [ 100.3549, 6.1177, 100.3549 ] } },
{ "type": "Feature", "properties": { "Name_CH": "吉打佛学院", "Name_ML": "Persatuan Buddhist Kedah", "Name_EN": "Kedah Buddhist Association", "Location": "1961-A, Jalan Telok Wanjah, 05200 Alor Star, Kedah.", "Longitude": 100.3783886, "Latitude": 6.1220088, "Region": "Kedah", "Category": "宗教", "PageNumber": "51" }, "geometry": { "type": "Point", "coordinates": [ 100.3784, 6.122, 100.3784 ] } },
{ "type": "Feature", "properties": { "Name_CH": "华玲德教会紫华阁", "Name_ML": "Persatuan Pendidikan Akhlak Chee Wah Kor Baling Kedah", "Name_EN": null, "Location": "33-A, Jalan Shariff, 09100 Baling, Kedah.", "Longitude": 100.3823483, "Latitude": 6.1259431, "Region": "Kedah", "Category": "宗教", "PageNumber": "51" }, "geometry": { "type": "Point", "coordinates": [ 100.3823, 6.1259, 100.3823 ] } },
{ "type": "Feature", "properties": { "Name_CH": "波各先那佛教会", "Name_ML": "Persatuan Buddhist Pokok Sena", "Name_EN": "Pokok Sena Buddhist Association", "Location": "139-A, Lorong 6, Kampung Baru, 06400 Pokok Sena, Kedah.", "Longitude": 100.5080062, "Latitude": 6.166289, "Region": "Kedah", "Category": "宗教", "PageNumber": "51" }, "geometry": { "type": "Point", "coordinates": [ 100.508, 6.1663, 100.508 ] } },
{ "type": "Feature", "properties": { "Name_CH": "吉南司南马德教会振成阁", "Name_ML": "Persatuan Amal Chin Shen Khor", "Name_EN": null, "Location": "77, Jalan Raya, 09810 Selama, Kedah.", "Longitude": 101.2898938, "Latitude": 4.1796236, "Region": "Kedah", "Category": "宗教", "PageNumber": "52" }, "geometry": { "type": "Point", "coordinates": [ 101.2899, 4.1796, 101.2899 ] } },
{ "type": "Feature", "properties": { "Name_CH": "吉南三巴央广福宫", "Name_ML": "Jawatankuasa Pengurusan Tokong Kwong Hock Keong, junjong", "Name_EN": "The Committee Of Management Of Kwong Hock Keong, Junjong", "Location": "139, Pekan Junjong, 09000 Kulim, Kedah.", "Longitude": 100.534158, "Latitude": 5.2985354, "Region": "Kedah", "Category": "宗教", "PageNumber": "52" }, "geometry": { "type": "Point", "coordinates": [ 100.5342, 5.2985, 100.5342 ] } },
{ "type": "Feature", "properties": { "Name_CH": "吉南德教会紫翰阁", "Name_ML": null, "Name_EN": "Chee Han Kor Moral Uplifting Society South Kedah", "Location": "358, Kelang Sago, 09000 Kulim, Kedah.", "Longitude": 100.5513328, "Latitude": 5.3736086, "Region": "Kedah", "Category": "宗教", "PageNumber": "52" }, "geometry": { "type": "Point", "coordinates": [ 100.5513, 5.3736, 100.5513 ] } },
{ "type": "Feature", "properties": { "Name_CH": "吉南巴东色海德教会紫天阁", "Name_ML": null, "Name_EN": "Chee Thean Hkor Moral Uplifting Society", "Location": "Jalan Baling, 09400 Padang Serai, Kedah.", "Longitude": 100.5651849, "Latitude": 5.510874, "Region": "Kedah", "Category": "宗教", "PageNumber": "52" }, "geometry": { "type": "Point", "coordinates": [ 100.5652, 5.5109, 100.5652 ] } },
{ "type": "Feature", "properties": { "Name_CH": "吉打双溪大年甘边园斗母宫理事会", "Name_ML": "Pertubuhan Penganut Agama Buddha Dou Mu Gong Jiu Hwang Da Ti. Kampung Kean Peng. Sg Petani, Kedah", "Name_EN": null, "Location": "516, Kampung Kean Peng, Pekan Lama, 08000 Sungai Petani, Kedah.", "Longitude": 100.4906033, "Latitude": 5.6395609, "Region": "Kedah", "Category": "宗教", "PageNumber": "52" }, "geometry": { "type": "Point", "coordinates": [ 100.4906, 5.6396, 100.4906 ] } },
{ "type": "Feature", "properties": { "Name_CH": "吉打华玲德教会紫华阁", "Name_ML": "Persatuan Pendidikan Akhlak Chee Wan Kor", "Name_EN": null, "Location": "33-A, Jalan Shariff, 90100 Baling, Kedah.", "Longitude": 100.9168139, "Latitude": 5.675547, "Region": "Kedah", "Category": "宗教", "PageNumber": "52" }, "geometry": { "type": "Point", "coordinates": [ 100.9168, 5.6755, 100.9168 ] } },
{ "type": "Feature", "properties": { "Name_CH": "吉打广福宫", "Name_ML": "Kong Hock Keong", "Name_EN": null, "Location": "233-Pengkalan Kundor, 05400 Alor Star, Kedah.", "Longitude": 100.3544711, "Latitude": 6.0744856, "Region": "Kedah", "Category": "宗教", "PageNumber": "52" }, "geometry": { "type": "Point", "coordinates": [ 100.3545, 6.0745, 100.3545 ] } },
{ "type": "Feature", "properties": { "Name_CH": "吉打亚罗士打蔗芭青山佬祖古庙", "Name_ML": "Persatuan Pengurusan Tokong Chin Sun Low Chor", "Name_EN": null, "Location": "15-M Kampong Kilang Tebu, Tembak Bunga, 05050 Alor Star, Kedah.", "Longitude": 100.3409292, "Latitude": 6.1021074, "Region": "Kedah", "Category": "宗教", "PageNumber": "52" }, "geometry": { "type": "Point", "coordinates": [ 100.3409, 6.1021, 100.3409 ] } },
{ "type": "Feature", "properties": { "Name_CH": "吉礁圣教会", "Name_ML": "Persatuan Sin Kow Hooi Alor Setar Kedah", "Name_EN": null, "Location": "52\/53 Batu 2, Jalan Langgar, 05100 Alor Setar, Kedah.", "Longitude": 100.3657282, "Latitude": 6.1166729, "Region": "Kedah", "Category": "宗教", "PageNumber": "52" }, "geometry": { "type": "Point", "coordinates": [ 100.3657, 6.1167, 100.3657 ] } },
{ "type": "Feature", "properties": { "Name_CH": "吉打浮罗交怡德教会紫文阁", "Name_ML": "Persatuan Pendidikan Akhlak Chee Boon Kor ", "Name_EN": null, "Location": "58, Pokok Asam, 07000 Pulau Langkawi, Kedah.", "Longitude": 99.8405157, "Latitude": 6.327755, "Region": "Kedah", "Category": "宗教", "PageNumber": "52" }, "geometry": { "type": "Point", "coordinates": [ 99.8405, 6.3278, 99.8405 ] } },
{ "type": "Feature", "properties": { "Name_CH": "吉打樟仑普救寺", "Name_ML": "Pertubuhan Penganut Ajaran Phoo Kiu Se", "Name_EN": null, "Location": "Tokong Phoo Kiu Se, Jalan Sintol, 06010 Changlun, Kedah.", "Longitude": 100.5183622, "Latitude": 6.4162552, "Region": "Kedah", "Category": "宗教", "PageNumber": "52" }, "geometry": { "type": "Point", "coordinates": [ 100.5184, 6.4163, 100.5184 ] } },
{ "type": "Feature", "properties": { "Name_CH": "吉打樟仑佛教会", "Name_ML": "Persatuan Buddist Changlun", "Name_EN": "Changlun Buddhist Association", "Location": "87, Taman Changlun, Jalan Sintok, 06010 Changlun, Kedah.", "Longitude": 100.4364106, "Latitude": 6.4337078, "Region": "Kedah", "Category": "宗教", "PageNumber": "52" }, "geometry": { "type": "Point", "coordinates": [ 100.4364, 6.4337, 100.4364 ] } },
{ "type": "Feature", "properties": { "Name_CH": "吉南西岭德教会紫峰阁", "Name_ML": null, "Name_EN": "Chee Hong Khor Moral Uplifting Society", "Location": "106-C, Jalan Raya, 09800 Serdang Kedah.", "Longitude": 100.6421799, "Latitude": 5.2399823, "Region": "Kedah", "Category": "宗教", "PageNumber": "53" }, "geometry": { "type": "Point", "coordinates": [ 100.6422, 5.24, 100.6422 ] } },
{ "type": "Feature", "properties": { "Name_CH": "麻坑大伯公理事会", "Name_ML": "Pertubuhan Penganut Tai Pak Kong", "Name_EN": null, "Location": "Lot 908, Tepi Sungai Kerian, 09500 Karangan, Pekan Mahang, Kulim, Kedah.", "Longitude": 100.7547581, "Latitude": 5.324538, "Region": "Kedah", "Category": "宗教", "PageNumber": "53" }, "geometry": { "type": "Point", "coordinates": [ 100.7548, 5.3245, 100.7548 ] } },
{ "type": "Feature", "properties": { "Name_CH": "居林菩提连社", "Name_ML": "Pertubuhan Pu Ti Lian She Kulim Kedah", "Name_EN": null, "Location": "Lot 17, Lorong Sekolah Convent Jalan Bukit Awi, 09000 Kulim, Kedah.", "Longitude": 100.5486378, "Latitude": 5.3635611, "Region": "Kedah", "Category": "宗教", "PageNumber": "53" }, "geometry": { "type": "Point", "coordinates": [ 100.5486, 5.3636, 100.5486 ] } },
{ "type": "Feature", "properties": { "Name_CH": "居林佛恩功德会", "Name_ML": "Pertubuhan Bakti Fo En Bandar Kulim Kedah", "Name_EN": null, "Location": "74 Lorong Semarak 3, Taman Semarak, 09000 Kulim, Kedah.", "Longitude": 100.5407398, "Latitude": 5.3779714, "Region": "Kedah", "Category": "宗教", "PageNumber": "53" }, "geometry": { "type": "Point", "coordinates": [ 100.5407, 5.378, 100.5407 ] } },
{ "type": "Feature", "properties": { "Name_CH": "加拉岸永来观音庙", "Name_ML": "Persataun Penganut Dewa Eng Lai Kuan In Pekan Karangan", "Name_EN": null, "Location": "165, Pekan Karangan, 09700 Karangan, Kedah.", "Longitude": 100.6674156, "Latitude": 5.4205609, "Region": "Kedah", "Category": "宗教", "PageNumber": "53" }, "geometry": { "type": "Point", "coordinates": [ 100.6674, 5.4206, 100.6674 ] } },
{ "type": "Feature", "properties": { "Name_CH": "吉中庆隆花园福德祠理事会", "Name_ML": "Pertubuhan Pengikut Tokong Hock Teik Soo Taman Keladi", "Name_EN": null, "Location": "1, Lorong Angsana 1, Taman Keladi, 08000 Sungai Petani, Kedah.", "Longitude": 100.5011797, "Latitude": 5.6164019, "Region": "Kedah", "Category": "宗教", "PageNumber": "53" }, "geometry": { "type": "Point", "coordinates": [ 100.5012, 5.6164, 100.5012 ] } },
{ "type": "Feature", "properties": { "Name_CH": "居邦慈音佛学会", "Name_ML": "Pertubuhan Buddhist Tze Yin Kupang Baling", "Name_EN": null, "Location": "99, Jalan Gadek, Kupang, Baling, Kedah.", "Longitude": 100.8442524, "Latitude": 5.6344544, "Region": "Kedah", "Category": "宗教", "PageNumber": "53" }, "geometry": { "type": "Point", "coordinates": [ 100.8443, 5.6345, 100.8443 ] } },
{ "type": "Feature", "properties": { "Name_CH": "吉中双溪大年德教会紫修阁", "Name_ML": null, "Name_EN": "Chee Siew Kok Moral Uplifting Society", "Location": "390, Taman lntan, 08000 Sungai Petani, Kedah.", "Longitude": 100.4732147, "Latitude": 5.6356549, "Region": "Kedah", "Category": "宗教", "PageNumber": "53" }, "geometry": { "type": "Point", "coordinates": [ 100.4732, 5.6357, 100.4732 ] } },
{ "type": "Feature", "properties": { "Name_CH": "吉中佛教会", "Name_ML": "Persatuan Buddhist Kedah Tengah", "Name_EN": "Central Kedah Buddhist Association", "Location": "5-F, Jalan Kampung Baru, 08000 Sungai Petani, Kedah.", "Longitude": 100.4884533, "Latitude": 5.6378644, "Region": "Kedah", "Category": "宗教", "PageNumber": "53" }, "geometry": { "type": "Point", "coordinates": [ 100.4885, 5.6379, 100.4885 ] } },
{ "type": "Feature", "properties": { "Name_CH": "吉中徳教会立善阁", "Name_ML": "Persatuan Pendidikan Akhlak Lip Seang Kor", "Name_EN": null, "Location": "188, Air Mendidih, Jalan Badlishah,  08000 Sungai Petani, Kedah.", "Longitude": 100.4957331, "Latitude": 5.6494413, "Region": "Kedah", "Category": "宗教", "PageNumber": "53" }, "geometry": { "type": "Point", "coordinates": [ 100.4957, 5.6494, 100.4957 ] } },
{ "type": "Feature", "properties": { "Name_CH": "马来西亚创价会吉打州分会", "Name_ML": "Persatuan Soka Gakkai Malaysia (Cawangan Kedah)", "Name_EN": null, "Location": "55, Komplek Alor Malal Batu 2, Jalan Langgar, 05460 Alor Setar, Kedah.", "Longitude": 100.3855847, "Latitude": 6.1263811, "Region": "Kedah", "Category": "宗教", "PageNumber": "53" }, "geometry": { "type": "Point", "coordinates": [ 100.3856, 6.1264, 100.3856 ] } },
{ "type": "Feature", "properties": { "Name_CH": "日得拉灵兴庙", "Name_ML": "Rumah Berhala Leng Heng Meow", "Name_EN": "Leng Heng Meow Temple", "Location": "Jalan Dato Seri Osman Aroff, 06000 Jitra, Kedah.", "Longitude": 100.428257, "Latitude": 6.2555782, "Region": "Kedah", "Category": "宗教", "PageNumber": "53" }, "geometry": { "type": "Point", "coordinates": [ 100.4283, 6.2556, 100.4283 ] } },
{ "type": "Feature", "properties": { "Name_CH": "三巴央佛教会", "Name_ML": "Persatuan Penganut Agama Buddha", "Name_EN": "Junjong Buddhist Association", "Location": "Plot 25, Lot 416, Mukim Junjong, 09000 Kulim, Kedah.", "Longitude": 100.5370695, "Latitude": 5.2997054, "Region": "Kedah", "Category": "宗教", "PageNumber": "54" }, "geometry": { "type": "Point", "coordinates": [ 100.5371, 5.2997, 100.5371 ] } },
{ "type": "Feature", "properties": { "Name_CH": "真佛宗北马同修会", "Name_ML": "Pertubuhan Penganut Buddha Chen Foh Chong Kedah Selatan", "Name_EN": null, "Location": "18 Tingkat 2, Jalan Selasih, Taman Semarak, 09000 Kulim, Kedah.", "Longitude": 100.539049, "Latitude": 5.3777893, "Region": "Kedah", "Category": "宗教", "PageNumber": "54" }, "geometry": { "type": "Point", "coordinates": [ 100.539, 5.3778, 100.539 ] } },
{ "type": "Feature", "properties": { "Name_CH": "水莲南无观世音菩萨", "Name_ML": "Pertubuhan Penganut Ajaran Chui Lean Nam Mo Kwan Si Yin Pu Sat Sungai Petani Kedah", "Name_EN": null, "Location": "29, Taman Indah, 08000 Sungai Petani, Kedah.", "Longitude": 100.4841817, "Latitude": 5.6272258, "Region": "Kedah", "Category": "宗教", "PageNumber": "54" }, "geometry": { "type": "Point", "coordinates": [ 100.4842, 5.6272, 100.4842 ] } },
{ "type": "Feature", "properties": { "Name_CH": "双溪大年老街场斗母宫", "Name_ML": "Pertubuhan Penganut Tow Boo Keong Pekan Lama Sungai Petani Kedah", "Name_EN": null, "Location": "424 B, Pekan Lama, 08000 Sungai Petani, Kedah.", "Longitude": 100.4921772, "Latitude": 5.6392792, "Region": "Kedah", "Category": "宗教", "PageNumber": "54" }, "geometry": { "type": "Point", "coordinates": [ 100.4922, 5.6393, 100.4922 ] } },
{ "type": "Feature", "properties": { "Name_CH": "双溪大年新街场新公市莱菜市及各业圣王公理事会", "Name_ML": "Persatuan Penganut Tokong Seah Ong Kong Pasar", "Name_EN": null, "Location": "84-K, Jalan Pengam, Pekan Baru, 08000 Sungai Petani, Kedah.", "Longitude": 100.485679, "Latitude": 5.63982, "Region": "Kedah", "Category": "宗教", "PageNumber": "54" }, "geometry": { "type": "Point", "coordinates": [ 100.4857, 5.6398, 100.4857 ] } },
{ "type": "Feature", "properties": { "Name_CH": "元帅宫", "Name_ML": "Pertubuhan Penganut Yuen Shuai Gong Jin Huang Da Di", "Name_EN": null, "Location": "649, Lorong 96, Taman Ria, 08000 Sungai Petani, Kedah.", "Longitude": 100.5087509, "Latitude": 5.664497, "Region": "Kedah", "Category": "宗教", "PageNumber": "54" }, "geometry": { "type": "Point", "coordinates": [ 100.5088, 5.6645, 100.5088 ] } },
{ "type": "Feature", "properties": { "Name_CH": "新文英佛教会", "Name_ML": "Persatuan Agama Buddha Semeiling Kedah", "Name_EN": null, "Location": "106 Kg. Baru Semeling, 08100 Bedong, Kedah.", "Longitude": 100.464947, "Latitude": 5.7052553, "Region": "Kedah", "Category": "宗教", "PageNumber": "54" }, "geometry": { "type": "Point", "coordinates": [ 100.4649, 5.7053, 100.4649 ] } },
{ "type": "Feature", "properties": { "Name_CH": "亚罗士打道德会", "Name_ML": "Pertubuhan Akhlak Tao Alor Setar", "Name_EN": null, "Location": "1A, Jalan Tokong Simpang Kuala, Alor Setar, Kedah.", "Longitude": 100.3666579, "Latitude": 6.099389, "Region": "Kedah", "Category": "宗教", "PageNumber": "54" }, "geometry": { "type": "Point", "coordinates": [ 100.3667, 6.0994, 100.3667 ] } },
{ "type": "Feature", "properties": { "Name_CH": "真耶苏教会", "Name_ML": "Gereja Jesus Benar Alor Setar Kedah", "Name_EN": null, "Location": "1073 Bee Bee Park, 05400 Alor Setar, Kedah.", "Longitude": 100.36769, "Latitude": 6.119359, "Region": "Kedah", "Category": "宗教", "PageNumber": "54" }, "geometry": { "type": "Point", "coordinates": [ 100.3677, 6.1194, 100.3677 ] } },
{ "type": "Feature", "properties": { "Name_CH": "元真坛", "Name_ML": "Pertubuhan Pengajian Tao (Yen Chern)", "Name_EN": null, "Location": "1111, Lorong Pekaka, Jalan Tunku Abdul Halim, 05100 Jalan Terok Wanjau, Alor Star, Kedah.", "Longitude": 100.369515, "Latitude": 6.127284, "Region": "Kedah", "Category": "宗教", "PageNumber": "54" }, "geometry": { "type": "Point", "coordinates": [ 100.3695, 6.1273, 100.3695 ] } },
{ "type": "Feature", "properties": { "Name_CH": "真佛宗法显堂", "Name_ML": "Pertubuhan Chen Fo Cong Fa Xian Tang Alor Setar Kedah", "Name_EN": null, "Location": "K-20 Rumah Kedai Perumahan Awam Mergong, 051510 Alor Setar, Kedah.", "Longitude": 100.360535, "Latitude": 6.131662, "Region": "Kedah", "Category": "宗教", "PageNumber": "54" }, "geometry": { "type": "Point", "coordinates": [ 100.3605, 6.1317, 100.3605 ] } },
{ "type": "Feature", "properties": { "Name_CH": "日得拉玉皇大帝庙", "Name_ML": "Persatuan Penganut Dewa Gek Hong Tai Tee Kedah Utara", "Name_EN": null, "Location": null, "Longitude": null, "Latitude": null, "Region": "Kedah", "Category": "宗教", "PageNumber": "54" }, "geometry": null },
{ "type": "Feature", "properties": { "Name_CH": "竹城沤孟兰胜会", "Name_ML": "Pertubuhan Khairat Kematian Kaum Cina Kota Sarang Semut MK Sla Kecil Alor Star, Kedah", "Name_EN": null, "Location": "43, Jalan Pengkalan Kapal, Kota Sarang Semut, Alor Star, Kedah. ", "Longitude": 100.4826035, "Latitude": 5.6397566, "Region": "Kedah", "Category": "宗教", "PageNumber": "55" }, "geometry": { "type": "Point", "coordinates": [ 100.4826, 5.6398, 100.4826 ] } },
{ "type": "Feature", "properties": { "Name_CH": "本同佛教会", "Name_ML": "Persatuan Buddhist Pendang Kedah", "Name_EN": null, "Location": "43 Jalan Titi Lama, 06700 Pendang, Kedah.", "Longitude": 100.5746224, "Latitude": 6.0072868, "Region": "Kedah", "Category": "宗教", "PageNumber": "55" }, "geometry": { "type": "Point", "coordinates": [ 100.5746, 6.0073, 100.5746 ] } },
{ "type": "Feature", "properties": { "Name_CH": "巴东昔拉庆兴庙", "Name_ML": "Pertubuhan Penganut Dewan Keng Heng Hong Beow Padang Sera", "Name_EN": null, "Location": "Dewan Keng Hong Beow Padang Sera, 06100 Kodiang, Kedah.", "Longitude": 100.3425708, "Latitude": 6.3541984, "Region": "Kedah", "Category": "宗教", "PageNumber": "55" }, "geometry": { "type": "Point", "coordinates": [ 100.3426, 6.3542, 100.3426 ] } },
{ "type": "Feature", "properties": { "Name_CH": "吉北高岭佛教会", "Name_ML": "Persatuan Buddhist Kodiang Kedah", "Name_EN": null, "Location": "118D, Taman Hossana, Jalan Changlua, 06100 Kodiang, Kedah.", "Longitude": 100.30572, "Latitude": 6.393317, "Region": "Kedah", "Category": "宗教", "PageNumber": "55" }, "geometry": { "type": "Point", "coordinates": [ 100.3057, 6.3933, 100.3057 ] } }
]
}
