{
"type": "FeatureCollection",
"name": "Category_5",
"crs": { "type": "name", "properties": { "name": "urn:ogc:def:crs:OGC:1.3:CRS84" } },
"features": [
{ "type": "Feature", "properties": { "Name_CH": "北海威省林氏西河堂", "Name_ML": "Um See Sai Hoe Tong Province Wellesley", "Name_EN": null, "Location": "Lot 548\/549, Lorong Kubor, 12200 Butterworth, Province Wellesley.", "Region": "Penang", "Category": "血缘", "PageNumber": 67, "Country": "Malaysia", "latitude": 5.4106081, "longitude": 100.3756324 }, "geometry": { "type": "Point", "coordinates": [ 100.3756324, 5.4106081 ] } },
{ "type": "Feature", "properties": { "Name_CH": "北海威省陈氏颍川堂", "Name_ML": "Persatuan Tan Si Eng Chuan Tong", "Name_EN": null, "Location": "18, Jalan Kg. Paya, 12200 Butterworth, Province Wellesley.", "Region": "Penang", "Category": "血缘", "PageNumber": 67, "Country": "Malaysia", "latitude": 5.419234, "longitude": 100.3781718 }, "geometry": { "type": "Point", "coordinates": [ 100.3781718, 5.419234 ] } },
{ "type": "Feature", "properties": { "Name_CH": "北海陇西堂", "Name_ML": "Persatuan Leong Say Tong(Keturunan Kaum Lee,Phee,Tung) Butterworth", "Name_EN": null, "Location": "No.17, Jalan Cerijalan Raja Uda, Butterworth, Province Wellesley.", "Region": "Penang", "Category": "血缘", "PageNumber": 67, "Country": "Malaysia", "latitude": 5.428733, "longitude": 100.3837053 }, "geometry": { "type": "Point", "coordinates": [ 100.3837053, 5.428733 ] } },
{ "type": "Feature", "properties": { "Name_CH": "北海江夏堂黄氏宗祠", "Name_ML": "Kang Har Tong Ooi Si Chong Soo", "Name_EN": null, "Location": "287, Permatang Tengah, Jalan Sungai Puyu, 13000 Butterworth, Province Wellesley.", "Region": "Penang", "Category": "血缘", "PageNumber": 67, "Country": "Malaysia", "latitude": 5.4483345, "longitude": 100.3960971 }, "geometry": { "type": "Point", "coordinates": [ 100.3960971, 5.4483345 ] } },
{ "type": "Feature", "properties": { "Name_CH": "北赖林氏宗亲会", "Name_ML": "Persatuan Keturunan Um Shee Chong Cheng Hui Perai", "Name_EN": null, "Location": "47, Lorong Kurau 31, Tmn. Chai Leng, 13700 Perai, Seberang Perai Tengah.", "Region": "Penang", "Category": "血缘", "PageNumber": 67, "Country": "Malaysia", "latitude": 5.3859362, "longitude": 100.3962999 }, "geometry": { "type": "Point", "coordinates": [ 100.3962999, 5.3859362 ] } },
{ "type": "Feature", "properties": { "Name_CH": "北马邓氏南阳堂", "Name_ML": null, "Name_EN": "North Malaya Tang's (Nanyang Tong) Association", "Location": "72-J Jalan Anson, 10400 Pulau Pinang", "Region": "Penang", "Category": "血缘", "PageNumber": 68, "Country": "Malaysia", "latitude": 5.4165677, "longitude": 100.3209414 }, "geometry": { "type": "Point", "coordinates": [ 100.3209414, 5.4165677 ] } },
{ "type": "Feature", "properties": { "Name_CH": "北马六桂堂", "Name_ML": "North Mayaysia Leok Kooi Tong", "Name_EN": null, "Location": "45, Jalan Westland, 10400 Pulau Pinang.", "Region": "Penang", "Category": "血缘", "PageNumber": 68, "Country": "Malaysia", "latitude": 5.4210147, "longitude": 100.3212686 }, "geometry": { "type": "Point", "coordinates": [ 100.3212686, 5.4210147 ] } },
{ "type": "Feature", "properties": { "Name_CH": "北马符氏宗祠", "Name_ML": "Persatuan Foo See Seah Wilayah Utara", "Name_EN": null, "Location": "12-A, Aboo Sittee Lane, 10400 Pulau Pinang.", "Region": "Penang", "Category": "血缘", "PageNumber": 68, "Country": "Malaysia", "latitude": 5.4199235, "longitude": 100.3247748 }, "geometry": { "type": "Point", "coordinates": [ 100.3247748, 5.4199235 ] } },
{ "type": "Feature", "properties": { "Name_CH": "北马厚美张氏同乡会", "Name_ML": null, "Name_EN": "How Bee (Village) Teoh Clan Association", "Location": "33, Jalan Nagore, 10500 Pulau Pinang.", "Region": "Penang", "Category": "血缘", "PageNumber": 68, "Country": "Malaysia", "latitude": 5.4211987, "longitude": 100.3261846 }, "geometry": { "type": "Point", "coordinates": [ 100.3261846, 5.4211987 ] } },
{ "type": "Feature", "properties": { "Name_CH": "北马赖氏宗祠", "Name_ML": "Pertubuhan Keturunan Cong Su Lai Malaysia Utara", "Name_EN": null, "Location": "114, Jalan Noordin, 10300 Pulau Pinang.", "Region": "Penang", "Category": "血缘", "PageNumber": 68, "Country": "Malaysia", "latitude": 5.41202, "longitude": 100.3301639 }, "geometry": { "type": "Point", "coordinates": [ 100.3301639, 5.41202 ] } },
{ "type": "Feature", "properties": { "Name_CH": "北马六桥林氏公会", "Name_ML": null, "Name_EN": "Leok Keow Um Si Association", "Location": "21, Jalan Sri Bahari, 10050 Pulau Pinang.", "Region": "Penang", "Category": "血缘", "PageNumber": 68, "Country": "Malaysia", "latitude": 5.4209876, "longitude": 100.3321243 }, "geometry": { "type": "Point", "coordinates": [ 100.3321243, 5.4209876 ] } },
{ "type": "Feature", "properties": { "Name_CH": "北马何氏公会", "Name_ML": "Ho Si Koong Hui (North Malaya)", "Name_EN": null, "Location": "9, Jalan Sungai Ujong, 10100 Pulau Pinang.", "Region": "Penang", "Category": "血缘", "PageNumber": 68, "Country": "Malaysia", "latitude": 5.4160068, "longitude": 100.3323147 }, "geometry": { "type": "Point", "coordinates": [ 100.3323147, 5.4160068 ] } },
{ "type": "Feature", "properties": { "Name_CH": "北马洪氏宗祠", "Name_ML": "North Malaya Ang Si Chong Soo, Butterworth", "Name_EN": null, "Location": "86, Pantai Bersih Bagam Ajam, 13000 Butterworth", "Region": "Penang", "Category": "血缘", "PageNumber": 68, "Country": "Malaysia", "latitude": 5.4445183, "longitude": 100.3799959 }, "geometry": { "type": "Point", "coordinates": [ 100.3799959, 5.4445183 ] } },
{ "type": "Feature", "properties": { "Name_CH": "北马龙山堂", "Name_ML": "Persatuan Leng Sun Tong Malaysia Utara", "Name_EN": null, "Location": "No.1864, Mk 14, Jalan Besar, Taman Markisah, 14000 Bukit Mertajam, Penang.", "Region": "Penang", "Category": "血缘", "PageNumber": 68, "Country": "Malaysia", "latitude": 5.3793457, "longitude": 100.3982382 }, "geometry": { "type": "Point", "coordinates": [ 100.3982382, 5.3793457 ] } },
{ "type": "Feature", "properties": { "Name_CH": "北马渤海堂高甘吴宗祠", "Name_ML": "Persatuan Puat Hai Tong Utara Malaysia", "Name_EN": null, "Location": "No.5, Jalan Melor Bukit Mertajam, Penang.", "Region": "Penang", "Category": "血缘", "PageNumber": 68, "Country": "Malaysia", "latitude": 5.360977, "longitude": 100.463403 }, "geometry": { "type": "Point", "coordinates": [ 100.463403, 5.360977 ] } },
{ "type": "Feature", "properties": { "Name_CH": "北马宝树堂", "Name_ML": "Persatuan Bao Shu Tang (M) Utara", "Name_EN": null, "Location": "2112, Jalan Berapit, 14000 Bukit Mentajam, Penang.", "Region": "Penang", "Category": "血缘", "PageNumber": 68, "Country": "Malaysia", "latitude": 5.3733142, "longitude": 100.4663698 }, "geometry": { "type": "Point", "coordinates": [ 100.4663698, 5.3733142 ] } },
{ "type": "Feature", "properties": { "Name_CH": "北马(倪氏)千乘堂", "Name_ML": "Persatuan Keturunan Ni Utara Semenanjung Malaysia", "Name_EN": null, "Location": "9, Jalan Tiong Mas, Taman Tiong Mas, 14100 Simpang Ampat, Province Wellesley South.", "Region": "Penang", "Category": "血缘", "PageNumber": 68, "Country": "Malaysia", "latitude": 5.2751352, "longitude": 100.4780966 }, "geometry": { "type": "Point", "coordinates": [ 100.4780966, 5.2751352 ] } },
{ "type": "Feature", "properties": { "Name_CH": "北马涂氏公会", "Name_ML": "Persatuan Keturunan Thor Utara Semenanjung Malaysia", "Name_EN": "North Malaysia Thor Clan Association", "Location": "No.354 H, Jalan Batu Maung, Pulau Pinang.", "Region": "Penang", "Category": "血缘", "PageNumber": 69, "Country": "Malaysia", "latitude": 5.2915644, "longitude": 100.2776462 }, "geometry": { "type": "Point", "coordinates": [ 100.2776462, 5.2915644 ] } },
{ "type": "Feature", "properties": { "Name_CH": "北马颜氏公会", "Name_ML": null, "Name_EN": "The Gan Association Of North Malaysia", "Location": "61, Jalan Perak, 10150 Penang.", "Region": "Penang", "Category": "血缘", "PageNumber": 69, "Country": "Malaysia", "latitude": 5.4172537, "longitude": 100.3169717 }, "geometry": { "type": "Point", "coordinates": [ 100.3169717, 5.4172537 ] } },
{ "type": "Feature", "properties": { "Name_CH": "北马谢氏宗祠", "Name_ML": "Persatuan Keturunan Kaum Cheah Malaya Utara", "Name_EN": "North Malaya Cheah Si Chong Soo", "Location": "22, Jalan Pangkor, 10050 Pulau Pinang.", "Region": "Penang", "Category": "血缘", "PageNumber": 69, "Country": "Malaysia", "latitude": 5.4254015, "longitude": 100.3173182 }, "geometry": { "type": "Point", "coordinates": [ 100.3173182, 5.4254015 ] } },
{ "type": "Feature", "properties": { "Name_CH": "槟城郭氏汾阳堂", "Name_ML": "Kong Si Hoon Yeong Tong", "Name_EN": "Koay Si Hoon Yeong Tong, Penang", "Location": "234, Macalister Road, 10400 Penang.", "Region": "Penang", "Category": "血缘", "PageNumber": 69, "Country": "Malaysia", "latitude": 5.4191678, "longitude": 100.3183173 }, "geometry": { "type": "Point", "coordinates": [ 100.3183173, 5.4191678 ] } },
{ "type": "Feature", "properties": { "Name_CH": "北马沈氏宗祠", "Name_ML": "Sim Clan Ancestral Hall North Malaya", "Name_EN": null, "Location": "37, Lorong Abu Siti, 10400 Pulau Pinang.", "Region": "Penang", "Category": "血缘", "PageNumber": 69, "Country": "Malaysia", "latitude": 5.4181874, "longitude": 100.3240702 }, "geometry": { "type": "Point", "coordinates": [ 100.3240702, 5.4181874 ] } },
{ "type": "Feature", "properties": { "Name_CH": "北马锤氏公会", "Name_ML": null, "Name_EN": "North Malaya Choong Clan Association", "Location": "71 Rangoon Road, 10400 Pulau Pinang.", "Region": "Penang", "Category": "血缘", "PageNumber": 69, "Country": "Malaysia", "latitude": 5.4170426, "longitude": 100.324116 }, "geometry": { "type": "Point", "coordinates": [ 100.324116, 5.4170426 ] } },
{ "type": "Feature", "properties": { "Name_CH": "北马沙堤赵氏公会", "Name_ML": null, "Name_EN": "Teow Si Association", "Location": "161-D, Jalan Argyll, 10050 Pulau Pinang.", "Region": "Penang", "Category": "血缘", "PageNumber": 69, "Country": "Malaysia", "latitude": 5.4216601, "longitude": 100.3304353 }, "geometry": { "type": "Point", "coordinates": [ 100.3304353, 5.4216601 ] } },
{ "type": "Feature", "properties": { "Name_CH": "槟城长林社", "Name_ML": "Siang Lim Seah", "Name_EN": null, "Location": "17, Jalan Pintal Tali, 10100 Pulau Pinang.", "Region": "Penang", "Category": "血缘", "PageNumber": 69, "Country": "Malaysia", "latitude": 5.4181802, "longitude": 100.3351732 }, "geometry": { "type": "Point", "coordinates": [ 100.3351732, 5.4181802 ] } },
{ "type": "Feature", "properties": { "Name_CH": "槟城海南陈氏宗祠", "Name_ML": "Persatuan Keturunan Tan Hainan Pulau Pinang", "Name_EN": "Penang Hainan Tan Clan Association", "Location": "20, Lorong Chulia, 10200 Pulau Pinang.", "Region": "Penang", "Category": "血缘", "PageNumber": 69, "Country": "Malaysia", "latitude": 5.419008, "longitude": 100.337715 }, "geometry": { "type": "Point", "coordinates": [ 100.337715, 5.419008 ] } },
{ "type": "Feature", "properties": { "Name_CH": "槟城兑山李氏乡谊会", "Name_ML": "Persatuan Kaum Lee Tay Sun Penang", "Name_EN": null, "Location": "l-A , Lee Jetty Weld Quay, 10300 Pulau Pinang.", "Region": "Penang", "Category": "血缘", "PageNumber": 69, "Country": "Malaysia", "latitude": 5.4119122, "longitude": 100.3378172 }, "geometry": { "type": "Point", "coordinates": [ 100.3378172, 5.4119122 ] } },
{ "type": "Feature", "properties": { "Name_CH": "庇能陈氏宗祠", "Name_ML": "Chin Si Toong Soo", "Name_EN": null, "Location": "64, Lebuh King, 10200 Penang.", "Region": "Penang", "Category": "血缘", "PageNumber": 69, "Country": "Malaysia", "latitude": 5.4175979, "longitude": 100.3394887 }, "geometry": { "type": "Point", "coordinates": [ 100.3394887, 5.4175979 ] } },
{ "type": "Feature", "properties": { "Name_CH": "槟城广东李氏宗祠", "Name_ML": "Penang Kwong Thung Lee See Chung Chie", "Name_EN": null, "Location": "39, Lebuh King, 10200 Pulau Pinang.", "Region": "Penang", "Category": "血缘", "PageNumber": 69, "Country": "Malaysia", "latitude": 5.4178697, "longitude": 100.3399779 }, "geometry": { "type": "Point", "coordinates": [ 100.3399779, 5.4178697 ] } },
{ "type": "Feature", "properties": { "Name_CH": "槟城林氏圣母堂", "Name_ML": "Dewan Suci Um Si Seng Bo", "Name_EN": null, "Location": "7135, Blok-J, Mkl2, Pusat P. Semula, Jalan Permatang Damai Laut, 11960 Pulau pinang.", "Region": "Penang", "Category": "血缘", "PageNumber": 70, "Country": "Malaysia", "latitude": 5.2814868, "longitude": 100.2732198 }, "geometry": { "type": "Point", "coordinates": [ 100.2732198, 5.2814868 ] } },
{ "type": "Feature", "properties": { "Name_CH": "槟城姜氏宗亲会", "Name_ML": "Pertubuhan Keturunan Keoh Pulau Pinang", "Name_EN": null, "Location": "100-14-H, Jalan Tan Sri Teh Ewe Um, Pulau Pinang.", "Region": "Penang", "Category": "血缘", "PageNumber": 70, "Country": "Malaysia", "latitude": 5.3664111, "longitude": 100.4543557 }, "geometry": { "type": "Point", "coordinates": [ 100.4543557, 5.3664111 ] } },
{ "type": "Feature", "properties": { "Name_CH": "槟城林氏溪东公会", "Name_ML": "Persatuan Kaum Lim Khay Tang, Penang", "Name_EN": null, "Location": "83-E, Air Itam Road, 10460 Penang.", "Region": "Penang", "Category": "血缘", "PageNumber": 70, "Country": "Malaysia", "latitude": 5.4128419, "longitude": 100.3102579 }, "geometry": { "type": "Point", "coordinates": [ 100.3102579, 5.4128419 ] } },
{ "type": "Feature", "properties": { "Name_CH": "槟城济阳堂辛柯蔡宗祠", "Name_ML": "Penang Choy Yeong Tong Sin Quah Chuah Chong Soo", "Name_EN": null, "Location": "37, Codrington Avenue, 10350 Penang.", "Region": "Penang", "Category": "血缘", "PageNumber": 70, "Country": "Malaysia", "latitude": 5.4292525, "longitude": 100.3130778 }, "geometry": { "type": "Point", "coordinates": [ 100.3130778, 5.4292525 ] } },
{ "type": "Feature", "properties": { "Name_CH": "槟城李氏宗祠", "Name_ML": "Persatuan Lee Sih Chong Soo Pulau Pinang", "Name_EN": "Lee Sih Chong Soo Penang", "Location": "182-A, Jalan Burma, 10050 Pulau Pinang.", "Region": "Penang", "Category": "血缘", "PageNumber": 70, "Country": "Malaysia", "latitude": 5.4253566, "longitude": 100.3191223 }, "geometry": { "type": "Point", "coordinates": [ 100.3191223, 5.4253566 ] } },
{ "type": "Feature", "properties": { "Name_CH": "槟城江夏堂黄公司", "Name_ML": "Penang Kang Har Tong Ooi Kongsi", "Name_EN": null, "Location": "112, Jalan Jelutong, 11600 Pulau Pinang.", "Region": "Penang", "Category": "血缘", "PageNumber": 70, "Country": "Malaysia", "latitude": 5.4009496, "longitude": 100.3227453 }, "geometry": { "type": "Point", "coordinates": [ 100.3227453, 5.4009496 ] } },
{ "type": "Feature", "properties": { "Name_CH": "槟城黄氏坊前诗峰社", "Name_ML": "Ooi Si Pang Chnwee See Hong Seah", "Name_EN": null, "Location": "No.103, Lorong Selamat, 10400 Georgetown, Pulau Pinang.", "Region": "Penang", "Category": "血缘", "PageNumber": 70, "Country": "Malaysia", "latitude": 5.4169732, "longitude": 100.32495 }, "geometry": { "type": "Point", "coordinates": [ 100.32495, 5.4169732 ] } },
{ "type": "Feature", "properties": { "Name_CH": "槟城烈山五姓(吕，卢 ，高 ，许 ，记)宗祠", "Name_ML": "Persatuan Keturunan Liat-Sun (LoozLoh,Koh,Khaw,Kee)", "Name_EN": "Penang Liat-Sun (Loo,Loh,Koh,Khaw,Kee) Association", "Location": "No.28, Macalister Lane, 10400 Pulau Pinang.", "Region": "Penang", "Category": "血缘", "PageNumber": 70, "Country": "Malaysia", "latitude": 5.4147902, "longitude": 100.327685 }, "geometry": { "type": "Point", "coordinates": [ 100.327685, 5.4147902 ] } },
{ "type": "Feature", "properties": { "Name_CH": "槟城林氏忠孝堂", "Name_ML": "Persatuan Keturunan Lim Si Teong How Tong, Pulau Pinang", "Name_EN": "Penang Lim Si Teong How Tong", "Location": "64, Noordin Street, 10300 Penang.", "Region": "Penang", "Category": "血缘", "PageNumber": 70, "Country": "Malaysia", "latitude": 5.4116244, "longitude": 100.331157 }, "geometry": { "type": "Point", "coordinates": [ 100.331157, 5.4116244 ] } },
{ "type": "Feature", "properties": { "Name_CH": "槟城江氏公会", "Name_ML": "Persatuan Keturunan Kang Si Pulau Pinang", "Name_EN": null, "Location": "128, Jalan C. Y. Choy, 10300 Pulau Pinang", "Region": "Penang", "Category": "血缘", "PageNumber": 70, "Country": "Malaysia", "latitude": 5.4098106, "longitude": 100.3315373 }, "geometry": { "type": "Point", "coordinates": [ 100.3315373, 5.4098106 ] } },
{ "type": "Feature", "properties": { "Name_CH": "槟城林氏双桂堂", "Name_ML": "Lim Si Seang Kooi Tong Penang", "Name_EN": null, "Location": "234, Leboh Pantai, 10300 Penang.", "Region": "Penang", "Category": "血缘", "PageNumber": 70, "Country": "Malaysia", "latitude": 5.4150603, "longitude": 100.3387636 }, "geometry": { "type": "Point", "coordinates": [ 100.3387636, 5.4150603 ] } },
{ "type": "Feature", "properties": { "Name_CH": "槟城刘关张赵古城会", "Name_ML": "Koo Siang Wooi Penang", "Name_EN": null, "Location": "67, King Street, 10200 Penang.", "Region": "Penang", "Category": "血缘", "PageNumber": 70, "Country": "Malaysia", "latitude": 5.416394, "longitude": 100.332679 }, "geometry": { "type": "Point", "coordinates": [ 100.332679, 5.416394 ] } },
{ "type": "Feature", "properties": { "Name_CH": "槟城阮氏陈留堂", "Name_ML": "Persatuan Keturunan Kaum Goon Pulau Pinang", "Name_EN": null, "Location": "502, Pintasan Mayang 7,11950 Bayan Lepas, Pulau Pinang.", "Region": "Penang", "Category": "血缘", "PageNumber": 71, "Country": "Malaysia", "latitude": 5.3198825, "longitude": 100.2770012 }, "geometry": { "type": "Point", "coordinates": [ 100.2770012, 5.3198825 ] } },
{ "type": "Feature", "properties": { "Name_CH": "槟城施氏公会", "Name_ML": "Pertubuhan Keturunan See Pulau Pinang", "Name_EN": null, "Location": "2-7N Lintang Sempadam, 11400 Penang.", "Region": "Penang", "Category": "血缘", "PageNumber": 71, "Country": "Malaysia", "latitude": 5.406623, "longitude": 100.2887323 }, "geometry": { "type": "Point", "coordinates": [ 100.2887323, 5.406623 ] } },
{ "type": "Feature", "properties": { "Name_CH": "槟城史氏公会", "Name_ML": "Persatuan Soo Pulau Pinang", "Name_EN": "Penang Soo Association", "Location": "58-A, Jalan Cantonment, 10250 Penang.", "Region": "Penang", "Category": "血缘", "PageNumber": 71, "Country": "Malaysia", "latitude": 5.432531, "longitude": 100.3125428 }, "geometry": { "type": "Point", "coordinates": [ 100.3125428, 5.432531 ] } },
{ "type": "Feature", "properties": { "Name_CH": "槟城三省堂曾公司", "Name_ML": "Sum Seng Tong Chan Kongsi", "Name_EN": null, "Location": "63, Jalan Perak, 10150 Pulau Pinang.", "Region": "Penang", "Category": "血缘", "PageNumber": 71, "Country": "Malaysia", "latitude": 5.4169849, "longitude": 100.3170444 }, "geometry": { "type": "Point", "coordinates": [ 100.3170444, 5.4169849 ] } },
{ "type": "Feature", "properties": { "Name_CH": "槟城骆氏同宗社", "Name_ML": "Loh Si Tong Chong Seah Penang", "Name_EN": null, "Location": "34, Logan Road, 10400 Pulau Pinang.", "Region": "Penang", "Category": "血缘", "PageNumber": 71, "Country": "Malaysia", "latitude": 5.4209553, "longitude": 100.31905 }, "geometry": { "type": "Point", "coordinates": [ 100.31905, 5.4209553 ] } },
{ "type": "Feature", "properties": { "Name_CH": "槟城彭氏联宗会", "Name_ML": "Pertubuhan Kebajikan \"Phang\" Pulau Pinang", "Name_EN": "\"Phang\" Welfare Association, Penang ", "Location": "4th Floor, Wisma Tri-Super, 37-G, Jalan Cantoment, 10250 Penang.", "Region": "Penang", "Category": "血缘", "PageNumber": 71, "Country": "Malaysia", "latitude": 5.4387466, "longitude": 100.3189185 }, "geometry": { "type": "Point", "coordinates": [ 100.3189185, 5.4387466 ] } },
{ "type": "Feature", "properties": { "Name_CH": "槟城庐山堂苏连宗祠", "Name_ML": "Loh San Tong (Saw & Lean Kongsi)", "Name_EN": null, "Location": "C\/0 36, Jalan Burma, 10050 Pulau Pinang.", "Region": "Penang", "Category": "血缘", "PageNumber": 71, "Country": "Malaysia", "latitude": 5.4183278, "longitude": 100.3286176 }, "geometry": { "type": "Point", "coordinates": [ 100.3286176, 5.4183278 ] } },
{ "type": "Feature", "properties": { "Name_CH": "槟城王氏太原堂", "Name_ML": "Ong Si Thye Guan Tong Penang", "Name_EN": null, "Location": "436, Jalan Penang, 10000 Pulau Pinang.", "Region": "Penang", "Category": "血缘", "PageNumber": 71, "Country": "Malaysia", "latitude": 5.4153467, "longitude": 100.328667 }, "geometry": { "type": "Point", "coordinates": [ 100.328667, 5.4153467 ] } },
{ "type": "Feature", "properties": { "Name_CH": "槟城王氏一心社", "Name_ML": "Ong Si Eit Sim Sean", "Name_EN": null, "Location": "202, Jalan C.Y.Choy, 10300 Pulau Pinang.", "Region": "Penang", "Category": "血缘", "PageNumber": 71, "Country": "Malaysia", "latitude": 5.4083849, "longitude": 100.330445 }, "geometry": { "type": "Point", "coordinates": [ 100.330445, 5.4083849 ] } },
{ "type": "Feature", "properties": { "Name_CH": "槟城马氏扶风堂", "Name_ML": "Ma Si Foo Foong Tong Penang", "Name_EN": null, "Location": "2, Lorong Carnarvon, 10100 Pulau Pinang.", "Region": "Penang", "Category": "血缘", "PageNumber": 71, "Country": "Malaysia", "latitude": 5.4148738, "longitude": 100.3348892 }, "geometry": { "type": "Point", "coordinates": [ 100.3348892, 5.4148738 ] } },
{ "type": "Feature", "properties": { "Name_CH": "槟城绳德堂邱公司", "Name_ML": "Sin Teik Tong Khoo Kongsi Penang", "Name_EN": null, "Location": "No.377 Beach Street, Pulau Pinang.", "Region": "Penang", "Category": "血缘", "PageNumber": 71, "Country": "Malaysia", "latitude": 5.4124387, "longitude": 100.3357232 }, "geometry": { "type": "Point", "coordinates": [ 100.3357232, 5.4124387 ] } },
{ "type": "Feature", "properties": { "Name_CH": "槟城梅氏家庙", "Name_ML": "Moey She Temple Pow Pon Hong", "Name_EN": null, "Location": "31 Lebuh Penang, 10200 Penang.", "Region": "Penang", "Category": "血缘", "PageNumber": 71, "Country": "Malaysia", "latitude": 5.4179342, "longitude": 100.3407444 }, "geometry": { "type": "Point", "coordinates": [ 100.3407444, 5.4179342 ] } },
{ "type": "Feature", "properties": { "Name_CH": "槟吉余氏公会", "Name_ML": "Persekutuan Keturunan Yee Pulau Pinang Dan Kedah", "Name_EN": null, "Location": "1-2-8, Blok 1, 2nd Floor, 8, Jalan Tapah, Taman Sri Bunga, 11600 Pulau Pinang.", "Region": "Penang", "Category": "血缘", "PageNumber": 72, "Country": "Malaysia", "latitude": 5.3963797, "longitude": 100.313 }, "geometry": { "type": "Point", "coordinates": [ 100.313, 5.3963797 ] } },
{ "type": "Feature", "properties": { "Name_CH": "槟城郑氏荥阳堂", "Name_ML": "Persatuan Keturunan The Si Eng Eong Tong Pulau Pinang", "Name_EN": null, "Location": "148, Jalan Hutton, 10050 Pulau Pinang.", "Region": "Penang", "Category": "血缘", "PageNumber": 72, "Country": "Malaysia", "latitude": 5.4218419, "longitude": 100.3276219 }, "geometry": { "type": "Point", "coordinates": [ 100.3276219, 5.4218419 ] } },
{ "type": "Feature", "properties": { "Name_CH": "槟城王氏玉坂社", "Name_ML": "Persatuan Ong Si Geok Pan Penang", "Name_EN": "Penang Ong Si Geok Pan Seah", "Location": "56, Jalan Kedah, 10050 Pulau Pinang.", "Region": "Penang", "Category": "血缘", "PageNumber": 72, "Country": "Malaysia", "latitude": 5.4200818, "longitude": 100.3283534 }, "geometry": { "type": "Point", "coordinates": [ 100.3283534, 5.4200818 ] } },
{ "type": "Feature", "properties": { "Name_CH": "槟榔屿三都联络局", "Name_ML": "Persatuan Sam Toh Bean Lok Keok", "Name_EN": "Sam Toh Bean Lok Keok Penang.", "Location": "38-A, Jalan Sungai Ujong, 10100 Penang.", "Region": "Penang", "Category": "血缘", "PageNumber": 72, "Country": "Malaysia", "latitude": 5.4158265, "longitude": 100.3318203 }, "geometry": { "type": "Point", "coordinates": [ 100.3318203, 5.4158265 ] } },
{ "type": "Feature", "properties": { "Name_CH": "槟城至德宗亲会", "Name_ML": null, "Name_EN": "Penang Gee Tuck Clans Association", "Location": "33, Kimberley Street, 10100 Penang.", "Region": "Penang", "Category": "血缘", "PageNumber": 72, "Country": "Malaysia", "latitude": 5.4155301, "longitude": 100.3340251 }, "geometry": { "type": "Point", "coordinates": [ 100.3340251, 5.4155301 ] } },
{ "type": "Feature", "properties": { "Name_CH": "槟城周氏岐山堂", "Name_ML": "Chew Si Kee San Tong", "Name_EN": null, "Location": "No.33, Kimberlay Street, 10100 Penang.", "Region": "Penang", "Category": "血缘", "PageNumber": 72, "Country": "Malaysia", "latitude": 5.4155301, "longitude": 100.3340251 }, "geometry": { "type": "Point", "coordinates": [ 100.3340251, 5.4155301 ] } },
{ "type": "Feature", "properties": { "Name_CH": "槟城庄氏四美堂宗祠", "Name_ML": "Persatuan Ch' ng Si Soo Bee Tong", "Name_EN": "Ch' ng Si Soo Bee Tong", "Location": "26, Lebuh Kimberely, 10100 Pulau Pinang.", "Region": "Penang", "Category": "血缘", "PageNumber": 72, "Country": "Malaysia", "latitude": 5.4156781, "longitude": 100.3340868 }, "geometry": { "type": "Point", "coordinates": [ 100.3340868, 5.4156781 ] } },
{ "type": "Feature", "properties": { "Name_CH": "槟城杨氏公会", "Name_ML": "Persatuan Yeoh Si Pulau Pinang", "Name_EN": "Yeoh Si Association Penang", "Location": "20, Lebuh Melayu, 10100 Pulau Pinang.", "Region": "Penang", "Category": "血缘", "PageNumber": 72, "Country": "Malaysia", "latitude": 5.4131311, "longitude": 100.3355493 }, "geometry": { "type": "Point", "coordinates": [ 100.3355493, 5.4131311 ] } },
{ "type": "Feature", "properties": { "Name_CH": "槟城张氏清河堂", "Name_ML": "Teoh Si Cheng Hoe Tong", "Name_EN": null, "Location": "260-B Carnarvon Street, 10100 Penang.", "Region": "Penang", "Category": "血缘", "PageNumber": 72, "Country": "Malaysia", "latitude": 5.414603, "longitude": 100.332927 }, "geometry": { "type": "Point", "coordinates": [ 100.332927, 5.414603 ] } },
{ "type": "Feature", "properties": { "Name_CH": "槟城周桥公司", "Name_ML": "The Chew Jetty Kongsi Penang", "Name_EN": null, "Location": "65, Weld Quay Chew Jetty, 10300 Pulau Pinang.", "Region": "Penang", "Category": "血缘", "PageNumber": 72, "Country": "Malaysia", "latitude": 5.4127402, "longitude": 100.3396468 }, "geometry": { "type": "Point", "coordinates": [ 100.3396468, 5.4127402 ] } },
{ "type": "Feature", "properties": { "Name_CH": "槟榔屿江夏堂黄氏宗祠", "Name_ML": "Koong Har Tong Wong Si Chong Chi", "Name_EN": null, "Location": "No.39, Penang Street, 10200 Penang.", "Region": "Penang", "Category": "血缘", "PageNumber": 72, "Country": "Malaysia", "latitude": 5.417819, "longitude": 100.340554 }, "geometry": { "type": "Point", "coordinates": [ 100.340554, 5.417819 ] } },
{ "type": "Feature", "properties": { "Name_CH": "槟威汝南堂朱周袁蓝梅宗亲", "Name_ML": "Persatuan Klan Zhu Zhou Yuan Lan Mei", "Name_EN": null, "Location": "21 Jalan Limau 4, Taman Limau Manis, Bukit Tengah, 14999 Bukit Mertajam, Pulau Pinang.", "Region": "Penang", "Category": "血缘", "PageNumber": 72, "Country": "Malaysia", "latitude": 5.3523723, "longitude": 100.4379877 }, "geometry": { "type": "Point", "coordinates": [ 100.4379877, 5.3523723 ] } },
{ "type": "Feature", "properties": { "Name_CH": "陈氏潮塘社", "Name_ML": "Tan Sie Teoh T'ng Seah", "Name_EN": null, "Location": "361-A, Perak Road, Jelutong, 11600 Penang.", "Region": "Penang", "Category": "血缘", "PageNumber": 73, "Country": "Malaysia", "latitude": 5.3971152, "longitude": 100.3150502 }, "geometry": { "type": "Point", "coordinates": [ 100.3150502, 5.3971152 ] } },
{ "type": "Feature", "properties": { "Name_CH": "槟州林氏宗亲会联合会", "Name_ML": "Persekutuan Persatuan Keturunan Lim, Pulau Pinang", "Name_EN": null, "Location": "69, Lebuh Noordin, 10300 Pulau Pinang.", "Region": "Penang", "Category": "血缘", "PageNumber": 73, "Country": "Malaysia", "latitude": 5.4118557, "longitude": 100.3312087 }, "geometry": { "type": "Point", "coordinates": [ 100.3312087, 5.4118557 ] } },
{ "type": "Feature", "properties": { "Name_CH": "陈氏宗义社", "Name_ML": "Pertubuhan Tan Si Chong Ghee", "Name_EN": "Tan Si Chong Ghee Seah", "Location": "15, Lebuh Presgrave, 10300 Pulau Pinang.", "Region": "Penang", "Category": "血缘", "PageNumber": 73, "Country": "Malaysia", "latitude": 5.4105762, "longitude": 100.3317035 }, "geometry": { "type": "Point", "coordinates": [ 100.3317035, 5.4105762 ] } },
{ "type": "Feature", "properties": { "Name_CH": "槟州各姓氏宗祠联委会", "Name_ML": "Majlis Klan Cina, Pulau Pinang", "Name_EN": "Penang Chinese Clan Council", "Location": "48, Jalan Pinfal Tali, 10100 Penang.", "Region": "Penang", "Category": "血缘", "PageNumber": 73, "Country": "Malaysia", "latitude": 5.4173275, "longitude": 100.3344674 }, "geometry": { "type": "Point", "coordinates": [ 100.3344674, 5.4173275 ] } },
{ "type": "Feature", "properties": { "Name_CH": "陈氏联宗社", "Name_ML": "Persatuan Tan Si Lean Chong Seah", "Name_EN": "Tan Si Lean Chong Seah", "Location": "153, Lebuh Carnarvon, 10100 Pulau Pinang.", "Region": "Penang", "Category": "血缘", "PageNumber": 73, "Country": "Malaysia", "latitude": 5.4151039, "longitude": 100.3348479 }, "geometry": { "type": "Point", "coordinates": [ 100.3348479, 5.4151039 ] } },
{ "type": "Feature", "properties": { "Name_CH": "垂统堂邱公司", "Name_ML": "Swee Thong Tong Khoo Kongsi", "Name_EN": null, "Location": "377, Beach Street, 10300 Pulau pinang.", "Region": "Penang", "Category": "血缘", "PageNumber": 73, "Country": "Malaysia", "latitude": 5.4124387, "longitude": 100.3357232 }, "geometry": { "type": "Point", "coordinates": [ 100.3357232, 5.4124387 ] } },
{ "type": "Feature", "properties": { "Name_CH": "槟州南阳堂叶氏宗祠", "Name_ML": "Lum Yeong Tong Yap Temple", "Name_EN": null, "Location": "71, Armenian Street, 10200 Penang.", "Region": "Penang", "Category": "血缘", "PageNumber": 73, "Country": "Malaysia", "latitude": 5.4154076, "longitude": 100.3368522 }, "geometry": { "type": "Point", "coordinates": [ 100.3368522, 5.4154076 ] } },
{ "type": "Feature", "properties": { "Name_CH": "大山脚黄氏江夏堂", "Name_ML": "Persatuan Kung Har Tong B.M.", "Name_EN": null, "Location": "No.17, Jalan Aston, 14000 Bukit Mertajam, Province Wellesley.", "Region": "Penang", "Category": "血缘", "PageNumber": 73, "Country": "Malaysia", "latitude": 5.3635004, "longitude": 100.4631659 }, "geometry": { "type": "Point", "coordinates": [ 100.4631659, 5.3635004 ] } },
{ "type": "Feature", "properties": { "Name_CH": "大山脚陈氏颍川堂", "Name_ML": "Persatuan Tan Sze Eng Chuan Tong Bukit Mertajam", "Name_EN": null, "Location": "1807, Jalan Tanah Liat, 14000 Bukit Mertajam, Seberang Perai Tenga, Pulau Pinang.", "Region": "Penang", "Category": "血缘", "PageNumber": 73, "Country": "Malaysia", "latitude": 5.3995309, "longitude": 100.4647421 }, "geometry": { "type": "Point", "coordinates": [ 100.4647421, 5.3995309 ] } },
{ "type": "Feature", "properties": { "Name_CH": "大山脚林氏西河堂", "Name_ML": "Lim Si Say Ho Tong Bukit Mertajam", "Name_EN": null, "Location": "254, Jalan Dato Ooi Chooi Cheng, 14000 Bukit Mertajam, Pulau Pinang.", "Region": "Penang", "Category": "血缘", "PageNumber": 73, "Country": "Malaysia", "latitude": 5.3497688, "longitude": 100.5256374 }, "geometry": { "type": "Point", "coordinates": [ 100.5256374, 5.3497688 ] } },
{ "type": "Feature", "properties": { "Name_CH": "大山脚洪氏敦煌堂", "Name_ML": "Persatuan Ang Si Toon Hong Tong Bukit Mertajam", "Name_EN": null, "Location": "1656, Jalan Kulim, Taman Machong Bubok, 14020 Bukit Mertajam, Seberang Prai Tengah.", "Region": "Penang", "Category": "血缘", "PageNumber": 73, "Country": "Malaysia", "latitude": 5.3417789, "longitude": 100.505905 }, "geometry": { "type": "Point", "coordinates": [ 100.505905, 5.3417789 ] } },
{ "type": "Feature", "properties": { "Name_CH": "槟州各姓氏青年团联合委员会 ", "Name_ML": "Gabungan Belia Persatuan Klan Cina Pulau Pinang", "Name_EN": "Clan Associations Youth Committee Penang", "Location": "38-GF, Kompleks AAasyarakat Penyayang", "Region": "Penang", "Category": "血缘", "PageNumber": 73, "Country": "Malaysia", "latitude": 5.417921, "longitude": 100.305376 }, "geometry": { "type": "Point", "coordinates": [ 100.305376, 5.417921 ] } },
{ "type": "Feature", "properties": { "Name_CH": "黄氏宗祠", "Name_ML": "Wong Si Clan Temple", "Name_EN": null, "Location": "21, Mk-4, Batu Itam Balik Pulau, 11000 Pulau Pinang.", "Region": "Penang", "Category": "血缘", "PageNumber": 74, "Country": "Malaysia", "latitude": 5.4, "longitude": 100.2333333 }, "geometry": { "type": "Point", "coordinates": [ 100.2333333, 5.4 ] } },
{ "type": "Feature", "properties": { "Name_CH": "方氏宗祠河南堂", "Name_ML": "Persatuan Keturunan Fang Sze Chung Tzu Hur Nan Tang Pulau Penang", "Name_EN": null, "Location": "1, Jalan Masjid, 10200 Pulau Pinang.", "Region": "Penang", "Category": "血缘", "PageNumber": 74, "Country": "Malaysia", "latitude": 5.4192308, "longitude": 100.3353884 }, "geometry": { "type": "Point", "coordinates": [ 100.3353884, 5.4192308 ] } },
{ "type": "Feature", "properties": { "Name_CH": "黄氏宗和社", "Name_ML": "Ooi Si Chong Hoe Seah", "Name_EN": null, "Location": "No.ll2, Jalan Jelutong, 11600 Pulau Pinang.", "Region": "Penang", "Category": "血缘", "PageNumber": 74, "Country": "Malaysia", "latitude": 5.3963418, "longitude": 100.3182566 }, "geometry": { "type": "Point", "coordinates": [ 100.3182566, 5.3963418 ] } },
{ "type": "Feature", "properties": { "Name_CH": "冯氏始平堂", "Name_ML": "Foong See Chie Peng Tong", "Name_EN": "Fong See Chie Peng Tong", "Location": "16C, Lorong Aboo Siti, 10400 Penang.", "Region": "Penang", "Category": "血缘", "PageNumber": 74, "Country": "Malaysia", "latitude": 5.4195699, "longitude": 100.3245139 }, "geometry": { "type": "Point", "coordinates": [ 100.3245139, 5.4195699 ] } },
{ "type": "Feature", "properties": { "Name_CH": "洪氏敦煌堂", "Name_ML": "Ang Si Toon Hong Tong", "Name_EN": null, "Location": "67, Lorong Selamat, 10400 Pulau Pinang.", "Region": "Penang", "Category": "血缘", "PageNumber": 74, "Country": "Malaysia", "latitude": 5.4177619, "longitude": 100.3254483 }, "geometry": { "type": "Point", "coordinates": [ 100.3254483, 5.4177619 ] } },
{ "type": "Feature", "properties": { "Name_CH": "杜氏清鸾社", "Name_ML": "Toh Si Cheng Luan Seah", "Name_EN": null, "Location": "18, Cintra Street, 10100 Pulau Pinang.", "Region": "Penang", "Category": "血缘", "PageNumber": 74, "Country": "Malaysia", "latitude": 5.4188439, "longitude": 100.3339318 }, "geometry": { "type": "Point", "coordinates": [ 100.3339318, 5.4188439 ] } },
{ "type": "Feature", "properties": { "Name_CH": "傅氏宗祠", "Name_ML": "Por Si Chong Soo", "Name_EN": null, "Location": "26, Lorong Prangin, 10100 Pulau Pinang.", "Region": "Penang", "Category": "血缘", "PageNumber": 74, "Country": "Malaysia", "latitude": 5.4130139, "longitude": 100.3343469 }, "geometry": { "type": "Point", "coordinates": [ 100.3343469, 5.4130139 ] } },
{ "type": "Feature", "properties": { "Name_CH": "金山堂邱公司", "Name_ML": "Pertubuhan Kongsi Khoo Kim Sah Tong (Gim Pang) Pulau Pinang", "Name_EN": null, "Location": "C\/O Leong San Tong Khoo Kongsi No.18, Cannon Square, Pulau Penang.", "Region": "Penang", "Category": "血缘", "PageNumber": 74, "Country": "Malaysia", "latitude": 5.4146082, "longitude": 100.3372189 }, "geometry": { "type": "Point", "coordinates": [ 100.3372189, 5.4146082 ] } },
{ "type": "Feature", "properties": { "Name_CH": "九龙堂林公司", "Name_ML": "Kew Leong Tong-Lim Kongsi", "Name_EN": null, "Location": "234 Beach Street, Pulau Pinang.", "Region": "Penang", "Category": "血缘", "PageNumber": 74, "Country": "Malaysia", "latitude": 5.4150603, "longitude": 100.3387636 }, "geometry": { "type": "Point", "coordinates": [ 100.3387636, 5.4150603 ] } },
{ "type": "Feature", "properties": { "Name_CH": "帝君胡公司", "Name_ML": "Tay Koon Oh Kongsi", "Name_EN": null, "Location": "70, Penang Street, 10200 Penang.", "Region": "Penang", "Category": "血缘", "PageNumber": 74, "Country": "Malaysia", "latitude": 5.4177639, "longitude": 100.3404276 }, "geometry": { "type": "Point", "coordinates": [ 100.3404276, 5.4177639 ] } },
{ "type": "Feature", "properties": { "Name_CH": "鼎美胡氏敦睦堂", "Name_ML": "Teng Bee Oh Toon Bok Tong", "Name_EN": null, "Location": "70, Penang Street, 10200 Penang.", "Region": "Penang", "Category": "血缘", "PageNumber": 74, "Country": "Malaysia", "latitude": 5.4177639, "longitude": 100.3404276 }, "geometry": { "type": "Point", "coordinates": [ 100.3404276, 5.4177639 ] } },
{ "type": "Feature", "properties": { "Name_CH": "大山脚苏许连颜谭巫总祠", "Name_ML": "Saw Khaw Lean Ghean Thum Boo Chong Shu", "Name_EN": null, "Location": "4, Lorong Melor, 14000 Bukit Mertajam, Penang.", "Region": "Penang", "Category": "血缘", "PageNumber": 74, "Country": "Malaysia", "latitude": 5.3608581, "longitude": 100.4632371 }, "geometry": { "type": "Point", "coordinates": [ 100.4632371, 5.3608581 ] } },
{ "type": "Feature", "properties": { "Name_CH": "雷方邝宗祠溯源堂", "Name_ML": "Looi Fong Khong Chung Tzu Su Goon Tong Su Goon Tong", "Name_EN": null, "Location": "1, Jalan Masjid, 10200 Pulau Pinang.", "Region": "Penang", "Category": "血缘", "PageNumber": 75, "Country": "Malaysia", "latitude": 5.4192308, "longitude": 100.3353884 }, "geometry": { "type": "Point", "coordinates": [ 100.3353884, 5.4192308 ] } },
{ "type": "Feature", "properties": { "Name_CH": "梁氏家庙", "Name_ML": "Leong See Kah Miew", "Name_EN": null, "Location": "65, Jalan Perak, 10150 Penang.", "Region": "Penang", "Category": "血缘", "PageNumber": 75, "Country": "Malaysia", "latitude": 5.4165315, "longitude": 100.3167122 }, "geometry": { "type": "Point", "coordinates": [ 100.3167122, 5.4165315 ] } },
{ "type": "Feature", "properties": { "Name_CH": "梁氏宗祠(梅镜堂)", "Name_ML": "Neoh Si Chong So (Moi Keng Tong)", "Name_EN": null, "Location": "99, Jalan Seang Teik, 10400 Penang.", "Region": "Penang", "Category": "血缘", "PageNumber": 75, "Country": "Malaysia", "latitude": 5.4142515, "longitude": 100.3226325 }, "geometry": { "type": "Point", "coordinates": [ 100.3226325, 5.4142515 ] } },
{ "type": "Feature", "properties": { "Name_CH": "马来西亚洪氏敦煌堂", "Name_ML": "Ang Si Toon Hong Tong Semenanjung Malaysia", "Name_EN": null, "Location": "67, Lorong Selamat, 10400 Penang.", "Region": "Penang", "Category": "血缘", "PageNumber": 75, "Country": "Malaysia", "latitude": 5.4177619, "longitude": 100.3254483 }, "geometry": { "type": "Point", "coordinates": [ 100.3254483, 5.4177619 ] } },
{ "type": "Feature", "properties": { "Name_CH": "马来西亚吕氏公会", "Name_ML": "Persatuan Keturunan Loo Malaysia", "Name_EN": "Malaysia Loo See Association", "Location": "28, Lorong Macalister, 10400 Pulau Pinang.", "Region": "Penang", "Category": "血缘", "PageNumber": 75, "Country": "Malaysia", "latitude": 5.4154225, "longitude": 100.3279908 }, "geometry": { "type": "Point", "coordinates": [ 100.3279908, 5.4154225 ] } },
{ "type": "Feature", "properties": { "Name_CH": "马来西亚苏许连宗祠暨青年团", "Name_ML": "Saw Khain Lean (Heah) Chong Shee Malaysia", "Name_EN": null, "Location": "36, Jalan Burmah, 10050 Pulau Pinang.", "Region": "Penang", "Category": "血缘", "PageNumber": 75, "Country": "Malaysia", "latitude": 5.4183278, "longitude": 100.3286176 }, "geometry": { "type": "Point", "coordinates": [ 100.3286176, 5.4183278 ] } },
{ "type": "Feature", "properties": { "Name_CH": "刘氏公会", "Name_ML": null, "Name_EN": "Low Clan Association", "Location": "89, Jalan Magazine, 10300 Pulau Pinang.", "Region": "Penang", "Category": "血缘", "PageNumber": 75, "Country": "Malaysia", "latitude": 5.4124736, "longitude": 100.331611 }, "geometry": { "type": "Point", "coordinates": [ 100.331611, 5.4124736 ] } },
{ "type": "Feature", "properties": { "Name_CH": "廖氏宗祠", "Name_ML": "Persatuan Leow Pulau Pinang", "Name_EN": "Penang Leow Association", "Location": "1, Jalan Sungai Ujong, 10100 Penang.", "Region": "Penang", "Category": "血缘", "PageNumber": 75, "Country": "Malaysia", "latitude": 5.4161909, "longitude": 100.332477 }, "geometry": { "type": "Point", "coordinates": [ 100.332477, 5.4161909 ] } },
{ "type": "Feature", "properties": { "Name_CH": "龙山堂邱公司", "Name_ML": "Trustees Of Leong San Tong Khoo Kongsi (Penang) Registered", "Name_EN": null, "Location": "18, Cannon Square, 10200 Penang.", "Region": "Penang", "Category": "血缘", "PageNumber": 75, "Country": "Malaysia", "latitude": 5.4146082, "longitude": 100.3372189 }, "geometry": { "type": "Point", "coordinates": [ 100.3372189, 5.4146082 ] } },
{ "type": "Feature", "properties": { "Name_CH": "马来西亚戴氏家族会", "Name_ML": "Persatuan Keturunan Tye Malaysia", "Name_EN": null, "Location": "20, Lorong Stewart, 10200 Pulau Pinang.", "Region": "Penang", "Category": "血缘", "PageNumber": 75, "Country": "Malaysia", "latitude": 5.4192903, "longitude": 100.3379595 }, "geometry": { "type": "Point", "coordinates": [ 100.3379595, 5.4192903 ] } },
{ "type": "Feature", "properties": { "Name_CH": "林公司敦本堂", "Name_ML": "Lim Kongsi Toon Pun Tong", "Name_EN": null, "Location": "234,Leboh Pantai, 10300 Pulau Pinang.", "Region": "Penang", "Category": "血缘", "PageNumber": 75, "Country": "Malaysia", "latitude": 5.4150544, "longitude": 100.3387677 }, "geometry": { "type": "Point", "coordinates": [ 100.3387677, 5.4150544 ] } },
{ "type": "Feature", "properties": { "Name_CH": "林氏勉述堂", "Name_ML": "Lim Sz Bian Soot Tong Penang", "Name_EN": null, "Location": " 234,Leboh Pantai, 10300 Pulau Pinang.", "Region": "Penang", "Category": "血缘", "PageNumber": 75, "Country": "Malaysia", "latitude": 5.4150544, "longitude": 100.3387677 }, "geometry": { "type": "Point", "coordinates": [ 100.3387677, 5.4150544 ] } },
{ "type": "Feature", "properties": { "Name_CH": "马来西亚尢氏卿田堂", "Name_ML": "Ewe Si Kheng Tian Tong Kheng Tian Tong Yew Kongsi", "Name_EN": null, "Location": "376-Q, Jalan Perak, 11600 Pulau Pinang.", "Region": "Penang", "Category": "血缘", "PageNumber": 76, "Country": "Malaysia", "latitude": 5.3950637, "longitude": 100.3144991 }, "geometry": { "type": "Point", "coordinates": [ 100.3144991, 5.3950637 ] } },
{ "type": "Feature", "properties": { "Name_CH": "王氏家族龙泳社", "Name_ML": null, "Name_EN": "Ong Si Leng Eng Seah Family Association", "Location": "19, Khaw Sim Bee Road, Pulau Pinang.", "Region": "Penang", "Category": "血缘", "PageNumber": 76, "Country": "Malaysia", "latitude": 5.4206254, "longitude": 100.3209372 }, "geometry": { "type": "Point", "coordinates": [ 100.3209372, 5.4206254 ] } },
{ "type": "Feature", "properties": { "Name_CH": "孙氏公会", "Name_ML": "Persatuan Kaum Soon Pulau Pinang", "Name_EN": "Penang Soon Clan Association", "Location": "83, Jalan Petanl， 10150 Penang.", "Region": "Penang", "Category": "血缘", "PageNumber": 76, "Country": "Malaysia", "latitude": 5.409333, "longitude": 100.322887 }, "geometry": { "type": "Point", "coordinates": [ 100.322887, 5.409333 ] } },
{ "type": "Feature", "properties": { "Name_CH": "马来西亚徐余涂佘同宗会", "Name_ML": null, "Name_EN": "Chee Yee Thor Seah Clan Association", "Location": "15, Kek Chuan Road, 10400 Penang.", "Region": "Penang", "Category": "血缘", "PageNumber": 76, "Country": "Malaysia", "latitude": 5.4148626, "longitude": 100.3245697 }, "geometry": { "type": "Point", "coordinates": [ 100.3245697, 5.4148626 ] } },
{ "type": "Feature", "properties": { "Name_CH": "苏许连宗祠", "Name_ML": "Saw Khaw Lean Chong Shu", "Name_EN": null, "Location": "36, Jalan Burmah, 10050 Pulau Pinang.", "Region": "Penang", "Category": "血缘", "PageNumber": 76, "Country": "Malaysia", "latitude": 5.4183278, "longitude": 100.3286176 }, "geometry": { "type": "Point", "coordinates": [ 100.3286176, 5.4183278 ] } },
{ "type": "Feature", "properties": { "Name_CH": "马来西亚王氏公会联合会", "Name_ML": "Persekutuan Persatuan-Persatuan Ong(Wang) Malaysia", "Name_EN": null, "Location": "436 Penang Road, Pulau Pinang.", "Region": "Penang", "Category": "血缘", "PageNumber": 76, "Country": "Malaysia", "latitude": 5.4153467, "longitude": 100.328667 }, "geometry": { "type": "Point", "coordinates": [ 100.328667, 5.4153467 ] } },
{ "type": "Feature", "properties": { "Name_CH": "汪氏平阳堂", "Name_ML": "Penang State Ong Peng Yeong Tong", "Name_EN": null, "Location": "No.18, Lebuh Katz, 10300, Pulau Pinang.", "Region": "Penang", "Category": "血缘", "PageNumber": 76, "Country": "Malaysia", "latitude": 5.4084506, "longitude": 100.329675 }, "geometry": { "type": "Point", "coordinates": [ 100.329675, 5.4084506 ] } },
{ "type": "Feature", "properties": { "Name_CH": "威南、吉南及吉辇六桂堂", "Name_ML": "Pers Keturunan Ang Kang Ung Fang Kong & Wang (Liu Kwee Tang) Seberang Perai Selatan Kedah Selantan & Krian", "Name_EN": null, "Location": "No.3241 Jalan Victoria, Nibong Tebal, Seberang Perai Selatan.", "Region": "Penang", "Category": "血缘", "PageNumber": 76, "Country": "Malaysia", "latitude": 5.158918, "longitude": 100.4647278 }, "geometry": { "type": "Point", "coordinates": [ 100.4647278, 5.158918 ] } },
{ "type": "Feature", "properties": { "Name_CH": "威南温黄王郭陆宗亲会", "Name_ML": "Persatuan Kaum Nisab Oon, Ng, Ong, Koay, Lok Nibong Tebal", "Name_EN": null, "Location": "No.34, Jalan Pengkalan Rawa, Nibong Tebal Seberang Perai.", "Region": "Penang", "Category": "血缘", "PageNumber": 76, "Country": "Malaysia", "latitude": 5.164823, "longitude": 100.476986 }, "geometry": { "type": "Point", "coordinates": [ 100.476986, 5.164823 ] } },
{ "type": "Feature", "properties": { "Name_CH": "威吉杨氏弘农堂", "Name_ML": "Persatuan Yeoh Si Hong Long Tong Province Wellesley & Kedah", "Name_EN": null, "Location": "2476 (1st Floor) Jalan Kulim, Bukit Mertajam, Penang.", "Region": "Penang", "Category": "血缘", "PageNumber": 76, "Country": "Malaysia", "latitude": 5.3448156, "longitude": 100.493116 }, "geometry": { "type": "Point", "coordinates": [ 100.493116, 5.3448156 ] } },
{ "type": "Feature", "properties": { "Name_CH": "威南吉辇区古城会", "Name_ML": "Persatuan Koo Seah Hoay Daerah Krian Dan Seberang Perai Selatan", "Name_EN": null, "Location": "1983, Jawi Village, 14200 Sungai Bakap, Seberang Perai Selatan.", "Region": "Penang", "Category": "血缘", "PageNumber": 76, "Country": "Malaysia", "latitude": 5.207162, "longitude": 100.500286 }, "geometry": { "type": "Point", "coordinates": [ 100.500286, 5.207162 ] } },
{ "type": "Feature", "properties": { "Name_CH": "威南忠顺世家", "Name_ML": "Persatuan Tong Soon See Keh", "Name_EN": null, "Location": "124, Jalan Blok-G Pekan, 14200 Sungai Bakap, Seberang Perai Selatan.", "Region": "Penang", "Category": "血缘", "PageNumber": 76, "Country": "Malaysia", "latitude": 5.226061, "longitude": 100.4948269 }, "geometry": { "type": "Point", "coordinates": [ 100.4948269, 5.226061 ] } },
{ "type": "Feature", "properties": { "Name_CH": "威省林氏西河堂", "Name_ML": "Lim See Sai Hoe Tong", "Name_EN": null, "Location": "Lot No.548-549, Lorong Kobor, 12200 Butterworth, Province Wellesley.", "Region": "Penang", "Category": "血缘", "PageNumber": 77, "Country": "Malaysia", "latitude": 5.4106081, "longitude": 100.3756324 }, "geometry": { "type": "Point", "coordinates": [ 100.3756324, 5.4106081 ] } },
{ "type": "Feature", "properties": { "Name_CH": "威省洪氏宗祠", "Name_ML": "Ang Kongsi Seberang Perai", "Name_EN": "And Si Chong Soo Province Wellesley", "Location": "4150 Heng Choon Thian Road, Butterworth, Province Wellesley.", "Region": "Penang", "Category": "血缘", "PageNumber": 77, "Country": "Malaysia", "latitude": 5.4064203, "longitude": 100.3716618 }, "geometry": { "type": "Point", "coordinates": [ 100.3716618, 5.4064203 ] } },
{ "type": "Feature", "properties": { "Name_CH": "威省李氏公会", "Name_ML": "Persatuan Keturunan Kaum Lee Seberang Perai", "Name_EN": null, "Location": "TBP 4070, MK 14, Lorong Cempa, Butterworth.", "Region": "Penang", "Category": "血缘", "PageNumber": 77, "Country": "Malaysia", "latitude": 5.4184645, "longitude": 100.3776052 }, "geometry": { "type": "Point", "coordinates": [ 100.3776052, 5.4184645 ] } },
{ "type": "Feature", "properties": { "Name_CH": "威省陈氏颖川堂", "Name_ML": "Tan Si Eng Chuan Tong Province Wellesley", "Name_EN": null, "Location": "18, Jalan Kampong Paya, 12200 Butterworth, Province Wellesley.", "Region": "Penang", "Category": "血缘", "PageNumber": 77, "Country": "Malaysia", "latitude": 5.419234, "longitude": 100.3781718 }, "geometry": { "type": "Point", "coordinates": [ 100.3781718, 5.419234 ] } },
{ "type": "Feature", "properties": { "Name_CH": "威省吴氏宗祠", "Name_ML": "Persatuan Keturunan Kaum Goh Seberang Perai", "Name_EN": null, "Location": "No.1 Lorong Ceri Satu, 1330 Butterworth, Seberang Perai.", "Region": "Penang", "Category": "血缘", "PageNumber": 77, "Country": "Malaysia", "latitude": 5.4232398, "longitude": 100.3812366 }, "geometry": { "type": "Point", "coordinates": [ 100.3812366, 5.4232398 ] } },
{ "type": "Feature", "properties": { "Name_CH": "威省清河堂", "Name_ML": " Persatuan Cheng Hoe Tong ", "Name_EN": null, "Location": "6641, Jalan Raja Uda, 12300 Butterworth, Province Wellesley.", "Region": "Penang", "Category": "血缘", "PageNumber": 77, "Country": "Malaysia", "latitude": 5.435125, "longitude": 100.3854839 }, "geometry": { "type": "Point", "coordinates": [ 100.3854839, 5.435125 ] } },
{ "type": "Feature", "properties": { "Name_CH": "威省北海江夏堂黄氏宗祠", "Name_ML": "Kang Har Tong Ooi Si Chong Soo, B.W.", "Name_EN": null, "Location": "287, Jalan Permatang Tengah, 13000 Butterworth, Pulau Pinang.", "Region": "Penang", "Category": "血缘", "PageNumber": 77, "Country": "Malaysia", "latitude": 5.4466777, "longitude": 100.3876969 }, "geometry": { "type": "Point", "coordinates": [ 100.3876969, 5.4466777 ] } },
{ "type": "Feature", "properties": { "Name_CH": "威省王氏太原堂", "Name_ML": "Kongsi Thye Guan Tong Ong Seberang Prai", "Name_EN": null, "Location": "6085, Kampung Baru, Off Sungai Puyu, 13020 Butterworth, Seberang Prai.", "Region": "Penang", "Category": "血缘", "PageNumber": 77, "Country": "Malaysia", "latitude": 5.4425499, "longitude": 100.3914814 }, "geometry": { "type": "Point", "coordinates": [ 100.3914814, 5.4425499 ] } },
{ "type": "Feature", "properties": { "Name_CH": "威省荣阳堂", "Name_ML": " Persatuan Keturunan Ying Yang Seberang Perai ", "Name_EN": null, "Location": "45, Tingkat 1, Jalan Keranji, Taman Mutiara, 14000 Bukit Mentajam, Seberang Perai Tengah, Pulau Pinang", "Region": "Penang", "Category": "血缘", "PageNumber": 77, "Country": "Malaysia", "latitude": 5.364713, "longitude": 100.4447799 }, "geometry": { "type": "Point", "coordinates": [ 100.4447799, 5.364713 ] } },
{ "type": "Feature", "properties": { "Name_CH": "威省马氏扶风社", "Name_ML": "Persatuan Keturunan Mah See Foo Fong Tong Seberang Perai", "Name_EN": null, "Location": "No.47, Jalan Betek Dua, Taman Sg. Rambai, Bukit Mertajam, Pulau Pinang.", "Region": "Penang", "Category": "血缘", "PageNumber": 77, "Country": "Malaysia", "latitude": 5.3605649, "longitude": 100.4498897 }, "geometry": { "type": "Point", "coordinates": [ 100.4498897, 5.3605649 ] } },
{ "type": "Feature", "properties": { "Name_CH": "威省大山脚陇西堂", "Name_ML": "Persatuan Long Say Tong Bukit Mertajam Seberang Prai", "Name_EN": null, "Location": "18, Jalan Betik, Taman Sri Jaya, 14000 Bukit Mertajam, Penang.", "Region": "Penang", "Category": "血缘", "PageNumber": 77, "Country": "Malaysia", "latitude": 5.3634233, "longitude": 100.4503106 }, "geometry": { "type": "Point", "coordinates": [ 100.4503106, 5.3634233 ] } },
{ "type": "Feature", "properties": { "Name_CH": "威省刘关张赵古城会", "Name_ML": "Persatuan Koo Siang Wooi", "Name_EN": null, "Location": "1722, Jalan Kulim, 14000 Bukit Mertajam, Penang.", "Region": "Penang", "Category": "血缘", "PageNumber": 77, "Country": "Malaysia", "latitude": 5.3525936, "longitude": 100.473969 }, "geometry": { "type": "Point", "coordinates": [ 100.473969, 5.3525936 ] } },
{ "type": "Feature", "properties": { "Name_CH": "宗盟社陈氏宗祠", "Name_ML": "Chong Beng Seah Tan Si Chong Soo", "Name_EN": null, "Location": "3833 Sungai Nibong, 11900 Pulau Pinang.", "Region": "Penang", "Category": "血缘", "PageNumber": 78, "Country": "Malaysia", "latitude": 5.33966, "longitude": 100.29908 }, "geometry": { "type": "Point", "coordinates": [ 100.29908, 5.33966 ] } },
{ "type": "Feature", "properties": { "Name_CH": "徐余涂佘同宗会", "Name_ML": null, "Name_EN": "Chee Yee Thor Seah Clan Association", "Location": "15, Jalan Keh Chuan, 10400 Pulau Pinang.", "Region": "Penang", "Category": "血缘", "PageNumber": 78, "Country": "Malaysia", "latitude": 5.4193126, "longitude": 100.3231276 }, "geometry": { "type": "Point", "coordinates": [ 100.3231276, 5.4193126 ] } },
{ "type": "Feature", "properties": { "Name_CH": "许氏高阳堂", "Name_ML": "Khaw Kongsi (Koe Yang Tong)", "Name_EN": null, "Location": "36, Jalan Burmah, 10050 Pulau Pinang.", "Region": "Penang", "Category": "血缘", "PageNumber": 78, "Country": "Malaysia", "latitude": 5.4183278, "longitude": 100.3286176 }, "geometry": { "type": "Point", "coordinates": [ 100.3286176, 5.4183278 ] } },
{ "type": "Feature", "properties": { "Name_CH": "吴氏宗祠", "Name_ML": "Eng Leng Tong", "Name_EN": null, "Location": "22, Noorden Street, 10300 Pulau Pinang.", "Region": "Penang", "Category": "血缘", "PageNumber": 78, "Country": "Malaysia", "latitude": 5.4111639, "longitude": 100.3320537 }, "geometry": { "type": "Point", "coordinates": [ 100.3320537, 5.4111639 ] } },
{ "type": "Feature", "properties": { "Name_CH": "朱氏沛国堂", "Name_ML": "Choo Si Phai Kok Tong", "Name_EN": null, "Location": "30, Noordin Street, 10300 Penang.", "Region": "Penang", "Category": "血缘", "PageNumber": 78, "Country": "Malaysia", "latitude": 5.4113166, "longitude": 100.3318979 }, "geometry": { "type": "Point", "coordinates": [ 100.3318979, 5.4113166 ] } },
{ "type": "Feature", "properties": { "Name_CH": "颍川堂陈公司", "Name_ML": "Eng Chuan Tong Tan Kongsi", "Name_EN": null, "Location": "No. 28, Seh Tan Court, Beach Street, 10300 Penang.", "Region": "Penang", "Category": "血缘", "PageNumber": 78, "Country": "Malaysia", "latitude": 5.413316, "longitude": 100.336176 }, "geometry": { "type": "Point", "coordinates": [ 100.336176, 5.413316 ] } },
{ "type": "Feature", "properties": { "Name_CH": "谢氏福侯公公司", "Name_ML": "Cheah Si Hock Haw Kong Kongsi", "Name_EN": null, "Location": "No.8, Armenian Street, 10200 Penang.", "Region": "Penang", "Category": "血缘", "PageNumber": 78, "Country": "Malaysia", "latitude": 5.4147474, "longitude": 100.3382078 }, "geometry": { "type": "Point", "coordinates": [ 100.3382078, 5.4147474 ] } },
{ "type": "Feature", "properties": { "Name_CH": "伍氏家庙", "Name_ML": "Ng See Kah Miew", "Name_EN": null, "Location": "40, King Street, 10200 Penang.", "Region": "Penang", "Category": "血缘", "PageNumber": 78, "Country": "Malaysia", "latitude": 5.4183768, "longitude": 100.340016 }, "geometry": { "type": "Point", "coordinates": [ 100.340016, 5.4183768 ] } },
{ "type": "Feature", "properties": { "Name_CH": "永定胡氏安定堂", "Name_ML": "She Foo Kongsi Ann Teng Tong", "Name_EN": null, "Location": "70, Penang Street, 10200 Penang.", "Region": "Penang", "Category": "血缘", "PageNumber": 78, "Country": "Malaysia", "latitude": 5.4177639, "longitude": 100.3404276 }, "geometry": { "type": "Point", "coordinates": [ 100.3404276, 5.4177639 ] } },
{ "type": "Feature", "properties": { "Name_CH": "萧氏宗亲会", "Name_ML": "Persatuan Seow Pulau Pinang", "Name_EN": "The Seow Association Of Penang", "Location": "17, Jalan Limau Manis Satu, Taman Umau Manis, 14000 Bukit Mertajam.", "Region": "Penang", "Category": "血缘", "PageNumber": 78, "Country": "Malaysia", "latitude": 5.352095, "longitude": 100.43492 }, "geometry": { "type": "Point", "coordinates": [ 100.43492, 5.352095 ] } },
{ "type": "Feature", "properties": { "Name_CH": "武吉淡汶王氏太原堂", "Name_ML": "Thye Guan Tong (Ong Kongsi)", "Name_EN": null, "Location": "13, Jalan Bukit Tambun, 14110 Province Wellesley.", "Region": "Penang", "Category": "血缘", "PageNumber": 78, "Country": "Malaysia", "latitude": 5.2759216, "longitude": 100.4647974 }, "geometry": { "type": "Point", "coordinates": [ 100.4647974, 5.2759216 ] } },
{ "type": "Feature", "properties": { "Name_CH": "祖奉家公司家族社", "Name_ML": null, "Name_EN": "Chor Hong Kah Kongsi Family Association", "Location": "81-E, Taman Jaya, 14000 Bukit Mertajam.", "Region": "Penang", "Category": "血缘", "PageNumber": 78, "Country": "Malaysia", "latitude": 5.356297, "longitude": 100.471284 }, "geometry": { "type": "Point", "coordinates": [ 100.471284, 5.356297 ] } }
]
}
