{
"type": "FeatureCollection",
"name": "Category_6",
"crs": { "type": "name", "properties": { "name": "urn:ogc:def:crs:OGC:1.3:CRS84" } },
"features": [
{ "type": "Feature", "properties": { "Name_CH": "槟城浮罗公益阅书报社", "Name_ML": "Kong Yit Yat Soo Poh Seah", "Name_EN": null, "Location": "124, Main Road Balik Pulau, 11000 Pulau Pinang.", "Region": "Penang", "Category": "体育联谊", "PageNumber": 123, "Country": "Malaysia", "latitude": 5.3518646, "longitude": 100.2358098 }, "geometry": { "type": "Point", "coordinates": [ 100.2358098, 5.3518646 ] } },
{ "type": "Feature", "properties": { "Name_CH": "槟城慧音社", "Name_ML": "Pertubuhan Hui Yin Seh Pulau Pinang", "Name_EN": null, "Location": "700 H, Jalan Linking,11500 Ayer Itam, Pulau Pinang.", "Region": "Penang", "Category": "体育联谊", "PageNumber": 123, "Country": "Malaysia", "latitude": 5.3955847, "longitude": 100.2768388 }, "geometry": { "type": "Point", "coordinates": [ 100.2768388, 5.3955847 ] } },
{ "type": "Feature", "properties": { "Name_CH": "槟城阿德雷德之友协会", "Name_ML": "Persatuan Sahabat Adelaide Pulau Pinang", "Name_EN": "The Friends Of Adelaide Association Penang Penang Development Corporation", "Location": "No.1, Jalan Sg. Nibong, Bayan Lepas, Pulau Pinang.", "Region": "Penang", "Category": "体育联谊", "PageNumber": 123, "Country": "Malaysia", "latitude": 5.3300695, "longitude": 100.2941759 }, "geometry": { "type": "Point", "coordinates": [ 100.2941759, 5.3300695 ] } },
{ "type": "Feature", "properties": { "Name_CH": "槟城报界俱乐部", "Name_ML": "Kelab Wartawan, Pulau Pinang", "Name_EN": "Penang Press Club", "Location": "No.2L Lorong Birch, 10250 Penang.", "Region": "Penang", "Category": "体育联谊", "PageNumber": 123, "Country": "Malaysia", "latitude": 5.4328357, "longitude": 100.3152103 }, "geometry": { "type": "Point", "coordinates": [ 100.3152103, 5.4328357 ] } },
{ "type": "Feature", "properties": { "Name_CH": "槟城华夏智能气功协会", "Name_ML": "Persatuan Hwaxia Zhineng Qigong Pulau Pinang", "Name_EN": null, "Location": "283-A, Lorong Tampin, 10150 Pulau Pinang.", "Region": "Penang", "Category": "体育联谊", "PageNumber": 123, "Country": "Malaysia", "latitude": 5.4051353, "longitude": 100.3171812 }, "geometry": { "type": "Point", "coordinates": [ 100.3171812, 5.4051353 ] } },
{ "type": "Feature", "properties": { "Name_CH": "槟城柑仔园牛皮塘区居民协会", "Name_ML": "Persatuan Penduduk Kawasan Kulit Lembu", "Name_EN": "Kulit Lembu Residents Association", "Location": "389-A, Jalan Dato Keramat 10150 Pulau Pinang.", "Region": "Penang", "Category": "体育联谊", "PageNumber": 123, "Country": "Malaysia", "latitude": 5.4127779, "longitude": 100.3188304 }, "geometry": { "type": "Point", "coordinates": [ 100.3188304, 5.4127779 ] } },
{ "type": "Feature", "properties": { "Name_CH": "槟城柴堤前及头条路区居民协会", "Name_ML": "Persatuan Penduduk Kawasan Jalan Maxwell Dan Jalan Magazine", "Name_EN": null, "Location": "65, Prangin Market, 10100 Pulau Pinang.", "Region": "Penang", "Category": "体育联谊", "PageNumber": 123, "Country": "Malaysia", "latitude": 5.4138135, "longitude": 100.3335108 }, "geometry": { "type": "Point", "coordinates": [ 100.3335108, 5.4138135 ] } },
{ "type": "Feature", "properties": { "Name_CH": "槟城红灯角填地居民协会", "Name_ML": "Persatuan Penduduk-Penduduk Tepi Pantai, Pengkalan Weld", "Name_EN": null, "Location": "138, Reclamation Area, Pengkalan Weld, 10300 Pulau Pinang.", "Region": "Penang", "Category": "体育联谊", "PageNumber": 123, "Country": "Malaysia", "latitude": 5.413655, "longitude": 100.3406981 }, "geometry": { "type": "Point", "coordinates": [ 100.3406981, 5.413655 ] } },
{ "type": "Feature", "properties": { "Name_CH": "北海同侨社", "Name_ML": "Persatuan Tong Keow Butterworth Butterworth Tong Keow Seah", "Name_EN": null, "Location": "5043, R\/Persatuan P\/Puri Ria, Lebuh Kampung Benggali, 12200 Butterworth.", "Region": "Penang", "Category": "体育联谊", "PageNumber": 123, "Country": "Malaysia", "latitude": 5.409547, "longitude": 100.3737031 }, "geometry": { "type": "Point", "coordinates": [ 100.3737031, 5.409547 ] } },
{ "type": "Feature", "properties": { "Name_CH": "北海林发足球俱乐部", "Name_ML": "Kelab Bolasepak Lim Huat Butterworth", "Name_EN": null, "Location": "3, Tingkat Teratai, Raja Uda, Butterworth, Pulau Pinang.", "Region": "Penang", "Category": "体育联谊", "PageNumber": 123, "Country": "Malaysia", "latitude": 5.4384947, "longitude": 100.3867155 }, "geometry": { "type": "Point", "coordinates": [ 100.3867155, 5.4384947 ] } },
{ "type": "Feature", "properties": { "Name_CH": "北海峇东丁雅龙昆体育会", "Name_ML": "Persatuan Jasmani Loong Kuan Butterworth Province Wellesley", "Name_EN": null, "Location": "8877, Permatang Tengah, 13000 Butterworth.", "Region": "Penang", "Category": "体育联谊", "PageNumber": 123, "Country": "Malaysia", "latitude": 5.4490949, "longitude": 100.3880538 }, "geometry": { "type": "Point", "coordinates": [ 100.3880538, 5.4490949 ] } },
{ "type": "Feature", "properties": { "Name_CH": "槟城乔治市精武体育会", "Name_ML": "Persatuan Seni Mempertahankan Diri Chin Woo Georgetown", "Name_EN": null, "Location": "9-12-9, Tingkat Paya Terubong 2, Taman Terubong Jaya, 11600 Pulau Pinang.", "Region": "Penang", "Category": "体育联谊", "PageNumber": 124, "Country": "Malaysia", "latitude": 5.368901, "longitude": 100.2761985 }, "geometry": { "type": "Point", "coordinates": [ 100.2761985, 5.368901 ] } },
{ "type": "Feature", "properties": { "Name_CH": "槟城南北少林健身社", "Name_ML": null, "Name_EN": "North South Gymnasium Penang", "Location": "774-A, Hill Railway Road, Air ltam, 11500 Pulau Pinang.", "Region": "Penang", "Category": "体育联谊", "PageNumber": 124, "Country": "Malaysia", "latitude": 5.4066613, "longitude": 100.2802561 }, "geometry": { "type": "Point", "coordinates": [ 100.2802561, 5.4066613 ] } },
{ "type": "Feature", "properties": { "Name_CH": "槟城七星螳螂国术会", "Name_ML": "Persatuan Seni Mempertahankan Diri Tang Lang", "Name_EN": null, "Location": "464-E, Jalan Hill Railway Mk-16, 11500 Air ltam, Pulau Pinang.", "Region": "Penang", "Category": "体育联谊", "PageNumber": 124, "Country": "Malaysia", "latitude": 5.4061293, "longitude": 100.2820443 }, "geometry": { "type": "Point", "coordinates": [ 100.2820443, 5.4061293 ] } },
{ "type": "Feature", "properties": { "Name_CH": "槟城精形体育会", "Name_ML": "Pg. Ching Ying Sports Gymnasium", "Name_EN": null, "Location": "3-Q, Jalan Semarak Api Bandar Baru, 11500 Air Itam, Pulau Pinang.", "Region": "Penang", "Category": "体育联谊", "PageNumber": 124, "Country": "Malaysia", "latitude": 5.3860979, "longitude": 100.2829413 }, "geometry": { "type": "Point", "coordinates": [ 100.2829413, 5.3860979 ] } },
{ "type": "Feature", "properties": { "Name_CH": "槟城跑马园居民协会", "Name_ML": "Persatuan Pendudukan Taman Lumba Kuda Pulau Pinang", "Name_EN": null, "Location": "35, Jalan Goh Guan Ho, 11400 Penang.", "Region": "Penang", "Category": "体育联谊", "PageNumber": 124, "Country": "Malaysia", "latitude": 5.409056, "longitude": 100.2965309 }, "geometry": { "type": "Point", "coordinates": [ 100.2965309, 5.409056 ] } },
{ "type": "Feature", "properties": { "Name_CH": "槟城龙昆体育会", "Name_ML": null, "Name_EN": "Penang Loong Kuan Physical Culture Association", "Location": "l-D, Jalan Fettes, 11200 Pulau Pinang.", "Region": "Penang", "Category": "体育联谊", "PageNumber": 124, "Country": "Malaysia", "latitude": 5.4512024, "longitude": 100.3042394 }, "geometry": { "type": "Point", "coordinates": [ 100.3042394, 5.4512024 ] } },
{ "type": "Feature", "properties": { "Name_CH": "槟城南方大厦居民协会", "Name_ML": "Persatuan Penghuni-Penghuni Wisma Lam Hong, Pulau Pinang", "Name_EN": null, "Location": "159-2-11, Jalan Sungai Pinang. 10150 Pulau Pinang.", "Region": "Penang", "Category": "体育联谊", "PageNumber": 124, "Country": "Malaysia", "latitude": 5.4094628, "longitude": 100.3165002 }, "geometry": { "type": "Point", "coordinates": [ 100.3165002, 5.4094628 ] } },
{ "type": "Feature", "properties": { "Name_CH": "槟城精武体育会", "Name_ML": "Persatuan Senaman Chin Woo Pulau Pinang", "Name_EN": "Penang Chinese Chin Woo Athletic Association", "Location": "180-A, Jalan Burmah, 10050 Pulau Pinang.", "Region": "Penang", "Category": "体育联谊", "PageNumber": 124, "Country": "Malaysia", "latitude": 5.4247828, "longitude": 100.3199451 }, "geometry": { "type": "Point", "coordinates": [ 100.3199451, 5.4247828 ] } },
{ "type": "Feature", "properties": { "Name_CH": "槟城空手道同盟国际心馆", "Name_ML": null, "Name_EN": "Penang Kerate Brotherhood", "Location": "50, Jalan Kuantan, 10150 Pulau Pinang.", "Region": "Penang", "Category": "体育联谊", "PageNumber": 124, "Country": "Malaysia", "latitude": 5.4107155, "longitude": 100.3241458 }, "geometry": { "type": "Point", "coordinates": [ 100.3241458, 5.4107155 ] } },
{ "type": "Feature", "properties": { "Name_CH": "槟城前进体育会", "Name_ML": null, "Name_EN": "Penang Forward Sports Club", "Location": "No.29, 1st Floor Jalan Zainal Abidin, 10400 Penang.", "Region": "Penang", "Category": "体育联谊", "PageNumber": 124, "Country": "Malaysia", "latitude": 5.4175054, "longitude": 100.3261155 }, "geometry": { "type": "Point", "coordinates": [ 100.3261155, 5.4175054 ] } },
{ "type": "Feature", "properties": { "Name_CH": "槟城慕韩别墅", "Name_ML": null, "Name_EN": "Mor Hun Club Penang", "Location": "122, Armenian Street Penang.", "Region": "Penang", "Category": "体育联谊", "PageNumber": 124, "Country": "Malaysia", "latitude": 5.4157394, "longitude": 100.3361533 }, "geometry": { "type": "Point", "coordinates": [ 100.3361533, 5.4157394 ] } },
{ "type": "Feature", "properties": { "Name_CH": "槟城篮球总会威南分会", "Name_ML": "Persatuan Bola Keranjang Seberang Perai Salatan", "Name_EN": null, "Location": "1922, Jalan Sekolah, Kg.Jawi, Sg.Bakap, 14200 Seberang Perai Salatan.", "Region": "Penang", "Category": "体育联谊", "PageNumber": 124, "Country": "Malaysia", "latitude": 5.2124739, "longitude": 100.4953066 }, "geometry": { "type": "Point", "coordinates": [ 100.4953066, 5.2124739 ] } },
{ "type": "Feature", "properties": { "Name_CH": "槟城协德社公司", "Name_ML": "Penang Heap Teik Seah Kongsi", "Name_EN": null, "Location": "No.717, Sg. Dua MK 13 Gelugor, Pulau Pinang.", "Region": "Penang", "Category": "体育联谊", "PageNumber": 125, "Country": "Malaysia", "latitude": 5.3463829, "longitude": 100.295428 }, "geometry": { "type": "Point", "coordinates": [ 100.295428, 5.3463829 ] } },
{ "type": "Feature", "properties": { "Name_CH": "槟城太极体育会", "Name_ML": "Persatuan Taiji Pulau Pinang", "Name_EN": null, "Location": "63, Jalan York, 10450, Pulau Pinang.", "Region": "Penang", "Category": "体育联谊", "PageNumber": 125, "Country": "Malaysia", "latitude": 5.4141935, "longitude": 100.3085297 }, "geometry": { "type": "Point", "coordinates": [ 100.3085297, 5.4141935 ] } },
{ "type": "Feature", "properties": { "Name_CH": "槟城温馨联谊会", "Name_ML": "Pertubuhan Wen Xin Pulau Pinang", "Name_EN": "Penang Wen Xin Association", "Location": "206, Jalan Burma, 10350 Pulau Pinang.", "Region": "Penang", "Category": "体育联谊", "PageNumber": 125, "Country": "Malaysia", "latitude": 5.4288169, "longitude": 100.314509 }, "geometry": { "type": "Point", "coordinates": [ 100.314509, 5.4288169 ] } },
{ "type": "Feature", "properties": { "Name_CH": "槟城友联别墅", "Name_ML": null, "Name_EN": "Penang Union Club", "Location": "125-F 2nd Floor Wisma Getah, Jalan Macalister, 10450 Pulau Pinang.", "Region": "Penang", "Category": "体育联谊", "PageNumber": 125, "Country": "Malaysia", "latitude": 5.417526, "longitude": 100.3202996 }, "geometry": { "type": "Point", "coordinates": [ 100.3202996, 5.417526 ] } },
{ "type": "Feature", "properties": { "Name_CH": "槟城业余音乐社", "Name_ML": "Persatuan Muzik Yip Yue", "Name_EN": "Yip Yue Musical Association", "Location": "75A, Jalan Telepon, 10400 Pulau Pinang.", "Region": "Penang", "Category": "体育联谊", "PageNumber": 125, "Country": "Malaysia", "latitude": 5.4193126, "longitude": 100.3231276 }, "geometry": { "type": "Point", "coordinates": [ 100.3231276, 5.4193126 ] } },
{ "type": "Feature", "properties": { "Name_CH": "槟城少室山健身社", "Name_ML": null, "Name_EN": "Penang Seow Seet San Health Culture Association", "Location": "13, Jalan Keh Chuan, 10400 Pulau Pinang.", "Region": "Penang", "Category": "体育联谊", "PageNumber": 125, "Country": "Malaysia", "latitude": 5.4193126, "longitude": 100.3231276 }, "geometry": { "type": "Point", "coordinates": [ 100.3231276, 5.4193126 ] } },
{ "type": "Feature", "properties": { "Name_CH": "槟城土桥尾组屋居民协会", "Name_ML": "Persatuan Penduduk-Penduduk Noordin Street Residents Association Noordin St. Ghaut Flats Penang", "Name_EN": null, "Location": "107, Noordin St. Ghaut Flats, 10300 Pulau Pinang.", "Region": "Penang", "Category": "体育联谊", "PageNumber": 125, "Country": "Malaysia", "latitude": 5.4123679, "longitude": 100.3302698 }, "geometry": { "type": "Point", "coordinates": [ 100.3302698, 5.4123679 ] } },
{ "type": "Feature", "properties": { "Name_CH": "槟城生活公市组屋居民协会", "Name_ML": "Persatuan Penduduk Penduduk Rumah Pangsa Peoples' Court Penang", "Name_EN": null, "Location": "C-5, Peoples' Court Off Campbell St., 10100 Pulau Pinang.", "Region": "Penang", "Category": "体育联谊", "PageNumber": 125, "Country": "Malaysia", "latitude": 5.4163935, "longitude": 100.3326786 }, "geometry": { "type": "Point", "coordinates": [ 100.3326786, 5.4163935 ] } },
{ "type": "Feature", "properties": { "Name_CH": "槟城升旗山84体育会", "Name_ML": "Kelab Sukan Bukit Bendera 84 Pulau Pinang.", "Name_EN": null, "Location": "No.10, Jalan Sungai Ujong, 10100 Pulau Pinang.", "Region": "Penang", "Category": "体育联谊", "PageNumber": 125, "Country": "Malaysia", "latitude": 5.4162199, "longitude": 100.3322984 }, "geometry": { "type": "Point", "coordinates": [ 100.3322984, 5.4162199 ] } },
{ "type": "Feature", "properties": { "Name_CH": "槟城音乐协会", "Name_ML": "Persatuan Philharmonic Pulau Pinang", "Name_EN": "Penang Philharmonic Society", "Location": "No.43, Lebuh Kimberlay, 10100 Pulau Pinang.", "Region": "Penang", "Category": "体育联谊", "PageNumber": 125, "Country": "Malaysia", "latitude": 5.4156645, "longitude": 100.3335619 }, "geometry": { "type": "Point", "coordinates": [ 100.3335619, 5.4156645 ] } },
{ "type": "Feature", "properties": { "Name_CH": "槟城少慈山体育会", "Name_ML": "Persatuan Kebudayaan Jasmani Seow Chu Sang", "Name_EN": null, "Location": "43, Prangin Lane, 10300 Pulau Pinang.", "Region": "Penang", "Category": "体育联谊", "PageNumber": 125, "Country": "Malaysia", "latitude": 5.413368, "longitude": 100.3338517 }, "geometry": { "type": "Point", "coordinates": [ 100.3338517, 5.413368 ] } },
{ "type": "Feature", "properties": { "Name_CH": "槟城少林国术健身社", "Name_ML": null, "Name_EN": "Pg. Sao Lim Athletic Association", "Location": "42, Lebun Muntri, 10200 Pulau Pinang.", "Region": "Penang", "Category": "体育联谊", "PageNumber": 125, "Country": "Malaysia", "latitude": 5.4200521, "longitude": 100.3357899 }, "geometry": { "type": "Point", "coordinates": [ 100.3357899, 5.4200521 ] } },
{ "type": "Feature", "properties": { "Name_CH": "槟城朱家拳体育会", "Name_ML": "Pertubuhan Keolahragaan Chu-Ka Pulau Pinang", "Name_EN": null, "Location": "23-B, Medan Angsana Satu, Bandar Baru Air ltam, 11500 Penang", "Region": "Penang", "Category": "体育联谊", "PageNumber": 126, "Country": "Malaysia", "latitude": 5.3883943, "longitude": 100.2831289 }, "geometry": { "type": "Point", "coordinates": [ 100.2831289, 5.3883943 ] } },
{ "type": "Feature", "properties": { "Name_CH": "槟岛南区乡镇联谊会", "Name_ML": "Persatuan Perpaduan Penduduk-Penduduk Daerah Bakat Daya, Pulau Pinang", "Name_EN": null, "Location": "56, Jalan Mayang Pasir， Bayan Baru, 11950 Penang.", "Region": "Penang", "Category": "体育联谊", "PageNumber": 126, "Country": "Malaysia", "latitude": 5.3234439, "longitude": 100.2872769 }, "geometry": { "type": "Point", "coordinates": [ 100.2872769, 5.3234439 ] } },
{ "type": "Feature", "properties": { "Name_CH": "打枪埔区醒狮硏究社", "Name_ML": "Institusi Pengkajian Tarieth Singa", "Name_EN": null, "Location": "H-12, Jalan Padang Tembak, 11400 Pulau Pinang.", "Region": "Penang", "Category": "体育联谊", "PageNumber": 126, "Country": "Malaysia", "latitude": 5.4069803, "longitude": 100.295757 }, "geometry": { "type": "Point", "coordinates": [ 100.295757, 5.4069803 ] } },
{ "type": "Feature", "properties": { "Name_CH": "槟州象棋公会", "Name_ML": "Persatuan Catur China Pulau Pinang", "Name_EN": "Penang Chinese Chess Association", "Location": "88-3-5, Lintang Sg. Pinang, 10150 Pulau Pinang.", "Region": "Penang", "Category": "体育联谊", "PageNumber": 126, "Country": "Malaysia", "latitude": 5.4026978, "longitude": 100.3184801 }, "geometry": { "type": "Point", "coordinates": [ 100.3184801, 5.4026978 ] } },
{ "type": "Feature", "properties": { "Name_CH": "槟州太极气功协会", "Name_ML": "Persatuan Taiji Qigong LiTek Seah", "Name_EN": "C\/o Chinese Recreation Club Penang", "Location": "Jalan Padang Victoria, 10400 Pulau Pinang", "Region": "Penang", "Category": "体育联谊", "PageNumber": 126, "Country": "Malaysia", "latitude": 5.4229756, "longitude": 100.3196829 }, "geometry": { "type": "Point", "coordinates": [ 100.3196829, 5.4229756 ] } },
{ "type": "Feature", "properties": { "Name_CH": "槟榔屿中青音乐社", "Name_ML": "Persatuan Muzika Chung Ching Pulau Pinang", "Name_EN": null, "Location": "13,1st Floor, Jalan Kek Chuah, 10400 Penang.", "Region": "Penang", "Category": "体育联谊", "PageNumber": 126, "Country": "Malaysia", "latitude": 5.4151043, "longitude": 100.3245416 }, "geometry": { "type": "Point", "coordinates": [ 100.3245416, 5.4151043 ] } },
{ "type": "Feature", "properties": { "Name_CH": "槟城周家拳体育总会", "Name_ML": "Persatuan Seni Mempertahankan Diri Zhou Jia Quan", "Name_EN": "Zhen Jia Quan Martial Arts Association, Penang", "Location": "94, Lorong Hutton, 10050 Pulau Pinang.", "Region": "Penang", "Category": "体育联谊", "PageNumber": 126, "Country": "Malaysia", "latitude": 5.4205401, "longitude": 100.3296773 }, "geometry": { "type": "Point", "coordinates": [ 100.3296773, 5.4205401 ] } },
{ "type": "Feature", "properties": { "Name_CH": "槟州大旗鼓公会", "Name_ML": "Persatuan Chingay Pulau Pinang", "Name_EN": "Penang Chingay Association", "Location": "No.191, Magazine Road, 10300 Penang.", "Region": "Penang", "Category": "体育联谊", "PageNumber": 126, "Country": "Malaysia", "latitude": 5.4134877, "longitude": 100.3296816 }, "geometry": { "type": "Point", "coordinates": [ 100.3296816, 5.4134877 ] } },
{ "type": "Feature", "properties": { "Name_CH": "槟城智能气功习练中心", "Name_ML": "Persatuan Pusat Latihan Zhineng Qi Gong Pulau Pinang", "Name_EN": null, "Location": "22 Jalan Ariffin, Pulau Pinang.", "Region": "Penang", "Category": "体育联谊", "PageNumber": 126, "Country": "Malaysia", "latitude": 5.4211165, "longitude": 100.3297995 }, "geometry": { "type": "Point", "coordinates": [ 100.3297995, 5.4211165 ] } },
{ "type": "Feature", "properties": { "Name_CH": "槟城阅书报社", "Name_ML": null, "Name_EN": "The Penang Philomathic Union", "Location": "C\/O 151, Lebuh Carnarvon, 10100 Pulau Pinang.", "Region": "Penang", "Category": "体育联谊", "PageNumber": 126, "Country": "Malaysia", "latitude": 5.415121, "longitude": 100.3348719 }, "geometry": { "type": "Point", "coordinates": [ 100.3348719, 5.415121 ] } },
{ "type": "Feature", "properties": { "Name_CH": "槟州武术龙狮总会", "Name_ML": "Persekutuan Persatuan-Persatuan Wushu Tarian Singa Dan Naga Negeri Pulau Pinang", "Name_EN": "Wushu, Lion & Dragon Dance Association Penang", "Location": "C\/0 Room 205(2nd Floor) 22, Jalan Masjid Kapitan Keling, 10200 Pulau Pinang.", "Region": "Penang", "Category": "体育联谊", "PageNumber": 126, "Country": "Malaysia", "latitude": 5.4188249, "longitude": 100.3388467 }, "geometry": { "type": "Point", "coordinates": [ 100.3388467, 5.4188249 ] } },
{ "type": "Feature", "properties": { "Name_CH": "大山脚阿尔玛华盛园居协", "Name_ML": "Persatuan Penduduk Penduduk Taman Hwa Seng Alma Bukit Mertajam", "Name_EN": null, "Location": "No.1, Solok Kancil, Taman Hwa Seng Almba, Bukit Mertajam.", "Region": "Penang", "Category": "体育联谊", "PageNumber": 126, "Country": "Malaysia", "latitude": 5.330963, "longitude": 100.4816386 }, "geometry": { "type": "Point", "coordinates": [ 100.4816386, 5.330963 ] } },
{ "type": "Feature", "properties": { "Name_CH": "建阳公会", "Name_ML": null, "Name_EN": "Kien Yang Association", "Location": "80-H, Jalan Mount Erskine, Tanjong Tokong Mk-18, 10470 Pulau Pinang.", "Region": "Penang", "Category": "体育联谊", "PageNumber": 127, "Country": "Malaysia", "latitude": 5.4399633, "longitude": 100.3030352 }, "geometry": { "type": "Point", "coordinates": [ 100.3030352, 5.4399633 ] } },
{ "type": "Feature", "properties": { "Name_CH": "金灵社", "Name_ML": "Kim Leng Seah (1954)", "Name_EN": null, "Location": "No.335 A, Jalan Perak, Pulau Pinang.", "Region": "Penang", "Category": "体育联谊", "PageNumber": 127, "Country": "Malaysia", "latitude": 5.3998053, "longitude": 100.3149273 }, "geometry": { "type": "Point", "coordinates": [ 100.3149273, 5.3998053 ] } },
{ "type": "Feature", "properties": { "Name_CH": "复光体育会", "Name_ML": null, "Name_EN": "Fok Kong Health League", "Location": "377-A, Jalan Dato Keramat, 10150 Pulau Pinang.", "Region": "Penang", "Category": "体育联谊", "PageNumber": 127, "Country": "Malaysia", "latitude": 5.4126616, "longitude": 100.3190494 }, "geometry": { "type": "Point", "coordinates": [ 100.3190494, 5.4126616 ] } },
{ "type": "Feature", "properties": { "Name_CH": "凤田社", "Name_ML": "Hong Tean Seah", "Name_EN": null, "Location": "No.46, Dato Kramat Road, Pulau Pinang.", "Region": "Penang", "Category": "体育联谊", "PageNumber": 127, "Country": "Malaysia", "latitude": 5.413788, "longitude": 100.3276019 }, "geometry": { "type": "Point", "coordinates": [ 100.3276019, 5.413788 ] } },
{ "type": "Feature", "properties": { "Name_CH": "极乐互助会", "Name_ML": "Kek Lok Hor Chor Hoay", "Name_EN": null, "Location": "115-G-14, Kedah Road Complex, Pulau Pinang.", "Region": "Penang", "Category": "体育联谊", "PageNumber": 127, "Country": "Malaysia", "latitude": 5.4193785, "longitude": 100.3292974 }, "geometry": { "type": "Point", "coordinates": [ 100.3292974, 5.4193785 ] } },
{ "type": "Feature", "properties": { "Name_CH": "嘉德社", "Name_ML": "Penang Kah Teck Seah", "Name_EN": null, "Location": "No.22, King Street, Pulau Pinang.", "Region": "Penang", "Category": "体育联谊", "PageNumber": 127, "Country": "Malaysia", "latitude": 5.418414, "longitude": 100.3400449 }, "geometry": { "type": "Point", "coordinates": [ 100.3400449, 5.418414 ] } },
{ "type": "Feature", "properties": { "Name_CH": "嘉宾俱乐部", "Name_ML": "Kah Pin Club Penang", "Name_EN": null, "Location": "22 & 24,1st Floor Lebuh King, 10200 Penang.", "Region": "Penang", "Category": "体育联谊", "PageNumber": 127, "Country": "Malaysia", "latitude": 5.4186234, "longitude": 100.3402951 }, "geometry": { "type": "Point", "coordinates": [ 100.3402951, 5.4186234 ] } },
{ "type": "Feature", "properties": { "Name_CH": "恩平会馆", "Name_ML": "Persatuan “ Enping” Pulau Pinang", "Name_EN": null, "Location": "4467, Jalan Telaga Air, Butterworth, Seberang Perai Utara.", "Region": "Penang", "Category": "体育联谊", "PageNumber": 127, "Country": "Malaysia", "latitude": 5.4133316, "longitude": 100.3755368 }, "geometry": { "type": "Point", "coordinates": [ 100.3755368, 5.4133316 ] } },
{ "type": "Feature", "properties": { "Name_CH": "大山脚南美园居民协会(1997)", "Name_ML": "Persatuan Renduduk Taman Sri Rambai Bukit Mertajam SPTI1997)", "Name_EN": null, "Location": "56, Taman Binjai Tmn. Sri Rambai, 14000 Bukit Mertajam.", "Region": "Penang", "Category": "体育联谊", "PageNumber": 127, "Country": "Malaysia", "latitude": 5.3476857, "longitude": 100.4465975 }, "geometry": { "type": "Point", "coordinates": [ 100.4465975, 5.3476857 ] } },
{ "type": "Feature", "properties": { "Name_CH": "大山脚香功", "Name_ML": "Persatuan Senaman Xiang Gong Bukit Mertajam Seberang Perai", "Name_EN": null, "Location": "38, jalan Perpaduan, Taman Alma, 14000 Bukit Mertajam, Seberang Perai, Pulau Pinang.", "Region": "Penang", "Category": "体育联谊", "PageNumber": 127, "Country": "Malaysia", "latitude": 5.345817, "longitude": 100.473796 }, "geometry": { "type": "Point", "coordinates": [ 100.473796, 5.345817 ] } },
{ "type": "Feature", "properties": { "Name_CH": "高渊华人体育会", "Name_ML": null, "Name_EN": "Chinese Recreation Club", "Location": "1184, Jalan Pintu Sepuluh, 14300 Nibong Tebal, Seberang Perai Selatan, Pulau Pinang.", "Region": "Penang", "Category": "体育联谊", "PageNumber": 127, "Country": "Malaysia", "latitude": 5.1659776, "longitude": 100.477254 }, "geometry": { "type": "Point", "coordinates": [ 100.477254, 5.1659776 ] } },
{ "type": "Feature", "properties": { "Name_CH": "高渊岭南洪拳体育会", "Name_ML": "Persatuan Sukan Hong Chyuan", "Name_EN": null, "Location": "1313, Kampung Sanglang, 14300 Nibong Tebal, Seberang Perai Selatan, Pulau Pinang.", "Region": "Penang", "Category": "体育联谊", "PageNumber": 127, "Country": "Malaysia", "latitude": 5.1647408, "longitude": 100.4829968 }, "geometry": { "type": "Point", "coordinates": [ 100.4829968, 5.1647408 ] } },
{ "type": "Feature", "properties": { "Name_CH": "美湖朱家中家拳体育及文化协会", "Name_ML": "Persatuan Kebudayaan & Sukan Choo Kar Chong Kar KuanGertak Sanggul", "Name_EN": null, "Location": "337, Mk8, Gertak Sanggul, 11910 Pulau Pinang.", "Region": "Penang", "Category": "体育联谊", "PageNumber": 128, "Country": "Malaysia", "latitude": 5.2848183, "longitude": 100.1941399 }, "geometry": { "type": "Point", "coordinates": [ 100.1941399, 5.2848183 ] } },
{ "type": "Feature", "properties": { "Name_CH": "七星螳螂国术会", "Name_ML": "Persatuan Seni Mempertahankan Diri Tang Lang", "Name_EN": "Penang Tang Lang Martial Arts Society", "Location": "464-E, Hill Railway Road, Air Itam 11500 Penang.", "Region": "Penang", "Category": "体育联谊", "PageNumber": 128, "Country": "Malaysia", "latitude": 5.406521, "longitude": 100.2816639 }, "geometry": { "type": "Point", "coordinates": [ 100.2816639, 5.406521 ] } },
{ "type": "Feature", "properties": { "Name_CH": "马来西亚智能气功联合会", "Name_ML": "Persatuan Zhineng Qigong Malaysia", "Name_EN": null, "Location": "9, Solok Tembaga 4, 11600 Pulau Pinang.", "Region": "Penang", "Category": "体育联谊", "PageNumber": 128, "Country": "Malaysia", "latitude": 5.3919559, "longitude": 100.2990248 }, "geometry": { "type": "Point", "coordinates": [ 100.2990248, 5.3919559 ] } },
{ "type": "Feature", "properties": { "Name_CH": "明心社", "Name_ML": "Min Sin Seah", "Name_EN": null, "Location": "C\/0 6, Tingkat Batu Uban 2,11700 Penang.", "Region": "Penang", "Category": "体育联谊", "PageNumber": 128, "Country": "Malaysia", "latitude": 5.3516517, "longitude": 100.3058426 }, "geometry": { "type": "Point", "coordinates": [ 100.3058426, 5.3516517 ] } },
{ "type": "Feature", "properties": { "Name_CH": "青华俱乐部", "Name_ML": null, "Name_EN": "Cheng Wah Club", "Location": "90, Jalan Kedah, 10050 Pulau Pinang.", "Region": "Penang", "Category": "体育联谊", "PageNumber": 128, "Country": "Malaysia", "latitude": 5.4198486, "longitude": 100.3276683 }, "geometry": { "type": "Point", "coordinates": [ 100.3276683, 5.4198486 ] } },
{ "type": "Feature", "properties": { "Name_CH": "气功智能科学会", "Name_ML": "Persatuan Qigong Zhineng Kexue", "Name_EN": null, "Location": "22, Jalan Ariffin, 10050 Pulau Pinang.", "Region": "Penang", "Category": "体育联谊", "PageNumber": 128, "Country": "Malaysia", "latitude": 5.4211165, "longitude": 100.3297995 }, "geometry": { "type": "Point", "coordinates": [ 100.3297995, 5.4211165 ] } },
{ "type": "Feature", "properties": { "Name_CH": "兰亭阁俱乐部", "Name_ML": null, "Name_EN": "Lan Teng Kok Club", "Location": "25, Jalan Sri Bahari, 10050 Pulau Pinang.", "Region": "Penang", "Category": "体育联谊", "PageNumber": 128, "Country": "Malaysia", "latitude": 5.4210047, "longitude": 100.3321198 }, "geometry": { "type": "Point", "coordinates": [ 100.3321198, 5.4210047 ] } },
{ "type": "Feature", "properties": { "Name_CH": "丽泽社", "Name_ML": "Li Tek Seah", "Name_EN": "Li Tek Seah", "Location": "152, Lebuh Carnarvon, 10100 Pulau Pinang.", "Region": "Penang", "Category": "体育联谊", "PageNumber": 128, "Country": "Malaysia", "latitude": 5.41556, "longitude": 100.3347479 }, "geometry": { "type": "Point", "coordinates": [ 100.3347479, 5.41556 ] } },
{ "type": "Feature", "properties": { "Name_CH": "警顽联友社", "Name_ML": "Persatuan Persahabatan King Wan", "Name_EN": "King Wan Association", "Location": "85, Lebuh Muntri, 10200 Pulau Pinang.", "Region": "Penang", "Category": "体育联谊", "PageNumber": 128, "Country": "Malaysia", "latitude": 5.4200677, "longitude": 100.3349556 }, "geometry": { "type": "Point", "coordinates": [ 100.3349556, 5.4200677 ] } },
{ "type": "Feature", "properties": { "Name_CH": "聚贤俱乐部", "Name_ML": "Kelab Choi Yin", "Name_EN": null, "Location": "41, Lebuh Muntri, 10200 Pulau Pinang.", "Region": "Penang", "Category": "体育联谊", "PageNumber": 128, "Country": "Malaysia", "latitude": 5.4198469, "longitude": 100.3358672 }, "geometry": { "type": "Point", "coordinates": [ 100.3358672, 5.4198469 ] } },
{ "type": "Feature", "properties": { "Name_CH": "清和社", "Name_ML": "Cheng Hoe Seah", "Name_EN": null, "Location": "No.57, Armenian Street, Pulau Pinang.", "Region": "Penang", "Category": "体育联谊", "PageNumber": 128, "Country": "Malaysia", "latitude": 5.4153922, "longitude": 100.3369036 }, "geometry": { "type": "Point", "coordinates": [ 100.3369036, 5.4153922 ] } },
{ "type": "Feature", "properties": { "Name_CH": "马来西亚华人足球公会", "Name_ML": null, "Name_EN": "Malaysian Chinese Football Association", "Location": "49-C Weld Quay, Pulau Pinang.", "Region": "Penang", "Category": "体育联谊", "PageNumber": 128, "Country": "Malaysia", "latitude": 5.41327, "longitude": 100.3397459 }, "geometry": { "type": "Point", "coordinates": [ 100.3397459, 5.41327 ] } },
{ "type": "Feature", "properties": { "Name_CH": "阮氏太极体育会", "Name_ML": "Persatuan Kebudayaan Jasmani Wan Tai Chi", "Name_EN": null, "Location": "2-Z, Lrg Delima 12 Island Glades, 11700 Pulau Pinang.", "Region": "Penang", "Category": "体育联谊", "PageNumber": 129, "Country": "Malaysia", "latitude": 5.382967, "longitude": 100.303885 }, "geometry": { "type": "Point", "coordinates": [ 100.303885, 5.382967 ] } },
{ "type": "Feature", "properties": { "Name_CH": "少怀山健身社", "Name_ML": null, "Name_EN": "Seow Hay San Health Culture Association", "Location": "1, Jalan Gunaratana, 10460 Pulau Pinang.", "Region": "Penang", "Category": "体育联谊", "PageNumber": 129, "Country": "Malaysia", "latitude": 5.4089506, "longitude": 100.3069832 }, "geometry": { "type": "Point", "coordinates": [ 100.3069832, 5.4089506 ] } },
{ "type": "Feature", "properties": { "Name_CH": "少明山健身社", "Name_ML": "Persatuan Jasmani Sao Beng Sun", "Name_EN": null, "Location": "8-3-16, Lintang Sungai Pinang, Sri Wonder, 10150 Pulau Pinang,", "Region": "Penang", "Category": "体育联谊", "PageNumber": 129, "Country": "Malaysia", "latitude": 5.4028211, "longitude": 100.318387 }, "geometry": { "type": "Point", "coordinates": [ 100.318387, 5.4028211 ] } },
{ "type": "Feature", "properties": { "Name_CH": "小兰亭俱乐部", "Name_ML": null, "Name_EN": "Chinese Marchants' Club", "Location": "31-A-B-C, Jalan Abu Siti, 10400 Pulau Pinang.", "Region": "Penang", "Category": "体育联谊", "PageNumber": 129, "Country": "Malaysia", "latitude": 5.4190313, "longitude": 100.3243439 }, "geometry": { "type": "Point", "coordinates": [ 100.3243439, 5.4190313 ] } },
{ "type": "Feature", "properties": { "Name_CH": "少林国术健身社", "Name_ML": "Persatuan Seni Menpertahankan Diri Sao Lim Pinang", "Name_EN": "Penang Sao Lim Athletic Association", "Location": "42, Lebuh Muntri, 10200 Pulau Pinang.", "Region": "Penang", "Category": "体育联谊", "PageNumber": 129, "Country": "Malaysia", "latitude": 5.4200521, "longitude": 100.3357899 }, "geometry": { "type": "Point", "coordinates": [ 100.3357899, 5.4200521 ] } },
{ "type": "Feature", "properties": { "Name_CH": "雅韵歌咏队", "Name_ML": null, "Name_EN": "Yayin Singing Centre", "Location": "Blook 123-1-3, Wisma KGN ,Pengkalan Weld, 10300 Pulau Pinang.", "Region": "Penang", "Category": "体育联谊", "PageNumber": 129, "Country": "Malaysia", "latitude": 5.410229, "longitude": 100.335978 }, "geometry": { "type": "Point", "coordinates": [ 100.335978, 5.410229 ] } },
{ "type": "Feature", "properties": { "Name_CH": "同庆社", "Name_ML": "Tong Kheng Seah Penang", "Name_EN": null, "Location": "57 Armenian Street, Pulau Pinang.", "Region": "Penang", "Category": "体育联谊", "PageNumber": 129, "Country": "Malaysia", "latitude": 5.4153922, "longitude": 100.3369036 }, "geometry": { "type": "Point", "coordinates": [ 100.3369036, 5.4153922 ] } },
{ "type": "Feature", "properties": { "Name_CH": "威北太极体育会", "Name_ML": "Persatuan Olahraga Taiji Seberang Perai Utara", "Name_EN": null, "Location": "4863, Jalan Sg. Nyior, Butterwoth, Pulau Pinang.", "Region": "Penang", "Category": "体育联谊", "PageNumber": 129, "Country": "Malaysia", "latitude": 5.400349, "longitude": 100.374784 }, "geometry": { "type": "Point", "coordinates": [ 100.374784, 5.400349 ] } },
{ "type": "Feature", "properties": { "Name_CH": "威北本那牙顺兴社", "Name_ML": "Soon Heng Seah Penaga Butterworth Province Wellesley", "Name_EN": null, "Location": "No.614, Jalan Bertam, Kepala Batas, Seberang Perai Utara, Pulau Pinang.", "Region": "Penang", "Category": "体育联谊", "PageNumber": 129, "Country": "Malaysia", "latitude": 5.5161895, "longitude": 100.4326846 }, "geometry": { "type": "Point", "coordinates": [ 100.4326846, 5.5161895 ] } },
{ "type": "Feature", "properties": { "Name_CH": "威省少林武术馆", "Name_ML": "Persatuan Seni Mempertahankan Diri Sao Um Seberang Perai", "Name_EN": null, "Location": "35, Jalan Bukit Kecil Taman Bukit, 14000 Bukit Mertajam, Pulau Pinang.", "Region": "Penang", "Category": "体育联谊", "PageNumber": 129, "Country": "Malaysia", "latitude": 5.3554858, "longitude": 100.45897 }, "geometry": { "type": "Point", "coordinates": [ 100.45897, 5.3554858 ] } },
{ "type": "Feature", "properties": { "Name_CH": "威中象棋公会", "Name_ML": "Persatuan Xiang Qi Daerah Seberang Perai Tengah Pulau Pinang", "Name_EN": null, "Location": "No.16, Lorong Gasing Satu, Taman Berapit Bukit Mertajam, Pulau Pinang.", "Region": "Penang", "Category": "体育联谊", "PageNumber": 129, "Country": "Malaysia", "latitude": 5.3852227, "longitude": 100.4755598 }, "geometry": { "type": "Point", "coordinates": [ 100.4755598, 5.3852227 ] } },
{ "type": "Feature", "properties": { "Name_CH": "威南太极体育会", "Name_ML": "Persatuan Olahraga Taiji Seberang Perai Selatan", "Name_EN": null, "Location": "No.1281, Main Road, Sungai Bakap, Seberang Perai Selatan, Pulau Pinang.", "Region": "Penang", "Category": "体育联谊", "PageNumber": 129, "Country": "Malaysia", "latitude": 5.226061, "longitude": 100.4948269 }, "geometry": { "type": "Point", "coordinates": [ 100.4948269, 5.226061 ] } },
{ "type": "Feature", "properties": { "Name_CH": "中华游泳公会", "Name_ML": null, "Name_EN": "Chinese Swimming Club", "Location": "562, Tanjong Bungah, 11200 Pulau Pinang.", "Region": "Penang", "Category": "体育联谊", "PageNumber": 130, "Country": "Malaysia", "latitude": 5.4666861, "longitude": 100.2886847 }, "geometry": { "type": "Point", "coordinates": [ 100.2886847, 5.4666861 ] } },
{ "type": "Feature", "properties": { "Name_CH": "亚依淡新市镇居民协会", "Name_ML": "Persatuan Penduduk-Penduduk Bandar Baru Ayer Itam", "Name_EN": null, "Location": "32-C, Medan Angsana Dua, Bandar Baru Air Itam, 11500 Pulau Pinang.", "Region": "Penang", "Category": "体育联谊", "PageNumber": 130, "Country": "Malaysia", "latitude": 5.388534, "longitude": 100.2835889 }, "geometry": { "type": "Point", "coordinates": [ 100.2835889, 5.388534 ] } },
{ "type": "Feature", "properties": { "Name_CH": "岳飞国术会", "Name_ML": "Kelab Seni Mempertahanan Diri Yueh Fei", "Name_EN": null, "Location": "14, Tingkat Erskine Satu, 10470 Pulau Pinang.", "Region": "Penang", "Category": "体育联谊", "PageNumber": 130, "Country": "Malaysia", "latitude": 5.4407192, "longitude": 100.3032463 }, "geometry": { "type": "Point", "coordinates": [ 100.3032463, 5.4407192 ] } },
{ "type": "Feature", "properties": { "Name_CH": "夜莺文娱社", "Name_ML": null, "Name_EN": "Nightingale Melodians (1959)", "Location": "91-1, Jalan Air Itam, 10400 Pulau Pinang.", "Region": "Penang", "Category": "体育联谊", "PageNumber": 130, "Country": "Malaysia", "latitude": 5.412162, "longitude": 100.309599 }, "geometry": { "type": "Point", "coordinates": [ 100.309599, 5.412162 ] } },
{ "type": "Feature", "properties": { "Name_CH": "怡然亭俱乐部", "Name_ML": null, "Name_EN": "The Corner Club", "Location": "55, Gurney Drive, 10250 Penang.", "Region": "Penang", "Category": "体育联谊", "PageNumber": 130, "Country": "Malaysia", "latitude": 5.4338581, "longitude": 100.3155533 }, "geometry": { "type": "Point", "coordinates": [ 100.3155533, 5.4338581 ] } },
{ "type": "Feature", "properties": { "Name_CH": "中华体育会", "Name_ML": null, "Name_EN": "Chinese Recreation Club", "Location": "3, Jalan Padang Victoria, 10400 Pulau Pinang.", "Region": "Penang", "Category": "体育联谊", "PageNumber": 130, "Country": "Malaysia", "latitude": 5.4244272, "longitude": 100.317722 }, "geometry": { "type": "Point", "coordinates": [ 100.317722, 5.4244272 ] } },
{ "type": "Feature", "properties": { "Name_CH": "锤灵童子军协会", "Name_ML": "Persatuan Bekas Pengakap Chung Ling Pulau Pinang", "Name_EN": null, "Location": "No.46, Anson Road, Pulau Pinang.", "Region": "Penang", "Category": "体育联谊", "PageNumber": 130, "Country": "Malaysia", "latitude": 5.4182668, "longitude": 100.3217903 }, "geometry": { "type": "Point", "coordinates": [ 100.3217903, 5.4182668 ] } },
{ "type": "Feature", "properties": { "Name_CH": "振华(洪家)体育馆", "Name_ML": null, "Name_EN": "Chan Wah (Hong Chia) Athletic Association", "Location": "70-C, Irving Road, 10400 Pulau Pinang.", "Region": "Penang", "Category": "体育联谊", "PageNumber": 130, "Country": "Malaysia", "latitude": 5.4153793, "longitude": 100.3235901 }, "geometry": { "type": "Point", "coordinates": [ 100.3235901, 5.4153793 ] } },
{ "type": "Feature", "properties": { "Name_CH": "益群俱乐部", "Name_ML": "Kelab Yik Khuen", "Name_EN": "Yik Khuen Club", "Location": "32, Jalan Rangoon, 10400 Pulau Pinang.", "Region": "Penang", "Category": "体育联谊", "PageNumber": 130, "Country": "Malaysia", "latitude": 5.4190715, "longitude": 100.3252642 }, "geometry": { "type": "Point", "coordinates": [ 100.3252642, 5.4190715 ] } },
{ "type": "Feature", "properties": { "Name_CH": "以文阁俱乐部", "Name_ML": null, "Name_EN": "It Ban Kok Club", "Location": "90, Lorong Hutton, 10050 Pulau Pinang.", "Region": "Penang", "Category": "体育联谊", "PageNumber": 130, "Country": "Malaysia", "latitude": 5.4205272, "longitude": 100.3297525 }, "geometry": { "type": "Point", "coordinates": [ 100.3297525, 5.4205272 ] } },
{ "type": "Feature", "properties": { "Name_CH": "中央胶带体育会", "Name_ML": "Kelab Rekreasi Central Elasti", "Name_EN": "Central Elastic Recreation Club", "Location": "Lot 56-61, Perai Industrial Complex, Peral Butterworth.", "Region": "Penang", "Category": "体育联谊", "PageNumber": 130, "Country": "Malaysia", "latitude": 5.3767223, "longitude": 100.3898478 }, "geometry": { "type": "Point", "coordinates": [ 100.3898478, 5.3767223 ] } },
{ "type": "Feature", "properties": { "Name_CH": "忠兴社", "Name_ML": "Choong Heng Seah", "Name_EN": null, "Location": "7, Sungai Dua, 13800 P. W. N.", "Region": "Penang", "Category": "体育联谊", "PageNumber": 130, "Country": "Malaysia", "latitude": 5.4447895, "longitude": 100.4290377 }, "geometry": { "type": "Point", "coordinates": [ 100.4290377, 5.4447895 ] } }
]
}
