{
"type": "FeatureCollection",
"name": "Category_7",
"crs": { "type": "name", "properties": { "name": "urn:ogc:def:crs:OGC:1.3:CRS84" } },
"features": [
{ "type": "Feature", "properties": { "Name_CH": "槟城韩江中学", "Name_ML": null, "Name_EN": "Han Chiang High School", "Location": "Jalan Han Chiang, 11600 Penang,", "Region": "Penang", "Category": "独立中学", "PageNumber": 413, "Country": "Malaysia", "latitude": 5.4074221, "longitude": 100.3040146 }, "geometry": { "type": "Point", "coordinates": [ 100.3040146, 5.4074221 ] } },
{ "type": "Feature", "properties": { "Name_CH": "槟城菩提中学", "Name_ML": null, "Name_EN": "Hor Tay Private High School", "Location": "19-A, Jalan Bagan Jermal, 10250 Penang", "Region": "Penang", "Category": "独立中学", "PageNumber": 413, "Country": "Malaysia", "latitude": 5.4382779, "longitude": 100.3062623 }, "geometry": { "type": "Point", "coordinates": [ 100.3062623, 5.4382779 ] } },
{ "type": "Feature", "properties": { "Name_CH": "槟城槟华女子独立中学", "Name_ML": null, "Name_EN": "Penang Chinese Girl's Private High School", "Location": "2, Jalan Goltlie, 10350 Penang.", "Region": "Penang", "Category": "独立中学", "PageNumber": 413, "Country": "Malaysia", "latitude": 5.4339285, "longitude": 100.3021198 }, "geometry": { "type": "Point", "coordinates": [ 100.3021198, 5.4339285 ] } },
{ "type": "Feature", "properties": { "Name_CH": "大山脚日新中学", "Name_ML": null, "Name_EN": "Jit Sin Independent High School", "Location": "Jalan Aston, 14000 Bukit Mertajam, Pulau Pinang.", "Region": "Penang", "Category": "独立中学", "PageNumber": 413, "Country": "Malaysia", "latitude": 5.3640712, "longitude": 100.4626144 }, "geometry": { "type": "Point", "coordinates": [ 100.4626144, 5.3640712 ] } },
{ "type": "Feature", "properties": { "Name_CH": "槟城钟灵中学", "Name_ML": null, "Name_EN": "Chung Ling Private High School", "Location": "Kampong Bahru, 11400 Penang.", "Region": "Penang", "Category": "独立中学", "PageNumber": 413, "Country": "Malaysia", "latitude": 5.4046938, "longitude": 100.2945561 }, "geometry": { "type": "Point", "coordinates": [ 100.2945561, 5.4046938 ] } }
]
}
