{
"type": "FeatureCollection",
"name": "Category_2",
"crs": { "type": "name", "properties": { "name": "urn:ogc:def:crs:OGC:1.3:CRS84" } },
"features": [
{ "type": "Feature", "properties": { "Name_CH": "槟城浮罗圣心校友会", "Name_ML": "Persatuan Bekas Murid-AAurid Sekolah Sacred Heart Balik Pulau", "Name_EN": null, "Location": "c\/o SM Sacred Heart, 11000 Balik Pulau, Pulau Pinang.", "Region": "Penang", "Category": "文教", "PageNumber": 88, "Country": "Malaysia", "latitude": 5.3524351, "longitude": 100.2368621 }, "geometry": { "type": "Point", "coordinates": [ 100.2368621, 5.3524351 ] } },
{ "type": "Feature", "properties": { "Name_CH": "槟城丹绒武雅培华校友会", "Name_ML": "Persatuan Bekas Murid-Murid Poey Wah", "Name_EN": null, "Location": "534-A, Tanjong Bunga, 11200 Penang.", "Region": "Penang", "Category": "文教", "PageNumber": 88, "Country": "Malaysia", "latitude": 5.466735, "longitude": 100.286446 }, "geometry": { "type": "Point", "coordinates": [ 100.286446, 5.466735 ] } },
{ "type": "Feature", "properties": { "Name_CH": "槟城槟华校友会", "Name_ML": null, "Name_EN": "Penang Chinese Girls' School Union", "Location": "5, Jalan Bagan Germal, 10250 Penang.", "Region": "Penang", "Category": "文教", "PageNumber": 88, "Country": "Malaysia", "latitude": 5.4353471, "longitude": 100.3039041 }, "geometry": { "type": "Point", "coordinates": [ 100.3039041, 5.4353471 ] } },
{ "type": "Feature", "properties": { "Name_CH": "槟城佛教义学校友会", "Name_ML": "Persatuan Bekas Murid-Murid Penang Buddhist Free School Pulau Pinang", "Name_EN": "The Penang Buddhist Free School Ex-Pupil Association", "Location": "22-A, Jalan Munshi Abdullah, 10460 Pulau Pinang.", "Region": "Penang", "Category": "文教", "PageNumber": 88, "Country": "Malaysia", "latitude": 5.4080829, "longitude": 100.313965 }, "geometry": { "type": "Point", "coordinates": [ 100.313965, 5.4080829 ] } },
{ "type": "Feature", "properties": { "Name_CH": "北海中华公学校友会", "Name_ML": "Persatuan Murid-Murid Tua Sekolah Chung Hwa", "Name_EN": null, "Location": "3921, Jalan Bagan Luar, 12000 Butterworth.", "Region": "Penang", "Category": "文教", "PageNumber": 88, "Country": "Malaysia", "latitude": 5.397666, "longitude": 100.3679969 }, "geometry": { "type": "Point", "coordinates": [ 100.3679969, 5.397666 ] } },
{ "type": "Feature", "properties": { "Name_CH": "北海光华校友会", "Name_ML": "Persatuan Murid-Murid Tua SRJK(C) Kwang Hwa Butterworth", "Name_EN": null, "Location": "6542 Jalan Raja Udo, 12300 Butterworth.", "Region": "Penang", "Category": "文教", "PageNumber": 88, "Country": "Malaysia", "latitude": 5.426061, "longitude": 100.3826239 }, "geometry": { "type": "Point", "coordinates": [ 100.3826239, 5.426061 ] } },
{ "type": "Feature", "properties": { "Name_CH": "北赖中华三校校友会", "Name_ML": "Persatuan Bekas Murid-Murid Sekolah Chung Hwa (3) Perai, Seberang Perai", "Name_EN": null, "Location": "D\/A SRJK(C) Chung Hwa 3, Perai.", "Region": "Penang", "Category": "文教", "PageNumber": 88, "Country": "Malaysia", "latitude": 5.3843145, "longitude": 100.3832326 }, "geometry": { "type": "Point", "coordinates": [ 100.3832326, 5.3843145 ] } },
{ "type": "Feature", "properties": { "Name_CH": "北海韩江校友会", "Name_ML": "Persatuan Bekas Murid-Murid Han Chiang", "Name_EN": "Han Chiang Ex-Pupils Association Of Butterworth", "Location": "No.6, Jalan Bagan 3, Taman Bagan 3,13400 Butterworth.", "Region": "Penang", "Category": "文教", "PageNumber": 88, "Country": "Malaysia", "latitude": 5.4131831, "longitude": 100.3843308 }, "geometry": { "type": "Point", "coordinates": [ 100.3843308, 5.4131831 ] } },
{ "type": "Feature", "properties": { "Name_CH": "北海励华校友会", "Name_ML": null, "Name_EN": "Li Hwa School Ex-Pupils Association Butterworth", "Location": "No.56, Lorong Kenanga Off Jalan Raja Uda, Butterworth.", "Region": "Penang", "Category": "文教", "PageNumber": 88, "Country": "Malaysia", "latitude": 5.4165025, "longitude": 100.3799319 }, "geometry": { "type": "Point", "coordinates": [ 100.3799319, 5.4165025 ] } },
{ "type": "Feature", "properties": { "Name_CH": "北马华乐协会", "Name_ML": "Pertubuhan Muzik Tiong Hua Malaysia Utara", "Name_EN": null, "Location": "32, Jalan Manggis, Taman Bak Hai, 14000 Bukit Mertajam.", "Region": "Penang", "Category": "文教", "PageNumber": 88, "Country": "Malaysia", "latitude": 5.3610707, "longitude": 100.4539275 }, "geometry": { "type": "Point", "coordinates": [ 100.4539275, 5.3610707 ] } },
{ "type": "Feature", "properties": { "Name_CH": "峇冬丁谊村华小校友会", "Name_ML": "Persatuan Bekas Murid-Murid SRK(C) Permatang Tinggi Seberang Pereai Tengah", "Name_EN": null, "Location": "SRK (C) Permatang Tinggi Simpan Ampat.", "Region": "Penang", "Category": "文教", "PageNumber": 88, "Country": "Malaysia", "latitude": 5.2997479, "longitude": 100.4790177 }, "geometry": { "type": "Point", "coordinates": [ 100.4790177, 5.2997479 ] } },
{ "type": "Feature", "properties": { "Name_CH": "槟城光华校友会", "Name_ML": null, "Name_EN": "Kwang Hwa School Old Pupils' Association Sg. Nibong Penang", "Location": "Kwang Hwa School Sg. Nibong, Bayan Lepas, Pulau Pinang.", "Region": "Penang", "Category": "文教", "PageNumber": 89, "Country": "Malaysia", "latitude": 5.33582, "longitude": 100.296544 }, "geometry": { "type": "Point", "coordinates": [ 100.296544, 5.33582 ] } },
{ "type": "Feature", "properties": { "Name_CH": "槟城共和学校校友会", "Name_ML": "Persatuan Bekas Murid-Murid Sekolah Keong Hoe Pulau Pinang", "Name_EN": null, "Location": "529, Sungai Dua, 11700 Pulau Pinang.", "Region": "Penang", "Category": "文教", "PageNumber": 89, "Country": "Malaysia", "latitude": 5.3526346, "longitude": 100.30121 }, "geometry": { "type": "Point", "coordinates": [ 100.30121, 5.3526346 ] } },
{ "type": "Feature", "properties": { "Name_CH": null, "Name_ML": "Pertubuhan Bahasa Jepun Pulau Pinang", "Name_EN": "Penang Japanese Language Society", "Location": "7-H-3, Gottlieb Road, 10350 Penang. P.O.Box 577, Penang.", "Region": "Penang", "Category": "文教", "PageNumber": 89, "Country": "Malaysia", "latitude": 5.4332505, "longitude": 100.3030048 }, "geometry": { "type": "Point", "coordinates": [ 100.3030048, 5.4332505 ] } },
{ "type": "Feature", "properties": { "Name_CH": "槟城韩江同学会", "Name_ML": "Persatuan Alumni Han Chiang Pulau Pinang", "Name_EN": null, "Location": "71-L, Jalan Terengganu, 10460 Penang.", "Region": "Penang", "Category": "文教", "PageNumber": 89, "Country": "Malaysia", "latitude": 5.4034211, "longitude": 100.3087347 }, "geometry": { "type": "Point", "coordinates": [ 100.3087347, 5.4034211 ] } },
{ "type": "Feature", "properties": { "Name_CH": "槟城培新校友会", "Name_ML": "Persatuan Bekas Murid-Murid Sekolah Phei Shin", "Name_EN": null, "Location": "410-A, Jalan Bukit Dumbar, 11600 Pulau Pinang.", "Region": "Penang", "Category": "文教", "PageNumber": 89, "Country": "Malaysia", "latitude": 5.3867365, "longitude": 100.3134538 }, "geometry": { "type": "Point", "coordinates": [ 100.3134538, 5.3867365 ] } },
{ "type": "Feature", "properties": { "Name_CH": "槟城慕义校友会", "Name_ML": "Persatuan Bekas Penuntut Sekolah Moh Ghee Pulau Pinang", "Name_EN": null, "Location": "136, Jalan Jelutong, 11600 Pulau Pinang.", "Region": "Penang", "Category": "文教", "PageNumber": 89, "Country": "Malaysia", "latitude": 5.4015111, "longitude": 100.323607 }, "geometry": { "type": "Point", "coordinates": [ 100.323607, 5.4015111 ] } },
{ "type": "Feature", "properties": { "Name_CH": "槟城留台师范大学校友会", "Name_ML": null, "Name_EN": "Taiwan Normal University Graduates' Association", "Location": "80, Jalan Siam, 10400 Pulau Pinang.", "Region": "Penang", "Category": "文教", "PageNumber": 89, "Country": "Malaysia", "latitude": 5.41482, "longitude": 100.3209791 }, "geometry": { "type": "Point", "coordinates": [ 100.3209791, 5.41482 ] } },
{ "type": "Feature", "properties": { "Name_CH": "槟城华校教师会", "Name_ML": "Persatuan Guru-Guru Sekolah China, Pulau Pinang", "Name_EN": "Penang Chinese School Teachers' Association", "Location": "25, Jalan Irawadi, 10050 Pulau Pinang.", "Region": "Penang", "Category": "文教", "PageNumber": 89, "Country": "Malaysia", "latitude": 5.4257524, "longitude": 100.321684 }, "geometry": { "type": "Point", "coordinates": [ 100.321684, 5.4257524 ] } },
{ "type": "Feature", "properties": { "Name_CH": "槟城留台同学会", "Name_ML": null, "Name_EN": "Penang Alumni Association Of Taiwan Universities & Colleges", "Location": "50-C, 3rd Floor, Argyll Road, 10050 Penang.", "Region": "Penang", "Category": "文教", "PageNumber": 89, "Country": "Malaysia", "latitude": 5.4220931, "longitude": 100.3298288 }, "geometry": { "type": "Point", "coordinates": [ 100.3298288, 5.4220931 ] } },
{ "type": "Feature", "properties": { "Name_CH": "槟城日间师训毕业教师会", "Name_ML": "Persatuan Guru-Guru Lepasan Maktab Penguruan Harian Pulau Pinang", "Name_EN": "P.T.C. Trained Teacher Association", "Location": "15, Jalan Trrawaddy, 10050 Pulau Pinang.", "Region": "Penang", "Category": "文教", "PageNumber": 89, "Country": "Malaysia", "latitude": 5.4259439, "longitude": 100.3213348 }, "geometry": { "type": "Point", "coordinates": [ 100.3213348, 5.4259439 ] } },
{ "type": "Feature", "properties": { "Name_CH": "槟城菩提校友会", "Name_ML": "Persatuan Bekas Murid-Murid Sekolah Phor Tay", "Name_EN": null, "Location": "10-E, Jalan Dato Koyah,10050 Pulau Pinang.", "Region": "Penang", "Category": "文教", "PageNumber": 89, "Country": "Malaysia", "latitude": 5.4198075, "longitude": 100.3318168 }, "geometry": { "type": "Point", "coordinates": [ 100.3318168, 5.4198075 ] } },
{ "type": "Feature", "properties": { "Name_CH": "槟城励华校友会", "Name_ML": "Persatuan Siswazah Li Hua Pulau Pinang", "Name_EN": "Penang Li Hua Graduate Society", "Location": "21, Persiaran Makhoda, Taman Teluk Air Tawar, Butterworth.", "Region": "Penang", "Category": "文教", "PageNumber": 89, "Country": "Malaysia", "latitude": 5.477303, "longitude": 100.3851111 }, "geometry": { "type": "Point", "coordinates": [ 100.3851111, 5.477303 ] } },
{ "type": "Feature", "properties": { "Name_CH": "槟城音艺文化协会", "Name_ML": null, "Name_EN": "Penang Arts & Cultural Society", "Location": "AB-G-5, Taman Tun Sardon, 11700 Glugor, Pulau Pinang.", "Region": "Penang", "Category": "文教", "PageNumber": 90, "Country": "Malaysia", "latitude": 5.3705289, "longitude": 100.3035879 }, "geometry": { "type": "Point", "coordinates": [ 100.3035879, 5.3705289 ] } },
{ "type": "Feature", "properties": { "Name_CH": "槟城同善校友会", "Name_ML": null, "Name_EN": "Tong Sian Ex-Pupils Association", "Location": "158, Jalan P. Ramlee 10460 Pualua Pinang.", "Region": "Penang", "Category": "文教", "PageNumber": 90, "Country": "Malaysia", "latitude": 5.4065371, "longitude": 100.3089798 }, "geometry": { "type": "Point", "coordinates": [ 100.3089798, 5.4065371 ] } },
{ "type": "Feature", "properties": { "Name_CH": "槟城中华校友会", "Name_ML": null, "Name_EN": "Chung Hwa School Union", "Location": "No.80, Jalan Burma, 10350 Penang.", "Region": "Penang", "Category": "文教", "PageNumber": 90, "Country": "Malaysia", "latitude": 5.4269882, "longitude": 100.3173082 }, "geometry": { "type": "Point", "coordinates": [ 100.3173082, 5.4269882 ] } },
{ "type": "Feature", "properties": { "Name_CH": "槟城钟灵校友会", "Name_ML": "Persatuan Alumni Chung Ling Pulau Pinang", "Name_EN": "Penang Chung Ling High School Union", "Location": "No.46, Jalan Anson, 10400 Pulau Pinang.", "Region": "Penang", "Category": "文教", "PageNumber": 90, "Country": "Malaysia", "latitude": 5.4182668, "longitude": 100.3217903 }, "geometry": { "type": "Point", "coordinates": [ 100.3217903, 5.4182668 ] } },
{ "type": "Feature", "properties": { "Name_CH": "槟城中正校友会", "Name_ML": null, "Name_EN": "Penang Chung Cheng School Union", "Location": "30, Noordin Street 10300 Penang.", "Region": "Penang", "Category": "文教", "PageNumber": 90, "Country": "Malaysia", "latitude": 5.4113166, "longitude": 100.3318979 }, "geometry": { "type": "Point", "coordinates": [ 100.3318979, 5.4113166 ] } },
{ "type": "Feature", "properties": { "Name_CH": "槟城三民校友会", "Name_ML": "Persatuan Murid-Murid Lepasan Sekolah Sum Min", "Name_EN": null, "Location": "1, Lebuh Tye Sin, 10300 Pulau Pinang.", "Region": "Penang", "Category": "文教", "PageNumber": 90, "Country": "Malaysia", "latitude": 5.4096609, "longitude": 100.3312472 }, "geometry": { "type": "Point", "coordinates": [ 100.3312472, 5.4096609 ] } },
{ "type": "Feature", "properties": { "Name_CH": "槟城益华校友会", "Name_ML": "Persatuan Bekas Murid-Murid Aik Hua", "Name_EN": null, "Location": "93 Lebuh Muntri, 10200 Pulau Pinang.", "Region": "Penang", "Category": "文教", "PageNumber": 90, "Country": "Malaysia", "latitude": 5.4201159, "longitude": 100.3346955 }, "geometry": { "type": "Point", "coordinates": [ 100.3346955, 5.4201159 ] } },
{ "type": "Feature", "properties": { "Name_CH": "槟城商务校友会", "Name_ML": "Persatuan Bekas Murid-Murid Sekolah Shang Wu, Pulau Pinang", "Name_EN": "Shang Wu School Ex-Students Association Penang", "Location": "407, Lebuh Chulia, 10200 Pulau Pinang.", "Region": "Penang", "Category": "文教", "PageNumber": 90, "Country": "Malaysia", "latitude": 5.4188582, "longitude": 100.3349686 }, "geometry": { "type": "Point", "coordinates": [ 100.3349686, 5.4188582 ] } },
{ "type": "Feature", "properties": { "Name_CH": "槟城协和校友会", "Name_ML": null, "Name_EN": "Union School Alumni Association", "Location": "C\/O 288, Gat Lebuh Macallum, 10300 Pulau Pinang.", "Region": "Penang", "Category": "文教", "PageNumber": 90, "Country": "Malaysia", "latitude": 5.4068077, "longitude": 100.3336883 }, "geometry": { "type": "Point", "coordinates": [ 100.3336883, 5.4068077 ] } },
{ "type": "Feature", "properties": { "Name_CH": "槟城时中校友会", "Name_ML": null, "Name_EN": "Shih Chung Sch. Ex-Students' Association", "Location": "72-A, Love Lane, 10200 Pulau Pinang.", "Region": "Penang", "Category": "文教", "PageNumber": 90, "Country": "Malaysia", "latitude": 5.418965, "longitude": 100.3364826 }, "geometry": { "type": "Point", "coordinates": [ 100.3364826, 5.418965 ] } },
{ "type": "Feature", "properties": { "Name_CH": "槟城艺术协会", "Name_ML": "Persatuan Kesenian Pulau Pinang", "Name_EN": "Penang Arts Society", "Location": "3rd Floor, room 307, 22 Jalan Masjid Kapitan Keling, 10200 Pulau Pinang.", "Region": "Penang", "Category": "文教", "PageNumber": 90, "Country": "Malaysia", "latitude": 5.4188249, "longitude": 100.3388467 }, "geometry": { "type": "Point", "coordinates": [ 100.3388467, 5.4188249 ] } },
{ "type": "Feature", "properties": { "Name_CH": "槟城颖川校友会", "Name_ML": "Persatuan Murid-Murid Tua Sekolah Eng Chuan", "Name_EN": null, "Location": "24, Sek Tan Court Beach St., 10300 Pulau Pinang.", "Region": "Penang", "Category": "文教", "PageNumber": 90, "Country": "Malaysia", "latitude": 5.415099, "longitude": 100.339043 }, "geometry": { "type": "Point", "coordinates": [ 100.339043, 5.415099 ] } },
{ "type": "Feature", "properties": { "Name_CH": "槟州华校校友会联合会", "Name_ML": "P.P.P. Bekas Pelajar-Pelajar Sekolah Tiong Hua Pulau Pinang", "Name_EN": null, "Location": "63-B-01-07, University Heights, Jalan Sungai Dua, 11700 Pulau Pinang.", "Region": "Penang", "Category": "文教", "PageNumber": 91, "Country": "Malaysia", "latitude": 5.3527904, "longitude": 100.3019606 }, "geometry": { "type": "Point", "coordinates": [ 100.3019606, 5.3527904 ] } },
{ "type": "Feature", "properties": { "Name_CH": "槟榔屿韩江校友会", "Name_ML": null, "Name_EN": "Han Chiang Ex-pupils Association Penang", "Location": "31-D, Sam Road, 10400 Penang.", "Region": "Penang", "Category": "文教", "PageNumber": 91, "Country": "Malaysia", "latitude": 5.413519, "longitude": 100.321765 }, "geometry": { "type": "Point", "coordinates": [ 100.321765, 5.413519 ] } },
{ "type": "Feature", "properties": { "Name_CH": "槟华高师同学会", "Name_ML": null, "Name_EN": "Penang Chinese Senior Normal Students Union", "Location": "25, Jalan Irrawaddy, 10050 Pulau Pinang.", "Region": "Penang", "Category": "文教", "PageNumber": 91, "Country": "Malaysia", "latitude": 5.4257524, "longitude": 100.321684 }, "geometry": { "type": "Point", "coordinates": [ 100.321684, 5.4257524 ] } },
{ "type": "Feature", "properties": { "Name_CH": "槟州华校临时教师公会", "Name_ML": "Persatuan Guru-Guru Sementara Sekolah China Pulau Pinang", "Name_EN": null, "Location": "25, Jalan Irrawaddy, 10050 Pulau Pinang.", "Region": "Penang", "Category": "文教", "PageNumber": 91, "Country": "Malaysia", "latitude": 5.4257524, "longitude": 100.321684 }, "geometry": { "type": "Point", "coordinates": [ 100.321684, 5.4257524 ] } },
{ "type": "Feature", "properties": { "Name_CH": "槟城钟灵校友童军协会", "Name_ML": "Persatuan Bekas Pengakap Chung Ling Pulau Pinang", "Name_EN": "The Chung Ling Ex-scouts' Association, Penang", "Location": "46, Jalan Anson, 10400 Penang.", "Region": "Penang", "Category": "文教", "PageNumber": 91, "Country": "Malaysia", "latitude": 5.4182668, "longitude": 100.3217903 }, "geometry": { "type": "Point", "coordinates": [ 100.3217903, 5.4182668 ] } },
{ "type": "Feature", "properties": { "Name_CH": "槟榔屿明德校友会", "Name_ML": null, "Name_EN": "Beng Teik Ex-Pupils' Association", "Location": "40, Lebuh Presgrave 10300 Penang.", "Region": "Penang", "Category": "文教", "PageNumber": 91, "Country": "Malaysia", "latitude": 5.4107124, "longitude": 100.3309484 }, "geometry": { "type": "Point", "coordinates": [ 100.3309484, 5.4107124 ] } },
{ "type": "Feature", "properties": { "Name_CH": "槟州人民文化协会", "Name_ML": "Persatuan Kebudayaan Rakyat Pulau Pinang", "Name_EN": "Penang People's Culture Seciety", "Location": "No.15, Jalan Sungai Ujong, 10100 Pulau Pinang.", "Region": "Penang", "Category": "文教", "PageNumber": 91, "Country": "Malaysia", "latitude": 5.4158929, "longitude": 100.332121 }, "geometry": { "type": "Point", "coordinates": [ 100.332121, 5.4158929 ] } },
{ "type": "Feature", "properties": { "Name_CH": "槟州歌乐协会", "Name_ML": "Pertubuhan Muzik Pulau Pinang", "Name_EN": "Penang Music Council", "Location": "93, Lebuh Muntai, l0200 Penang.", "Region": "Penang", "Category": "文教", "PageNumber": 91, "Country": "Malaysia", "latitude": 5.4201159, "longitude": 100.3346955 }, "geometry": { "type": "Point", "coordinates": [ 100.3346955, 5.4201159 ] } },
{ "type": "Feature", "properties": { "Name_CH": "槟榔屿古物协会", "Name_ML": "Persatuan Pengumpul Barangan Antik Pulau Pinang", "Name_EN": "Penang Antique Collectors Association", "Location": "8, Jalan Pintal TalI, 10100 Pulau Pinang.", "Region": "Penang", "Category": "文教", "PageNumber": 91, "Country": "Malaysia", "latitude": 5.4183946, "longitude": 100.3351211 }, "geometry": { "type": "Point", "coordinates": [ 100.3351211, 5.4183946 ] } },
{ "type": "Feature", "properties": { "Name_CH": "槟榔屿南洋大学校友会", "Name_ML": null, "Name_EN": "Penang Nanyang University Alumni Association", "Location": "66, Weld Quay, 10300 Penang.", "Region": "Penang", "Category": "文教", "PageNumber": 91, "Country": "Malaysia", "latitude": 5.411439, "longitude": 100.3365139 }, "geometry": { "type": "Point", "coordinates": [ 100.3365139, 5.411439 ] } },
{ "type": "Feature", "properties": { "Name_CH": "槟威华校董事联合会", "Name_ML": "Gabungan Persatuan-Persatuan Lembaga Pengurus Sekolah-Sekolah Pulau Pinang & Seberang Perai", "Name_EN": null, "Location": "C\/O Penang Chinese Town Hall Rooom 10-l(Top Floor), 22, Jalan Masjid Kapitan Keling, 10200 Penang.", "Region": "Penang", "Category": "文教", "PageNumber": 91, "Country": "Malaysia", "latitude": 5.4188249, "longitude": 100.3388467 }, "geometry": { "type": "Point", "coordinates": [ 100.3388467, 5.4188249 ] } },
{ "type": "Feature", "properties": { "Name_CH": "槟州交响乐团协会", "Name_ML": "Persatuan Simfoni Pulau Pinang", "Name_EN": "Penang Symphony Society", "Location": null, "Region": "Penang", "Category": "文教", "PageNumber": 91, "Country": "Malaysia", "latitude": 0.0, "longitude": 0.0 }, "geometry": { "type": "Point", "coordinates": [ 0.0, 0.0 ] } },
{ "type": "Feature", "properties": { "Name_CH": "浮罗山背崇德校友会", "Name_ML": null, "Name_EN": "Chong Teik School Old Boys' Association", "Location": "338, Jalan Quah Sin Khong, 11000 Balik Pulau, Pulau Pinang.", "Region": "Penang", "Category": "文教", "PageNumber": 92, "Country": "Malaysia", "latitude": 5.3400647, "longitude": 100.2039477 }, "geometry": { "type": "Point", "coordinates": [ 100.2039477, 5.3400647 ] } },
{ "type": "Feature", "properties": { "Name_CH": "崇正校友会", "Name_ML": "Persatuan Bekas Murid-Murid Sekolah Chong Cheng Sg. Ara Pulau Pinang", "Name_EN": null, "Location": "SJK Chong Cheng (C), Sg. Ara, Pulau Pinang.", "Region": "Penang", "Category": "文教", "PageNumber": 92, "Country": "Malaysia", "latitude": 5.324564, "longitude": 100.271169 }, "geometry": { "type": "Point", "coordinates": [ 100.271169, 5.324564 ] } },
{ "type": "Feature", "properties": { "Name_CH": "公民同学会", "Name_ML": "Persatuan Bekas Murid SJK(C) Kong Min Kong Min", "Name_EN": "School Old Pupils' Association", "Location": "No.39-A, Jalan Air Hitam, 11500 Pulau Pinang.", "Region": "Penang", "Category": "文教", "PageNumber": 92, "Country": "Malaysia", "latitude": 5.40532, "longitude": 100.2833799 }, "geometry": { "type": "Point", "coordinates": [ 100.2833799, 5.40532 ] } },
{ "type": "Feature", "properties": { "Name_CH": "辅友社校友会", "Name_ML": "Pertubuhan Bekas Pelajar SRJK(C) Hu Yew Seh Pulau Pinang", "Name_EN": null, "Location": "Blok 46-7-7, Jalan Besi, Jelutong, Pulau Pinang.", "Region": "Penang", "Category": "文教", "PageNumber": 92, "Country": "Malaysia", "latitude": 5.3948342, "longitude": 100.3018192 }, "geometry": { "type": "Point", "coordinates": [ 100.3018192, 5.3948342 ] } },
{ "type": "Feature", "properties": { "Name_CH": "槟州三国演义硏究协会", "Name_ML": "Persatuan San Guo Yan Yi Negeri Pulau Pinang", "Name_EN": null, "Location": "108, Jalan Bagan Serai, 11600 Penang.", "Region": "Penang", "Category": "文教", "PageNumber": 92, "Country": "Malaysia", "latitude": 5.3931113, "longitude": 100.3089797 }, "geometry": { "type": "Point", "coordinates": [ 100.3089797, 5.3931113 ] } },
{ "type": "Feature", "properties": { "Name_CH": "槟州幼稚园教师公会", "Name_ML": "Persatuan Guru-Guru Tadika Pulau Pinang", "Name_EN": null, "Location": "D\/a Jit Sin Kindergarten, 6, Johor Road, 10400 Pulau Pinang.", "Region": "Penang", "Category": "文教", "PageNumber": 92, "Country": "Malaysia", "latitude": 5.3434669, "longitude": 100.446163 }, "geometry": { "type": "Point", "coordinates": [ 100.446163, 5.3434669 ] } },
{ "type": "Feature", "properties": { "Name_CH": "槟属华校师资训练班同学会", "Name_ML": null, "Name_EN": "Penang Chinese School Teachers'Training Class Union", "Location": "25, Jalan Irrawaddy, 10050 Pulau Pinang.", "Region": "Penang", "Category": "文教", "PageNumber": 92, "Country": "Malaysia", "latitude": 5.4257524, "longitude": 100.321684 }, "geometry": { "type": "Point", "coordinates": [ 100.321684, 5.4257524 ] } },
{ "type": "Feature", "properties": { "Name_CH": "槟州舞蹈协会", "Name_ML": "Persatuan Tarian Desa Pulau Pinang", "Name_EN": null, "Location": "c\/o 101-10-4, Menara Perdana, Jalan Gurdwara, 10300 Penang.", "Region": "Penang", "Category": "文教", "PageNumber": 92, "Country": "Malaysia", "latitude": 5.4060894, "longitude": 100.3268104 }, "geometry": { "type": "Point", "coordinates": [ 100.3268104, 5.4060894 ] } },
{ "type": "Feature", "properties": { "Name_CH": "槟州书艺学会", "Name_ML": null, "Name_EN": "The Calligraphy Association Of Penang", "Location": "184, Jalan CY Choy, 10300 Pulau Pinang.", "Region": "Penang", "Category": "文教", "PageNumber": 92, "Country": "Malaysia", "latitude": 5.4086842, "longitude": 100.330663 }, "geometry": { "type": "Point", "coordinates": [ 100.330663, 5.4086842 ] } },
{ "type": "Feature", "properties": { "Name_CH": "大山脚日新校友会", "Name_ML": "Persatuan Bekas Murid-Murid Sekolah Jit Sin", "Name_EN": "Jit Sin School Union", "Location": "462, Jalan Sri Bukit, 14000 Bukit Mertajam.", "Region": "Penang", "Category": "文教", "PageNumber": 92, "Country": "Malaysia", "latitude": 5.363816, "longitude": 100.456941 }, "geometry": { "type": "Point", "coordinates": [ 100.456941, 5.363816 ] } },
{ "type": "Feature", "properties": { "Name_CH": "高峇三方华侨校友会", "Name_ML": null, "Name_EN": "Oversea Chinese Sch. Old Boys' Association", "Location": "D\/A 1148, Mk-20, Kubang Semang, 11400 Bukit Mertajam.", "Region": "Penang", "Category": "文教", "PageNumber": 92, "Country": "Malaysia", "latitude": 5.403828, "longitude": 100.4637611 }, "geometry": { "type": "Point", "coordinates": [ 100.4637611, 5.403828 ] } },
{ "type": "Feature", "properties": { "Name_CH": "高渊培德校友会", "Name_ML": "Persatuan Bekas Murid-Murid Sekolah Pai Teik", "Name_EN": null, "Location": "1185, Jalan Pintu Sepuluh, 14300 Nibong Tebal, Seberang Perai Selatan.", "Region": "Penang", "Category": "文教", "PageNumber": 92, "Country": "Malaysia", "latitude": 5.1659776, "longitude": 100.477254 }, "geometry": { "type": "Point", "coordinates": [ 100.477254, 5.1659776 ] } },
{ "type": "Feature", "properties": { "Name_CH": "恒毅校友会", "Name_ML": null, "Name_EN": "Heng Ee Ex-pupils' Association", "Location": "99, Jalan Hamil Ton, 11600 Pulau Pinang.", "Region": "Penang", "Category": "文教", "PageNumber": 93, "Country": "Malaysia", "latitude": 5.3996593, "longitude": 100.3086368 }, "geometry": { "type": "Point", "coordinates": [ 100.3086368, 5.3996593 ] } },
{ "type": "Feature", "properties": { "Name_CH": "日落洞华小校友会", "Name_ML": "Persatuan Bekas Murid-Murid Sekolah Rendah Cina Jelutong", "Name_EN": "Primary Ex-pupils' Association Jelutong", "Location": "C\/o 99A, Jalan Tan Sri The Ewe Lim, 11600 Penang.", "Region": "Penang", "Category": "文教", "PageNumber": 93, "Country": "Malaysia", "latitude": 5.3925902, "longitude": 100.3084045 }, "geometry": { "type": "Point", "coordinates": [ 100.3084045, 5.3925902 ] } },
{ "type": "Feature", "properties": { "Name_CH": "马来西亚华人文化协会槟州分会", "Name_ML": "Pertubuhan Kebudayaan China Malaysia Negeri Pulau Pinang", "Name_EN": null, "Location": "15, Jalan Pahang ,10400 Pulau Pinang.", "Region": "Penang", "Category": "文教", "PageNumber": 93, "Country": "Malaysia", "latitude": 5.414654, "longitude": 100.32047 }, "geometry": { "type": "Point", "coordinates": [ 100.32047, 5.414654 ] } },
{ "type": "Feature", "properties": { "Name_CH": "丽泽校友会", "Name_ML": "Persatuan Bekas Murid Sekolah Li Tek", "Name_EN": "Li Tek School Ex-pupils' Association", "Location": "152, Lebuh Carnarvon, 10100 Pulau Pinang.", "Region": "Penang", "Category": "文教", "PageNumber": 93, "Country": "Malaysia", "latitude": 5.41556, "longitude": 100.3347479 }, "geometry": { "type": "Point", "coordinates": [ 100.3347479, 5.41556 ] } },
{ "type": "Feature", "properties": { "Name_CH": "马来西亚韩江校友会总会", "Name_ML": "Persekutuan Alumni Han Chiang Malaysia", "Name_EN": null, "Location": "No.2, Lorong Ceri 6, Taman Aman Jaya, Off Jalan Raja Ulu, 12300 Butterworth.", "Region": "Penang", "Category": "文教", "PageNumber": 93, "Country": "Malaysia", "latitude": 5.4214731, "longitude": 100.3806751 }, "geometry": { "type": "Point", "coordinates": [ 100.3806751, 5.4214731 ] } },
{ "type": "Feature", "properties": { "Name_CH": "甲拋峇底培育校友会", "Name_ML": "Pertubuhan Bekas Murid Sekolah Pei Yu Kepala Batas, Seberang Perai Utara.", "Name_EN": null, "Location": "31 Jalan Bertam, Kepala Batas, Seberang Perai Utara.", "Region": "Penang", "Category": "文教", "PageNumber": 93, "Country": "Malaysia", "latitude": 5.5191121, "longitude": 100.4468691 }, "geometry": { "type": "Point", "coordinates": [ 100.4468691, 5.5191121 ] } },
{ "type": "Feature", "properties": { "Name_CH": "马来西亚国民型华文中学校长理事会", "Name_ML": "Majlis Pengetua Sekolah Menengah Conforming Malaysia", "Name_EN": null, "Location": "SMJK Ji Sin, Jalan Binjal Taman Sri Rambai.", "Region": "Penang", "Category": "文教", "PageNumber": 93, "Country": "Malaysia", "latitude": 5.3434669, "longitude": 100.446163 }, "geometry": { "type": "Point", "coordinates": [ 100.446163, 5.3434669 ] } },
{ "type": "Feature", "properties": { "Name_CH": "威北甲抛峇底华侨校友会", "Name_ML": "Hwa Keow School Ex-Pupils' Association", "Name_EN": null, "Location": "31, Jalan Bertam Kepala Batas, 13200 Seberang Perai Utara.", "Region": "Penang", "Category": "文教", "PageNumber": 93, "Country": "Malaysia", "latitude": 5.5191121, "longitude": 100.4468691 }, "geometry": { "type": "Point", "coordinates": [ 100.4468691, 5.5191121 ] } },
{ "type": "Feature", "properties": { "Name_CH": "侨先校友会", "Name_ML": "Persatuan Bekas Murid-Murid Sekolah Keow Kuang", "Name_EN": null, "Location": "991, Sg. Rumbai, Bukit Mertajam.", "Region": "Penang", "Category": "文教", "PageNumber": 93, "Country": "Malaysia", "latitude": 5.3637953, "longitude": 100.4555806 }, "geometry": { "type": "Point", "coordinates": [ 100.4555806, 5.3637953 ] } },
{ "type": "Feature", "properties": { "Name_CH": "敬群校友会", "Name_ML": "Persatuan Bekas Murid-Murid Sekolah Keng Koon Bukit Tambun Seberang Perai", "Name_EN": null, "Location": "No.13, Main Road, Bukit Tambu, Province Wellesley South.", "Region": "Penang", "Category": "文教", "PageNumber": 93, "Country": "Malaysia", "latitude": 5.275221, "longitude": 100.459507 }, "geometry": { "type": "Point", "coordinates": [ 100.459507, 5.275221 ] } },
{ "type": "Feature", "properties": { "Name_CH": "启新校友会", "Name_ML": "Persatuan Bekas Murid-Murid Kay Sin Machang Bubok Seberang Perai", "Name_EN": null, "Location": "No.1145, Jalan 9, Machang Bubok, Bukit Mertajam.", "Region": "Penang", "Category": "文教", "PageNumber": 93, "Country": "Malaysia", "latitude": 5.3325309, "longitude": 100.5071093 }, "geometry": { "type": "Point", "coordinates": [ 100.5071093, 5.3325309 ] } },
{ "type": "Feature", "properties": { "Name_CH": "威北马华校友会", "Name_ML": "Persatuan Bekas Murid-Murid Sekolah Mah Hua", "Name_EN": null, "Location": "1807, Kampong Selamat, 11700 Tasek Glugo, Province Wellesley.", "Region": "Penang", "Category": "文教", "PageNumber": 93, "Country": "Malaysia", "latitude": 5.490955, "longitude": 100.5202642 }, "geometry": { "type": "Point", "coordinates": [ 100.5202642, 5.490955 ] } },
{ "type": "Feature", "properties": { "Name_CH": "文开校友会", "Name_ML": "Persatuan Bekas Murid-Murid Sekolah Wan Khai Pulau Pinang", "Name_EN": null, "Location": "Sekolah Rendah Wan Khai, Jalan Batu Maung, Pulau Pinang.", "Region": "Penang", "Category": "文教", "PageNumber": 94, "Country": "Malaysia", "latitude": 5.2796053, "longitude": 100.2729242 }, "geometry": { "type": "Point", "coordinates": [ 100.2729242, 5.2796053 ] } },
{ "type": "Feature", "properties": { "Name_CH": "新江校友会", "Name_ML": "Persatuan Bekas Murid-Murid Sekolah Sin Kang Sin Kang School Union", "Name_EN": null, "Location": "181, Carnarvon Street 10100 Penang.", "Region": "Penang", "Category": "文教", "PageNumber": 94, "Country": "Malaysia", "latitude": 5.4144369, "longitude": 100.3340786 }, "geometry": { "type": "Point", "coordinates": [ 100.3340786, 5.4144369 ] } },
{ "type": "Feature", "properties": { "Name_CH": "威省钟灵校友会", "Name_ML": "Persatuan Alumni Chung Ling Seberang Perai", "Name_EN": null, "Location": "4, Jalan Teratai, Off Jalan Raja Uda, 13000 Butterworth, Seberang Perai.", "Region": "Penang", "Category": "文教", "PageNumber": 94, "Country": "Malaysia", "latitude": 5.438186, "longitude": 100.3867679 }, "geometry": { "type": "Point", "coordinates": [ 100.3867679, 5.438186 ] } },
{ "type": "Feature", "properties": { "Name_CH": "醒侨校友会", "Name_ML": "Persatuan Bekas Murid Sekolah Seng Keow Kampung Pertama Seberang Perai Tengah", "Name_EN": null, "Location": "SRJK (C) Seng Keow Kampung Pertama", "Region": "Penang", "Category": "文教", "PageNumber": 94, "Country": "Malaysia", "latitude": 5.3959122, "longitude": 100.4115324 }, "geometry": { "type": "Point", "coordinates": [ 100.4115324, 5.3959122 ] } },
{ "type": "Feature", "properties": { "Name_CH": "威省峇东埔励侨校友会", "Name_ML": "Persatuan Bekas Murid-Murid Sekolah Lay Keow Pmtg Pauh", "Name_EN": null, "Location": "2, Tingkat Samagagah, 13500 Permatang Pauh, Province Wellesley.", "Region": "Penang", "Category": "文教", "PageNumber": 94, "Country": "Malaysia", "latitude": 5.4137778, "longitude": 100.4129196 }, "geometry": { "type": "Point", "coordinates": [ 100.4129196, 5.4137778 ] } },
{ "type": "Feature", "properties": { "Name_CH": "文明校友会", "Name_ML": "Persatuan Murid-Murid Sekolah Boon Beng", "Name_EN": null, "Location": "1404, Jalan Besar, 14100 Simpang Ampat Seberang Perai Selatan.", "Region": "Penang", "Category": "文教", "PageNumber": 94, "Country": "Malaysia", "latitude": 5.3152252, "longitude": 100.4435982 }, "geometry": { "type": "Point", "coordinates": [ 100.4435982, 5.3152252 ] } },
{ "type": "Feature", "properties": { "Name_CH": "威省平民校友会", "Name_ML": "Persatuan Bekas Murid-Murid School Peng Bin Bukit Tengah Seberang Perai", "Name_EN": null, "Location": "491, Sungai Rambai, 14000 Bukit Mertajam.", "Region": "Penang", "Category": "文教", "PageNumber": 94, "Country": "Malaysia", "latitude": 5.3642142, "longitude": 100.4536581 }, "geometry": { "type": "Point", "coordinates": [ 100.4536581, 5.3642142 ] } },
{ "type": "Feature", "properties": { "Name_CH": "威省韩江校友会", "Name_ML": "Persatuan Bekas Murid-Murid Han Chiang Seberang Prai", "Name_EN": null, "Location": "12, Jalan Ciku, 14000 Bukit Mertajam.", "Region": "Penang", "Category": "文教", "PageNumber": 94, "Country": "Malaysia", "latitude": 5.3666913, "longitude": 100.459926 }, "geometry": { "type": "Point", "coordinates": [ 100.459926, 5.3666913 ] } },
{ "type": "Feature", "properties": { "Name_CH": "威省大山脚金星校友会", "Name_ML": "Persatuan Bekas Murid-Murid Sekolah Kim Sen", "Name_EN": null, "Location": "2422, Jalan Kulim, 14000 Bukit Mertajam.", "Region": "Penang", "Category": "文教", "PageNumber": 94, "Country": "Malaysia", "latitude": 5.3524922, "longitude": 100.4741773 }, "geometry": { "type": "Point", "coordinates": [ 100.4741773, 5.3524922 ] } },
{ "type": "Feature", "properties": { "Name_CH": "威省励志校友会", "Name_ML": null, "Name_EN": "Lee Chee School Ex-Pupils Association", "Location": "2281, Jalan Raya, Tasek Gelugor, 13300 Seberang Perai.", "Region": "Penang", "Category": "文教", "PageNumber": 94, "Country": "Malaysia", "latitude": 5.494767, "longitude": 100.5127381 }, "geometry": { "type": "Point", "coordinates": [ 100.5127381, 5.494767 ] } },
{ "type": "Feature", "properties": { "Name_CH": "威省爪夷崇光校友会", "Name_ML": "Persatuan Bekas Murid-Murid Sekolah Chong Kuang", "Name_EN": null, "Location": "1177, Kampong Wellesley, 14200 Sg. Bakap, Seberang Perai Selatan.", "Region": "Penang", "Category": "文教", "PageNumber": 94, "Country": "Malaysia", "latitude": 5.2119568, "longitude": 100.5186385 }, "geometry": { "type": "Point", "coordinates": [ 100.5186385, 5.2119568 ] } },
{ "type": "Feature", "properties": { "Name_CH": "威中双溪仑武华小校友会", "Name_ML": "Persatuan Bekas Murid-Murid SJK(C) Kampung Sg. Lembu Bukit Mertajam ", "Name_EN": null, "Location": "No.347, Kampung Sg. Lembu, Bukit Mertajam.", "Region": "Penang", "Category": "文教", "PageNumber": 94, "Country": "Malaysia", "latitude": 5.367612, "longitude": 100.522235 }, "geometry": { "type": "Point", "coordinates": [ 100.522235, 5.367612 ] } },
{ "type": "Feature", "properties": { "Name_CH": "育才校友会", "Name_ML": "Persatuan Bekas Murid-Murid Sekolah Yu Chye", "Name_EN": null, "Location": "490, Kuala Sungai Pinang, 11000 Balik Pulau, Pulau Pinang.", "Region": "Penang", "Category": "文教", "PageNumber": 95, "Country": "Malaysia", "latitude": 5.39289, "longitude": 100.2036769 }, "geometry": { "type": "Point", "coordinates": [ 100.2036769, 5.39289 ] } },
{ "type": "Feature", "properties": { "Name_CH": "中山校友会", "Name_ML": null, "Name_EN": "Chang Shan School Union", "Location": "564, Bayan Lepas, 11900 Pulau Pinang.", "Region": "Penang", "Category": "文教", "PageNumber": 95, "Country": "Malaysia", "latitude": 5.3331774, "longitude": 100.3066084 }, "geometry": { "type": "Point", "coordinates": [ 100.3066084, 5.3331774 ] } },
{ "type": "Feature", "properties": { "Name_CH": "修道院华校校友会", "Name_ML": "Persatuan Bekas Murid-Murid Convent(China) : Dato Kramat", "Name_EN": null, "Location": "421 Dato Kramat Road, Pulau Pinang.", "Region": "Penang", "Category": "文教", "PageNumber": 95, "Country": "Malaysia", "latitude": 5.412028, "longitude": 100.3181249 }, "geometry": { "type": "Point", "coordinates": [ 100.3181249, 5.412028 ] } },
{ "type": "Feature", "properties": { "Name_CH": "中华校友会", "Name_ML": "Persekutuan Persatuan-Persatuan Bekas Pelajar Pelajar Sekolah Tiong Hua Negeri Pulau Pinang", "Name_EN": null, "Location": "No.46, Jalan Anson, Pulau Pinang.", "Region": "Penang", "Category": "文教", "PageNumber": 95, "Country": "Malaysia", "latitude": 5.4182668, "longitude": 100.3217903 }, "geometry": { "type": "Point", "coordinates": [ 100.3217903, 5.4182668 ] } },
{ "type": "Feature", "properties": { "Name_CH": "英华学校校友会", "Name_ML": null, "Name_EN": "Anglo Chinese School Union", "Location": "495-J, Penang Road.", "Region": "Penang", "Category": "文教", "PageNumber": 95, "Country": "Malaysia", "latitude": 5.4161761, "longitude": 100.3296607 }, "geometry": { "type": "Point", "coordinates": [ 100.3296607, 5.4161761 ] } },
{ "type": "Feature", "properties": { "Name_CH": "颍川校友会", "Name_ML": "Persatuan Murid-Murid Tua Sekolah Eng Chuan Pulau Pinang", "Name_EN": null, "Location": "No.24, Seh Tan Court, Pulau Pinang.", "Region": "Penang", "Category": "文教", "PageNumber": 95, "Country": "Malaysia", "latitude": 5.41359, "longitude": 100.336133 }, "geometry": { "type": "Point", "coordinates": [ 100.336133, 5.41359 ] } },
{ "type": "Feature", "properties": { "Name_CH": "中华公校校友会", "Name_ML": null, "Name_EN": "Chung Hwa Public School Ex-Students' Association Butterworth", "Location": "No.47, Tingkat Molek, Bagan Ajam, Butterworth, Seberang Perai.", "Region": "Penang", "Category": "文教", "PageNumber": 95, "Country": "Malaysia", "latitude": 5.4366762, "longitude": 100.3798268 }, "geometry": { "type": "Point", "coordinates": [ 100.3798268, 5.4366762 ] } },
{ "type": "Feature", "properties": { "Name_CH": "真光校友会", "Name_ML": "Persatuan Murid-Murid Tua Sekolah True Light Kg. Juru Seberang Perai", "Name_EN": null, "Location": "SRJK(C) True Light Kg. Juru, Simpang Ampat.", "Region": "Penang", "Category": "文教", "PageNumber": 95, "Country": "Malaysia", "latitude": 5.3157293, "longitude": 100.4461817 }, "geometry": { "type": "Point", "coordinates": [ 100.4461817, 5.3157293 ] } }
]
}
